latitude,longitude,altitude(feet),ascent(feet),speed(mph),distance(feet),time(millisecond),datetime(utc),satellites,voltage(v),max_altitude(feet),max_ascent(feet),max_speed(mph),max_distance(feet),compass_heading(degrees),isPhoto,isVideo,rc_elevator,rc_aileron,rc_throttle,rc_rudder,gimbal_heading(degrees),gimbal_pitch(degrees),battery_percent,voltageCell1,voltageCell2,voltageCell3,voltageCell4,voltageCell5,voltageCell6,flycStateRaw,flycState,message
49.6133910345682,14.9328876398118,1820.7830976351,0,0,0,0,2016-08-20 15:14:21,9,0,1820.7830976351,0,0,0,216.2,0,0,1024,1024,1024,1024,217.4,0,98,4.285,4.29,4.281,4.281,4.286,4.29,6,GPS_Atti,
49.6133910313598,14.9328876481141,1820.7830976351,0,0,0.00228522645108,100,2016-08-20 15:14:21,9,0,1820.7830976351,0,0,0.00228522645108,216.2,0,0,1024,1024,1024,1024,217.4,0,98,4.285,4.29,4.281,4.281,4.286,4.29,6,GPS_Atti,
49.6133911292438,14.9328878575363,1820.7830976351,0,0,0.061986878624,200,2016-08-20 15:14:21,9,0,1820.7830976351,0,0,0.061986878624,216.2,0,0,1024,1024,1024,1024,217.4,0,98,4.285,4.29,4.281,4.281,4.286,4.29,6,GPS_Atti,
49.6133911260727,14.9328878667453,1820.7830976351,0,0,0.06318733798,300,2016-08-20 15:14:22,9,0,1820.7830976351,0,0,0.06318733798,216.2,0,0,1024,1024,1024,1024,217.4,0,98,4.285,4.29,4.281,4.281,4.286,4.29,6,GPS_Atti,
49.6133912139932,14.9328879414971,1820.7830976351,0,0,0.096808073964,400,2016-08-20 15:14:22,9,0,1820.7830976351,0,0,0.096808073964,216.3,0,0,1024,1024,1024,1024,217.3,0,98,4.285,4.29,4.281,4.281,4.286,4.29,6,GPS_Atti,
49.6133912075855,14.9328879558576,1820.7830976351,0,0,0.097810698668,500,2016-08-20 15:14:22,9,0,1820.7830976351,0,0,0.097810698668,216.3,0,0,1024,1024,1024,1024,217.3,0,98,4.285,4.29,4.281,4.281,4.286,4.29,6,GPS_Atti,
49.613391305785,14.9328881565806,1820.7830976351,0,0,0.157213259624,700,2016-08-20 15:14:22,9,0,1820.7830976351,0,0,0.157213259624,216.4,0,0,1024,1024,1024,1024,217.3,0,98,4.285,4.29,4.281,4.281,4.286,4.29,6,GPS_Atti,
49.6133912995427,14.9328884646498,1820.7830976351,0,0,0.2176427235,800,2016-08-20 15:14:22,9,0,1820.7830976351,0,0,0.2176427235,216.4,0,0,1024,1024,1024,1024,217.3,0,98,4.285,4.29,4.281,4.281,4.286,4.29,6,GPS_Atti,
49.6133913000527,14.9328884742109,1820.7830976351,0,0,0.219751975536,900,2016-08-20 15:14:22,9,0,1820.7830976351,0,0,0.219751975536,216.4,0,0,1024,1024,1024,1024,217.3,0,98,4.285,4.29,4.281,4.281,4.286,4.29,6,GPS_Atti,
49.6133914094247,14.9328886437774,1820.7830976351,0,0,0.273924549448,1000,2016-08-20 15:14:22,9,25.713,1820.7830976351,0,0,0.273924549448,216.4,0,0,1024,1024,1024,1024,217.3,0,98,4.285,4.29,4.281,4.281,4.286,4.29,6,GPS_Atti,
49.6133914077329,14.932888656441,1820.7830976351,0,0,0.276217528524,1100,2016-08-20 15:14:22,9,25.713,1820.7830976351,0,0,0.276217528524,216.5,0,0,1024,1024,1024,1024,217.3,0,98,4.285,4.29,4.281,4.281,4.286,4.29,6,GPS_Atti,
49.6133914993915,14.9328888714976,1820.7830976351,0,0,0.3369586722,1200,2016-08-20 15:14:22,9,25.713,1820.7830976351,0,0,0.3369586722,216.5,0,0,1024,1024,1024,1024,217.3,0,98,4.285,4.29,4.281,4.281,4.286,4.29,6,GPS_Atti,
49.613391495715,14.9328888578277,1820.7830976351,0,0,0.33349410516,1300,2016-08-20 15:14:23,9,25.713,1820.7830976351,0,0,0.3369586722,216.5,0,0,1024,1024,1024,1024,217.3,0,98,4.285,4.29,4.281,4.281,4.286,4.29,6,GPS_Atti,
49.6133914748432,14.9328891884071,1820.7830976351,0,0,0.39978019652,1500,2016-08-20 15:14:23,9,25.713,1820.7830976351,0,0,0.39978019652,216.5,0,0,1024,1024,1024,1024,217.3,0,98,4.285,4.29,4.281,4.281,4.286,4.29,6,GPS_Atti,
49.6133914723992,14.9328894393659,1820.7830976351,0,0,0.45441930588,1600,2016-08-20 15:14:23,9,25.713,1820.7830976351,0,0,0.45441930588,216.5,0,0,1024,1024,1024,1024,217.3,0,98,4.285,4.29,4.281,4.281,4.286,4.29,6,GPS_Atti,
49.6133914626284,14.9328894400085,1820.7830976351,0,0,0.45332022448,1700,2016-08-20 15:14:23,9,25.713,1820.7830976351,0,0,0.45441930588,216.5,0,0,1024,1024,1024,1024,217.3,0,98,4.285,4.29,4.281,4.281,4.286,4.29,6,GPS_Atti,
49.6133920519333,14.9328882427372,1820.7830976351,0,0,0.39761156128,1800,2016-08-20 15:14:23,11,25.713,1820.7830976351,0,0,0.45441930588,216.5,0,0,1024,1024,1024,1024,217.3,0,98,4.285,4.29,4.281,4.281,4.286,4.29,6,GPS_Atti,
49.6133921114714,14.9328881647211,1820.7830976351,0,0,0.41203741476,1900,2016-08-20 15:14:23,11,25.713,1820.7830976351,0,0,0.45441930588,216.5,0,0,1024,1024,1024,1024,217.3,0,98,4.285,4.29,4.281,4.281,4.286,4.29,6,GPS_Atti,Taking off
49.6133925099319,14.9328874843356,1820.7830976351,0,0,0.53953741884,2000,2016-08-20 15:14:23,11,25.713,1820.7830976351,0,0,0.53953741884,216.5,0,0,1024,1024,1024,1024,217.3,0,98,4.285,4.29,4.281,4.281,4.286,4.29,11,AutoTakeoff,
49.6133925115952,14.9328874987679,1820.7830976351,0,0,0.53992455796,2100,2016-08-20 15:14:23,11,25.713,1820.7830976351,0,0,0.53992455796,216.5,0,0,1024,1024,1024,1024,217.3,0,98,4.285,4.29,4.281,4.281,4.287,4.29,11,AutoTakeoff,Return-to-Home Altitude:20M
49.613392950908,14.9328867731333,1820.7830976351,0,0,0.7285761388,2300,2016-08-20 15:14:23,11,25.713,1820.7830976351,0,0,0.7285761388,216.5,0,0,1024,1024,1024,1024,217.3,0,98,4.285,4.29,4.281,4.281,4.287,4.29,11,AutoTakeoff,
49.6133933389322,14.9328862717358,1820.7830976351,0,0,0.90080711544,2400,2016-08-20 15:14:24,11,25.713,1820.7830976351,0,0,0.90080711544,216.5,0,0,1024,1024,1024,1024,217.3,0,98,4.285,4.29,4.281,4.281,4.287,4.29,11,AutoTakeoff,
49.6133933180273,14.9328862708858,1820.7830976351,0,0,0.89376315196,2500,2016-08-20 15:14:24,11,25.713,1820.7830976351,0,0,0.90080711544,216.5,0,0,1024,1024,1024,1024,217.3,0,98,4.285,4.29,4.281,4.281,4.287,4.29,11,AutoTakeoff,
49.6133935153599,14.9328857706858,1820.7830976351,0,0,1.00721131832,2600,2016-08-20 15:14:24,11,25.713,1820.7830976351,0,0,1.00721131832,216.5,0,0,1024,1024,1024,1024,217.3,0,98,4.285,4.29,4.281,4.281,4.287,4.29,11,AutoTakeoff,
49.613393524104,14.9328857491685,1820.7830976351,0,0,1.01231630536,2700,2016-08-20 15:14:24,11,25.713,1820.7830976351,0,0,1.01231630536,216.6,0,0,1024,1024,1024,1024,217.3,0,98,4.285,4.29,4.281,4.281,4.287,4.29,11,AutoTakeoff,
49.6133938086012,14.9328852924043,1820.7830976351,0,0,1.15425528628,2800,2016-08-20 15:14:24,11,25.713,1820.7830976351,0,0,1.15425528628,216.6,0,0,1024,1024,1024,1024,217.3,0,98,4.285,4.29,4.281,4.281,4.287,4.29,11,AutoTakeoff,
49.6133937477688,14.9328851535842,1820.7830976351,0,0.3131716,1.151246756,2900,2016-08-20 15:14:24,11,25.713,1820.7830976351,0,0.3131716,1.15425528628,216.4,0,0,1024,1024,1024,1024,217.3,0,98,4.285,4.29,4.281,4.281,4.287,4.29,11,AutoTakeoff,
49.6133938060813,14.9328845263217,1820.7830976351,0,0.4921268,1.25069557808,3000,2016-08-20 15:14:24,11,25.713,1820.7830976351,0,0.4921268,1.25069557808,216.3,0,0,1024,1024,1024,1024,217.3,0,98,4.285,4.29,4.281,4.281,4.287,4.29,11,AutoTakeoff,
49.6133936256591,14.93288421472,1821.1111816351,0.328084,0.6263432,1.24471132592,3100,2016-08-20 15:14:24,11,25.713,1821.1111816351,0.328084,0.6263432,1.25069557808,216.3,0,0,1024,1024,1024,1024,217.3,0,98,4.285,4.29,4.281,4.281,4.287,4.29,11,AutoTakeoff,
49.6133934197526,14.9328833453062,1821.1111816351,0.328084,0.9395148,1.33715883544,3200,2016-08-20 15:14:24,11,25.681,1821.1111816351,0.328084,0.9395148,1.33715883544,216.3,0,0,1024,1024,1024,1024,217.3,0,98,4.278,4.285,4.274,4.276,4.281,4.284,11,AutoTakeoff,
49.6133930976031,14.9328828930567,1821.1111816351,0.328084,0.9395148,1.35120083064,3300,2016-08-20 15:14:25,11,25.681,1821.1111816351,0.328084,0.9395148,1.35120083064,216.2,0,0,1024,1024,1024,1024,217.3,0,98,4.278,4.285,4.274,4.276,4.281,4.284,11,AutoTakeoff,
49.6133929188843,14.9328820144034,1821.4392656351,0.656168,0.9395148,1.497047292,3400,2016-08-20 15:14:25,12,25.681,1821.4392656351,0.656168,0.9395148,1.497047292,216.2,0,0,1024,1024,1024,1024,217.3,0,98,4.278,4.285,4.274,4.276,4.281,4.284,11,AutoTakeoff,
49.6133925696698,14.9328815746674,1821.4392656351,0.656168,0.8052984,1.53931763456,3500,2016-08-20 15:14:25,12,25.681,1821.4392656351,0.656168,0.9395148,1.53931763456,216.2,0,0,1024,1024,1024,1024,217.3,0,98,4.278,4.285,4.274,4.276,4.281,4.284,11,AutoTakeoff,
49.6133923078338,14.9328805120868,1821.4392656351,0.656168,0.8052984,1.74786751,3600,2016-08-20 15:14:25,11,25.681,1821.4392656351,0.656168,0.9395148,1.74786751,216.2,0,0,1024,1024,1024,1024,217.3,0,98,4.278,4.285,4.274,4.276,4.281,4.284,11,AutoTakeoff,
49.6133920102796,14.9328801880589,1821.7673496351,0.984252,0.4921268,1.7972113436,3700,2016-08-20 15:14:25,11,25.681,1821.7673496351,0.984252,0.9395148,1.7972113436,216.2,0,0,1024,1024,1024,1024,217.3,0,98,4.278,4.285,4.274,4.276,4.281,4.284,11,AutoTakeoff,
49.6133919481009,14.9328793912392,1821.7673496351,0.984252,0.223694,1.97825137564,3900,2016-08-20 15:14:25,11,25.681,1821.7673496351,0.984252,0.9395148,1.97825137564,216.5,0,0,1024,1024,1024,1024,217.3,0,98,4.278,4.285,4.274,4.276,4.281,4.284,11,AutoTakeoff,
49.6133918879492,14.9328788336301,1822.0954336351,1.312336,0.223694,2.10494757392,4000,2016-08-20 15:14:25,10,25.681,1822.0954336351,1.312336,0.9395148,2.10494757392,216.6,0,0,1024,1024,1024,1024,217.3,0,98,4.278,4.285,4.274,4.276,4.281,4.284,11,AutoTakeoff,
49.6133917587762,14.9328787865129,1822.0954336351,1.312336,0.223694,2.10954403076,4100,2016-08-20 15:14:25,10,25.681,1822.0954336351,1.312336,0.9395148,2.10954403076,216.5,0,0,1024,1024,1024,1024,217.3,0,98,4.278,4.285,4.274,4.276,4.281,4.284,11,AutoTakeoff,
49.6133919731645,14.9328785445353,1822.4235176351,1.64042,0,2.17723432164,4200,2016-08-20 15:14:25,10,25.681,1822.4235176351,1.64042,0.9395148,2.17723432164,216.5,0,0,1024,1024,1024,1024,217.3,0,98,4.278,4.285,4.274,4.276,4.281,4.284,11,AutoTakeoff,
49.6133919408112,14.9328785818512,1822.4235176351,1.64042,0.223694,2.16668970188,4400,2016-08-20 15:14:26,10,24.811,1822.4235176351,1.64042,0.9395148,2.17723432164,216.3,0,0,1024,1024,1024,1024,217.3,0,98,4.126,4.14,4.081,4.123,4.128,4.135,11,AutoTakeoff,
49.613391937343,14.9328788621725,1822.7516016351,1.968504,0.447388,2.10102368928,4500,2016-08-20 15:14:26,10,24.811,1822.7516016351,1.968504,0.9395148,2.17723432164,216.3,0,0,1024,1024,1024,1024,217.3,0,98,4.126,4.14,4.081,4.123,4.128,4.135,11,AutoTakeoff,
49.6133923209009,14.9328790856967,1822.7516016351,1.968504,0.447388,2.07594822916,4600,2016-08-20 15:14:26,10,24.811,1822.7516016351,1.968504,0.9395148,2.17723432164,216.3,0,0,1024,1024,1024,1024,217.3,0,98,4.126,4.14,4.081,4.123,4.128,4.135,11,AutoTakeoff,
49.6133923485477,14.9328794188701,1822.7516016351,1.968504,0.447388,2.00169625828,4700,2016-08-20 15:14:26,10,24.811,1822.7516016351,1.968504,0.9395148,2.17723432164,216.3,0,0,1024,1024,1024,1024,217.3,0,98,4.126,4.14,4.081,4.123,4.128,4.135,11,AutoTakeoff,
49.6133926129405,14.9328791827374,1823.0796856351,2.296588,0.447388,2.08054796684,4800,2016-08-20 15:14:26,10,24.811,1823.0796856351,2.296588,0.9395148,2.17723432164,216.3,0,0,1024,1024,1024,1024,217.3,0,98,4.126,4.14,4.081,4.123,4.128,4.135,11,AutoTakeoff,
49.6133926899062,14.9328794786079,1823.0796856351,2.296588,0.447388,2.02164048464,4900,2016-08-20 15:14:26,10,24.811,1823.0796856351,2.296588,0.9395148,2.17723432164,216.3,0,0,1024,1024,1024,1024,217.3,0,98,4.126,4.14,4.081,4.123,4.128,4.135,11,AutoTakeoff,
49.6133929203104,14.9328795751771,1823.4077696351,2.624672,0.447388,2.02683405436,5000,2016-08-20 15:14:26,10,24.811,1823.4077696351,2.624672,0.9395148,2.17723432164,216.3,0,0,1024,1024,1024,1024,217.3,0,98,4.126,4.14,4.081,4.123,4.128,4.135,11,AutoTakeoff,
49.6133932236897,14.9328798676097,1823.4077696351,2.624672,0.447388,2.00344822684,5200,2016-08-20 15:14:26,11,24.811,1823.4077696351,2.624672,0.9395148,2.17723432164,216.2,0,0,1024,1024,1024,1024,217.3,0,98,4.126,4.14,4.081,4.123,4.128,4.135,11,AutoTakeoff,
49.6133935828473,14.9328804814002,1823.7358536351,2.952756,0.447388,1.9308399568,5400,2016-08-20 15:14:27,12,24.811,1823.7358536351,2.952756,0.9395148,2.17723432164,216.2,0,0,1024,1024,1024,1024,217.3,0,98,4.126,4.14,4.081,4.123,4.128,4.135,6,GPS_Atti,Landing Gear Raising
49.6133936318361,14.9328808310603,1823.7358536351,2.952756,0.447388,1.86782486292,5500,2016-08-20 15:14:27,12,24.811,1823.7358536351,2.952756,0.9395148,2.17723432164,216.2,0,0,1024,1024,1024,1024,217.3,0,98,4.126,4.14,4.081,4.123,4.128,4.135,6,GPS_Atti,
49.613393768444,14.9328808945577,1823.7358536351,2.952756,0.447388,1.8808563594,5600,2016-08-20 15:14:27,12,24.479,1823.7358536351,2.952756,0.9395148,2.17723432164,216.2,0,0,1024,1024,1024,1024,217.3,0,98,4.064,4.087,4.054,4.075,4.077,4.086,6,GPS_Atti,
49.6133939078913,14.9328815405689,1824.0639376351,3.28084,0.447388,1.78269034576,5800,2016-08-20 15:14:27,10,24.479,1824.0639376351,3.28084,0.9395148,2.17723432164,216.3,0,0,1024,1024,1024,1024,217.3,0,98,4.064,4.087,4.054,4.075,4.077,4.086,6,GPS_Atti,
49.6133939750619,14.9328820217091,1824.0639376351,3.28084,0.447388,1.70730648508,5900,2016-08-20 15:14:27,10,24.479,1824.0639376351,3.28084,0.9395148,2.17723432164,216.4,0,0,1024,1024,1024,1024,217.3,0,98,4.064,4.087,4.054,4.075,4.077,4.086,6,GPS_Atti,
49.6133939689511,14.9328821922271,1824.0639376351,3.28084,0.447388,1.67471462052,6000,2016-08-20 15:14:27,11,24.479,1824.0639376351,3.28084,0.9395148,2.17723432164,216.4,0,0,1024,1024,1024,1024,217.3,0,98,4.064,4.087,4.054,4.075,4.077,4.086,6,GPS_Atti,
49.6133939878957,14.9328825175764,1824.0639376351,3.28084,0.447388,1.62090556368,6100,2016-08-20 15:14:27,11,24.479,1824.0639376351,3.28084,0.9395148,2.17723432164,216.4,0,0,1024,1024,1024,1024,217.3,0,98,4.064,4.087,4.054,4.075,4.077,4.086,6,GPS_Atti,
49.6133941602124,14.9328826731265,1824.0639376351,3.28084,0.447388,1.63678811012,6200,2016-08-20 15:14:27,11,24.479,1824.0639376351,3.28084,0.9395148,2.17723432164,216.4,0,0,1024,1024,1024,1024,217.3,0,98,4.064,4.087,4.054,4.075,4.077,4.086,6,GPS_Atti,
49.6133941529386,14.932882938651,1823.7358536351,2.952756,0.223694,1.59045936848,6300,2016-08-20 15:14:28,11,24.479,1824.0639376351,3.28084,0.9395148,2.17723432164,216.5,0,0,1024,1024,1024,1024,217.3,0,98,4.064,4.087,4.054,4.075,4.077,4.086,6,GPS_Atti,
49.6133941831976,14.9328832921986,1823.7358536351,2.952756,0.223694,1.54143377636,6500,2016-08-20 15:14:28,12,24.479,1824.0639376351,3.28084,0.9395148,2.17723432164,216.5,0,0,1024,1024,1024,1024,217.3,0,98,4.064,4.087,4.054,4.075,4.077,4.086,6,GPS_Atti,
49.6133942562881,14.932883634884,1823.7358536351,2.952756,0.223694,1.5093176336,6600,2016-08-20 15:14:28,12,24.479,1824.0639376351,3.28084,0.9395148,2.17723432164,216.6,0,0,1024,1024,1024,1024,217.3,0,98,4.064,4.087,4.054,4.075,4.077,4.086,6,GPS_Atti,
49.6133942383403,14.9328838156881,1823.7358536351,2.952756,0.223694,1.47769361684,6700,2016-08-20 15:14:28,12,24.479,1824.0639376351,3.28084,0.9395148,2.17723432164,216.5,0,0,1024,1024,1024,1024,217.3,0,98,4.064,4.087,4.054,4.075,4.077,4.086,6,GPS_Atti,
49.61339428293,14.9328838761805,1823.7358536351,2.952756,0.223694,1.48196527052,6800,2016-08-20 15:14:28,12,24.413,1824.0639376351,3.28084,0.9395148,2.17723432164,216.5,0,0,1024,1024,1024,1024,217.3,0,98,4.043,4.072,4.1,4.058,4.083,4.064,6,GPS_Atti,
49.6133943318675,14.9328841335662,1823.7358536351,2.952756,0.223694,1.46092196276,6900,2016-08-20 15:14:28,12,24.413,1824.0639376351,3.28084,0.9395148,2.17723432164,216.5,0,0,1024,1024,1024,1024,217.3,0,98,4.043,4.072,4.1,4.058,4.083,4.064,6,GPS_Atti,
49.6133942696915,14.9328842663754,1823.7358536351,2.952756,0,1.42448823456,7100,2016-08-20 15:14:28,12,24.413,1824.0639376351,3.28084,0.9395148,2.17723432164,216.5,0,0,1024,1024,1024,1024,217.3,0,98,4.043,4.072,4.1,4.058,4.083,4.064,6,GPS_Atti,
49.6133943923343,14.9328843066433,1823.7358536351,2.952756,0,1.45660765816,7200,2016-08-20 15:14:28,12,24.413,1824.0639376351,3.28084,0.9395148,2.17723432164,216.5,0,0,1024,1024,1024,1024,217.3,0,98,4.043,4.072,4.1,4.058,4.083,4.064,6,GPS_Atti,
49.6133943618031,14.9328843951204,1823.7358536351,2.952756,0,1.43597117456,7300,2016-08-20 15:14:28,12,24.413,1824.0639376351,3.28084,0.9395148,2.17723432164,216.5,0,0,1024,1024,1024,1024,217.3,0,98,4.043,4.072,4.1,4.058,4.083,4.064,6,GPS_Atti,
49.6133943548101,14.9328841398245,1823.7358536351,2.952756,0,1.46698823592,7400,2016-08-20 15:14:29,12,24.413,1824.0639376351,3.28084,0.9395148,2.17723432164,216.6,0,0,1024,1024,1024,1024,217.3,0,98,4.043,4.072,4.1,4.058,4.083,4.064,6,GPS_Atti,
49.6133943832595,14.9328841197787,1823.7358536351,2.952756,0,1.47823495544,7500,2016-08-20 15:14:29,12,24.413,1824.0639376351,3.28084,0.9395148,2.17723432164,216.7,0,0,1024,1024,1024,1024,217.3,0,98,4.043,4.072,4.1,4.058,4.083,4.064,6,GPS_Atti,
49.6133944681605,14.9328839681191,1823.7358536351,2.952756,0,1.5240650094,7600,2016-08-20 15:14:29,12,24.413,1824.0639376351,3.28084,0.9395148,2.17723432164,216.7,0,0,1024,1024,1024,1024,217.3,0,98,4.043,4.072,4.1,4.058,4.083,4.064,6,GPS_Atti,
49.6133944604796,14.9328839285472,1823.7358536351,2.952756,0,1.52711947144,7700,2016-08-20 15:14:29,12,24.413,1824.0639376351,3.28084,0.9395148,2.17723432164,216.7,0,0,1024,1024,1024,1024,217.3,0,98,4.043,4.072,4.1,4.058,4.083,4.064,6,GPS_Atti,
49.6133944956117,14.9328837257085,1823.7358536351,2.952756,0,1.56548233356,7800,2016-08-20 15:14:29,12,24.413,1824.0639376351,3.28084,0.9395148,2.17723432164,216.7,0,0,1024,1024,1024,1024,217.3,0,98,4.043,4.072,4.1,4.058,4.083,4.064,6,GPS_Atti,
49.6133944850119,14.9328835042058,1823.7358536351,2.952756,0,1.59393705888,8000,2016-08-20 15:14:29,12,24.357,1824.0639376351,3.28084,0.9395148,2.17723432164,216.6,0,0,1024,1024,1024,1024,217.3,0,97,4.038,4.072,4.043,4.061,4.073,4.064,6,GPS_Atti,
49.6133945117265,14.9328835251635,1823.7358536351,2.952756,0,1.59862537924,8100,2016-08-20 15:14:29,12,24.357,1824.0639376351,3.28084,0.9395148,2.17723432164,216.6,0,0,1024,1024,1024,1024,217.3,0,97,4.038,4.072,4.043,4.061,4.073,4.064,6,GPS_Atti,
49.613394512378,14.9328833371003,1823.7358536351,2.952756,0,1.6262467712,8200,2016-08-20 15:14:29,12,24.357,1824.0639376351,3.28084,0.9395148,2.17723432164,216.6,0,0,1024,1024,1024,1024,217.3,0,97,4.038,4.072,4.043,4.061,4.073,4.064,6,GPS_Atti,
49.61339450682,14.9328833465007,1823.7358536351,2.952756,0,1.62327433016,8300,2016-08-20 15:14:29,12,24.357,1824.0639376351,3.28084,0.9395148,2.17723432164,216.6,0,0,1024,1024,1024,1024,217.3,0,97,4.038,4.072,4.043,4.061,4.073,4.064,6,GPS_Atti,
49.6133945961022,14.9328831694555,1823.7358536351,2.952756,0,1.67490819008,8400,2016-08-20 15:14:30,12,24.357,1824.0639376351,3.28084,0.9395148,2.17723432164,216.6,0,0,1024,1024,1024,1024,217.3,0,97,4.038,4.072,4.043,4.061,4.073,4.064,6,GPS_Atti,
49.6133945757918,14.9328831854041,1823.7358536351,2.952756,0,1.6667815494,8500,2016-08-20 15:14:30,12,24.357,1824.0639376351,3.28084,0.9395148,2.17723432164,216.6,0,0,1024,1024,1024,1024,217.3,0,97,4.038,4.072,4.043,4.061,4.073,4.064,6,GPS_Atti,
49.6133944519445,14.9328832178293,1823.7358536351,2.952756,0,1.62707026204,8600,2016-08-20 15:14:30,12,24.357,1824.0639376351,3.28084,0.9395148,2.17723432164,216.6,0,0,1024,1024,1024,1024,217.3,0,97,4.038,4.072,4.043,4.061,4.073,4.064,6,GPS_Atti,
49.6133944199009,14.9328832548542,1823.7358536351,2.952756,0,1.61249020908,8700,2016-08-20 15:14:30,12,24.357,1824.0639376351,3.28084,0.9395148,2.17723432164,216.6,0,0,1024,1024,1024,1024,217.3,0,97,4.038,4.072,4.043,4.061,4.073,4.064,6,GPS_Atti,
49.6133943488701,14.9328833542496,1823.7358536351,2.952756,0,1.57753285888,8900,2016-08-20 15:14:30,12,24.357,1824.0639376351,3.28084,0.9395148,2.17723432164,216.6,0,0,1024,1024,1024,1024,217.3,0,97,4.038,4.072,4.043,4.061,4.073,4.064,6,GPS_Atti,
49.6133942604715,14.9328833187596,1823.7358536351,2.952756,0,1.55843508924,9000,2016-08-20 15:14:30,12,24.357,1824.0639376351,3.28084,0.9395148,2.17723432164,216.7,0,0,1024,1024,1024,1024,217.3,0,97,4.038,4.072,4.043,4.061,4.073,4.064,6,GPS_Atti,
49.6133941836653,14.9328834037834,1823.7358536351,2.952756,0,1.52410109864,9100,2016-08-20 15:14:30,12,24.315,1824.0639376351,3.28084,0.9395148,2.17723432164,216.7,0,0,1024,1024,1024,1024,217.3,0,97,4.03,4.061,4.037,4.054,4.073,4.064,6,GPS_Atti,
49.6133941618958,14.9328832677426,1823.7358536351,2.952756,0,1.53952760832,9200,2016-08-20 15:14:30,12,24.315,1824.0639376351,3.28084,0.9395148,2.17723432164,216.6,0,0,1024,1024,1024,1024,217.3,0,97,4.03,4.061,4.037,4.054,4.073,4.064,6,GPS_Atti,
49.613394073152,14.9328833373507,1823.7358536351,2.952756,0,1.504511203,9300,2016-08-20 15:14:31,12,24.315,1824.0639376351,3.28084,0.9395148,2.17723432164,216.6,0,0,1024,1024,1024,1024,217.3,0,97,4.03,4.061,4.037,4.054,4.073,4.064,6,GPS_Atti,
49.6133940348365,14.932883131456,1823.7358536351,2.952756,0,1.5277887628,9500,2016-08-20 15:14:31,12,24.315,1824.0639376351,3.28084,0.9395148,2.17723432164,216.6,0,0,1024,1024,1024,1024,217.3,0,97,4.03,4.061,4.037,4.054,4.073,4.064,6,GPS_Atti,
49.6133940070455,14.9328829602794,1823.7358536351,2.952756,0,1.54917327792,9600,2016-08-20 15:14:31,12,24.315,1824.0639376351,3.28084,0.9395148,2.17723432164,216.5,0,0,1024,1024,1024,1024,217.3,0,97,4.03,4.061,4.037,4.054,4.073,4.064,6,GPS_Atti,
49.613394039296,14.9328829941979,1823.7358536351,2.952756,0,1.55174873732,9700,2016-08-20 15:14:31,12,24.315,1824.0639376351,3.28084,0.9395148,2.17723432164,216.6,0,0,1024,1024,1024,1024,217.3,0,97,4.03,4.061,4.037,4.054,4.073,4.064,6,GPS_Atti,
49.6133940657026,14.9328827166108,1823.7358536351,2.952756,0,1.60548561568,9800,2016-08-20 15:14:31,12,24.315,1824.0639376351,3.28084,0.9395148,2.17723432164,216.7,0,0,1024,1024,1024,1024,217.3,0,97,4.03,4.061,4.037,4.054,4.073,4.064,6,GPS_Atti,
49.6133941284192,14.932882549782,1823.7358536351,2.952756,0,1.6498688192,10000,2016-08-20 15:14:31,11,24.315,1824.0639376351,3.28084,0.9395148,2.17723432164,216.7,0,0,1024,1024,1024,1024,217.3,0,97,4.03,4.061,4.037,4.054,4.073,4.064,6,GPS_Atti,
49.6133941358691,14.9328825524776,1823.7358536351,2.952756,0,1.65126645704,10100,2016-08-20 15:14:31,11,24.315,1824.0639376351,3.28084,0.9395148,2.17723432164,216.7,0,0,1024,1024,1024,1024,217.3,0,97,4.03,4.061,4.037,4.054,4.073,4.064,6,GPS_Atti,
49.6133941416704,14.9328823544197,1823.7358536351,2.952756,0,1.68709322984,10200,2016-08-20 15:14:31,11,24.315,1824.0639376351,3.28084,0.9395148,2.17723432164,216.7,0,0,1024,1024,1024,1024,217.3,0,97,4.03,4.061,4.037,4.054,4.073,4.064,6,GPS_Atti,
49.6133941623558,14.9328823268836,1823.7358536351,2.952756,0,1.69698824328,10300,2016-08-20 15:14:32,11,24.294,1824.0639376351,3.28084,0.9395148,2.17723432164,216.6,0,0,1024,1024,1024,1024,217.3,0,97,4.029,4.062,4.036,4.049,4.059,4.055,6,GPS_Atti,
49.613394160095,14.9328822263753,1823.7358536351,2.952756,0,1.71409782388,10400,2016-08-20 15:14:32,11,24.294,1824.0639376351,3.28084,0.9395148,2.17723432164,216.6,0,0,1024,1024,1024,1024,217.3,0,97,4.029,4.062,4.036,4.049,4.059,4.055,6,GPS_Atti,
49.613394161314,14.9328822361757,1823.7358536351,2.952756,0,1.7126640968,10500,2016-08-20 15:14:32,11,24.294,1824.0639376351,3.28084,0.9395148,2.17723432164,216.6,0,0,1024,1024,1024,1024,217.3,0,97,4.029,4.062,4.036,4.049,4.059,4.055,6,GPS_Atti,
49.6133941754285,14.9328820575552,1823.7358536351,2.952756,0,1.74775924228,10600,2016-08-20 15:14:32,11,24.294,1824.0639376351,3.28084,0.9395148,2.17723432164,216.7,0,0,1024,1024,1024,1024,217.3,0,97,4.029,4.062,4.036,4.049,4.059,4.055,6,GPS_Atti,
49.6133941737154,14.9328820935088,1823.7358536351,2.952756,0,1.74093837592,10700,2016-08-20 15:14:32,11,24.294,1824.0639376351,3.28084,0.9395148,2.17723432164,216.9,0,0,1024,1024,1024,1024,217.3,0,97,4.029,4.062,4.036,4.049,4.059,4.055,6,GPS_Atti,
49.6133941244383,14.9328820670745,1823.7358536351,2.952756,0,1.7339075358,10900,2016-08-20 15:14:32,11,24.294,1824.0639376351,3.28084,0.9395148,2.17723432164,216.8,0,0,1024,1024,1024,1024,217.3,0,97,4.029,4.062,4.036,4.049,4.059,4.055,6,GPS_Atti,
49.613394119159,14.9328819879518,1823.7358536351,2.952756,0,1.74691934724,11000,2016-08-20 15:14:32,11,24.294,1824.0639376351,3.28084,0.9395148,2.17723432164,216.7,0,0,1024,1024,1098,1024,217.3,0,97,4.029,4.062,4.036,4.049,4.059,4.055,6,GPS_Atti,
49.61339412095,14.9328820216155,1824.0639376351,3.28084,0,1.74126317908,11100,2016-08-20 15:14:32,11,24.294,1824.0639376351,3.28084,0.9395148,2.17723432164,216.5,0,0,1024,1024,1161,1024,217.3,0,97,4.029,4.062,4.036,4.049,4.059,4.055,6,GPS_Atti,
49.6133941268806,14.9328820900522,1823.7358536351,2.952756,0.223694,1.7303642286,11200,2016-08-20 15:14:32,12,24.294,1824.0639376351,3.28084,0.9395148,2.17723432164,216.4,0,0,1024,1024,1222,1024,217.3,0,97,4.029,4.062,4.036,4.049,4.059,4.055,6,GPS_Atti,Landing Gear Raised
49.6133941290342,14.9328822270564,1823.7358536351,2.952756,0,1.70646002836,11300,2016-08-20 15:14:33,12,24.294,1824.0639376351,3.28084,0.9395148,2.17723432164,216.3,0,0,1024,1024,1250,1024,217.3,0,97,4.029,4.062,4.036,4.049,4.059,4.055,6,GPS_Atti,
49.6133942879627,14.932882230985,1823.7358536351,2.952756,0.223694,1.7446850952,11500,2016-08-20 15:14:33,12,24.246,1824.0639376351,3.28084,0.9395148,2.17723432164,216.3,0,0,1024,1024,1236,1024,217.3,0,97,4.013,4.059,4.025,4.048,4.051,4.047,6,GPS_Atti,
49.6133942835186,14.9328821359046,1824.0639376351,3.28084,0.223694,1.76013128992,11600,2016-08-20 15:14:33,12,24.246,1824.0639376351,3.28084,0.9395148,2.17723432164,216.4,0,0,1024,1024,1237,1024,217.3,0,97,4.013,4.059,4.025,4.048,4.051,4.047,6,GPS_Atti,
49.613394267718,14.9328821763083,1824.0639376351,3.28084,0.223694,1.74918968852,11700,2016-08-20 15:14:33,12,24.246,1824.0639376351,3.28084,0.9395148,2.17723432164,216.4,0,0,1024,1024,1240,1024,217.3,0,97,4.013,4.059,4.025,4.048,4.051,4.047,6,GPS_Atti,
49.6133944546341,14.9328822748049,1824.3920216351,3.608924,0,1.77921265536,11800,2016-08-20 15:14:33,12,24.246,1824.3920216351,3.608924,0.9395148,2.17723432164,216.4,0,0,1024,1024,1249,1024,217.3,0,97,4.013,4.059,4.025,4.048,4.051,4.047,6,GPS_Atti,
49.6133943076934,14.9328821988755,1824.7201056351,3.937008,0,1.75514441312,12000,2016-08-20 15:14:33,12,24.246,1824.7201056351,3.937008,0.9395148,2.17723432164,216.3,0,0,1024,1024,1250,1024,217.3,0,97,4.013,4.059,4.025,4.048,4.051,4.047,6,GPS_Atti,
49.6133942473628,14.9328820978723,1825.0481896351,4.265092,0,1.75796265468,12100,2016-08-20 15:14:33,12,24.246,1825.0481896351,4.265092,0.9395148,2.17723432164,216.2,0,0,1024,1024,1249,1024,217.3,0,97,4.013,4.059,4.025,4.048,4.051,4.047,6,GPS_Atti,
49.6133943309508,14.9328823230107,1825.3762736351,4.593176,0.223694,1.73960963572,12200,2016-08-20 15:14:33,12,24.246,1825.3762736351,4.593176,0.9395148,2.17723432164,216.2,0,0,1024,1024,1249,1024,217.3,0,97,4.013,4.059,4.025,4.048,4.051,4.047,6,GPS_Atti,
49.6133943067561,14.9328824114975,1825.7043576351,4.92126,0.223694,1.71841212848,12300,2016-08-20 15:14:33,12,24.246,1825.7043576351,4.92126,0.9395148,2.17723432164,216.2,0,0,1024,1024,1256,1024,217.3,0,97,4.013,4.059,4.025,4.048,4.051,4.047,6,GPS_Atti,
49.6133942266191,14.9328822535168,1826.0324416351,5.249344,0.223694,1.72560044892,12400,2016-08-20 15:14:34,11,24.246,1826.0324416351,5.249344,0.9395148,2.17723432164,216.1,0,0,1024,1024,1256,1024,217.3,0,97,4.013,4.059,4.025,4.048,4.051,4.047,6,GPS_Atti,
49.6133941640085,14.9328823982391,1826.3605256351,5.577428,0.223694,1.68494756048,12500,2016-08-20 15:14:34,11,24.246,1826.3605256351,5.577428,0.9395148,2.17723432164,216.2,0,0,1024,1024,1258,1024,217.3,0,97,4.013,4.059,4.025,4.048,4.051,4.047,6,GPS_Atti,
49.6133939293116,14.9328829749149,1826.6886096351,5.905512,0.3131716,1.5269521486,12700,2016-08-20 15:14:34,12,24.196,1826.6886096351,5.905512,0.9395148,2.17723432164,216.2,0,0,1024,1024,1260,1024,217.3,0,97,4.019,4.051,4.017,4.04,4.048,4.048,6,GPS_Atti,
49.6133939765136,14.9328830792395,1827.0166936351,6.233596,0.223694,1.52133863136,12800,2016-08-20 15:14:34,12,24.196,1827.0166936351,6.233596,0.9395148,2.17723432164,216.2,0,0,1024,1024,1260,1024,217.3,0,97,4.019,4.051,4.017,4.04,4.048,4.048,6,GPS_Atti,
49.6133939423093,14.9328833161289,1827.3447776351,6.56168,0.223694,1.47316605764,12900,2016-08-20 15:14:34,12,24.196,1827.3447776351,6.56168,0.9395148,2.17723432164,216.2,0,0,1024,1024,1259,1024,217.3,0,97,4.019,4.051,4.017,4.04,4.048,4.048,6,GPS_Atti,
49.6133941269885,14.9328834023139,1827.6728616351,6.889764,0.223694,1.50880582256,13000,2016-08-20 15:14:34,11,24.196,1827.6728616351,6.889764,0.9395148,2.17723432164,216.2,0,0,1024,1024,1260,1024,217.3,0,97,4.019,4.051,4.017,4.04,4.048,4.048,6,GPS_Atti,
49.6133941795485,14.9328837407169,1828.0009456351,7.217848,0.223694,1.47182091324,13100,2016-08-20 15:14:34,11,24.196,1828.0009456351,7.217848,0.9395148,2.17723432164,216.2,0,0,1024,1024,1261,1024,217.3,0,97,4.019,4.051,4.017,4.04,4.048,4.048,6,GPS_Atti,
49.6133940173577,14.9328837256281,1828.3290296351,7.545932,0.223694,1.42847445516,13200,2016-08-20 15:14:34,11,24.196,1828.3290296351,7.545932,0.9395148,2.17723432164,216.2,0,0,1024,1024,1261,1024,217.3,0,97,4.019,4.051,4.017,4.04,4.048,4.048,6,GPS_Atti,
49.6133939885249,14.9328838748011,1828.6571136351,7.874016,0.223694,1.39776251192,13300,2016-08-20 15:14:34,11,24.196,1828.6571136351,7.874016,0.9395148,2.17723432164,216.3,0,0,1024,1024,1260,1024,217.3,0,97,4.019,4.051,4.017,4.04,4.048,4.048,6,GPS_Atti,
49.6133942276997,14.932883906973,1829.3132816351,8.530184,0,1.46149610976,13500,2016-08-20 15:14:35,12,24.196,1829.3132816351,8.530184,0.9395148,2.17723432164,216.4,0,0,1024,1024,1260,1024,217.3,0,97,4.019,4.051,4.017,4.04,4.048,4.048,6,GPS_Atti,
49.6133942964643,14.932884112068,1829.6413656351,8.858268,0.223694,1.4532152696,13600,2016-08-20 15:14:35,12,24.196,1829.6413656351,8.858268,0.9395148,2.17723432164,216.4,0,0,1024,1024,1260,1024,217.3,0,97,4.019,4.051,4.017,4.04,4.048,4.048,6,GPS_Atti,
49.6133943206582,14.9328841902214,1829.9694496351,9.186352,0,1.4499836422,13700,2016-08-20 15:14:35,12,24.196,1829.9694496351,9.186352,0.9395148,2.17723432164,216.4,0,0,1024,1024,1261,1024,217.3,0,97,4.019,4.051,4.017,4.04,4.048,4.048,6,GPS_Atti,
49.6133940777852,14.9328838551867,1829.9694496351,9.186352,0,1.42592852332,13800,2016-08-20 15:14:35,12,24.022,1829.9694496351,9.186352,0.9395148,2.17723432164,216.3,0,0,1024,1024,1265,1024,217.3,0,97,3.982,4.023,3.989,4.011,4.031,4.017,6,GPS_Atti,
49.613394058707,14.9328838212979,1830.2975336351,9.514436,0,1.4255741926,13900,2016-08-20 15:14:35,12,24.022,1830.2975336351,9.514436,0.9395148,2.17723432164,216.2,0,0,1024,1024,1263,1024,217.3,0,97,3.982,4.023,3.989,4.011,4.031,4.017,6,GPS_Atti,
49.6133940504473,14.9328839753163,1830.6256176351,9.84252,0,1.40043311568,14000,2016-08-20 15:14:35,12,24.022,1830.6256176351,9.84252,0.9395148,2.17723432164,216.2,0,0,1024,1024,1254,1024,217.3,0,97,3.982,4.023,3.989,4.011,4.031,4.017,6,GPS_Atti,
49.6133940487888,14.9328840386715,1831.2817856351,10.498688,0,1.39073823348,14200,2016-08-20 15:14:35,12,24.022,1831.2817856351,10.498688,0.9395148,2.17723432164,216.4,0,0,1024,1024,1254,1024,217.3,0,97,3.982,4.023,3.989,4.011,4.031,4.017,6,GPS_Atti,
49.6133940199817,14.9328840260534,1831.6098696351,10.826772,0,1.38428154036,14300,2016-08-20 15:14:35,12,24.022,1831.6098696351,10.826772,0.9395148,2.17723432164,216.3,0,0,1024,1024,1261,1024,217.3,0,97,3.982,4.023,3.989,4.011,4.031,4.017,6,GPS_Atti,
49.613393830412,14.9328839057845,1831.9379536351,11.154856,0,1.34897642112,14400,2016-08-20 15:14:36,12,24.022,1831.9379536351,11.154856,0.9395148,2.17723432164,216.3,0,0,1024,1024,1256,1024,217.3,0,97,3.982,4.023,3.989,4.011,4.031,4.017,6,GPS_Atti,
49.6133938457822,14.932883899645,1832.2660376351,11.48294,0,1.35416999084,14500,2016-08-20 15:14:36,12,24.022,1832.2660376351,11.48294,0.9395148,2.17723432164,216.3,0,0,1024,1024,1261,1024,217.3,0,97,3.982,4.023,3.989,4.011,4.031,4.017,6,GPS_Atti,
49.6133938598502,14.9328840854414,1832.5941216351,11.811024,0,1.32988193232,14600,2016-08-20 15:14:36,12,24.022,1832.5941216351,11.811024,0.9395148,2.17723432164,216.3,0,0,1024,1024,1263,1024,217.3,0,97,3.982,4.023,3.989,4.011,4.031,4.017,6,GPS_Atti,
49.6133939047794,14.9328845079388,1833.2502896351,12.467192,0,1.28249019852,14800,2016-08-20 15:14:36,12,24.022,1833.2502896351,12.467192,0.9395148,2.17723432164,216.2,0,0,1024,1024,1260,1024,217.3,0,97,3.982,4.023,3.989,4.011,4.031,4.017,6,GPS_Atti,
49.6133939047794,14.9328845079388,1833.2502896351,12.467192,0,1.28249019852,14800,2016-08-20 15:14:36,12,24.022,1833.2502896351,12.467192,0.9395148,2.17723432164,216.2,0,0,1024,1024,1261,1024,217.3,0,97,3.982,4.023,3.989,4.011,4.031,4.017,6,GPS_Atti,
49.613393901415,14.9328845923488,1833.5783736351,12.795276,0,1.2700623766,14900,2016-08-20 15:14:36,12,24.119,1833.5783736351,12.795276,0.9395148,2.17723432164,216.2,0,0,1024,1024,1261,1024,217.3,0,97,4,4.034,4.002,4.022,4.033,4.031,6,GPS_Atti,
49.6133939028604,14.9328843842751,1833.9064576351,13.12336,0,1.29902235128,15000,2016-08-20 15:14:36,12,24.119,1833.9064576351,13.12336,0.9395148,2.17723432164,216.3,0,0,1024,1024,1247,1024,217.3,0,97,4,4.034,4.002,4.022,4.033,4.031,6,GPS_Atti,
49.6133938996373,14.9328843721974,1834.2345416351,13.451444,0,1.29976710196,15100,2016-08-20 15:14:36,12,24.119,1834.2345416351,13.451444,0.9395148,2.17723432164,216.3,0,0,1024,1024,1255,1024,217.3,0,97,4,4.034,4.002,4.022,4.033,4.031,6,GPS_Atti,
49.6133937665567,14.9328843535611,1834.5626256351,13.779528,0,1.26375332128,15200,2016-08-20 15:14:36,12,24.119,1834.5626256351,13.779528,0.9395148,2.17723432164,216.4,0,0,1024,1024,1256,1024,217.3,0,97,4,4.034,4.002,4.022,4.033,4.031,6,GPS_Atti,
49.6133937613237,14.9328843244212,1834.8907096351,14.107612,0,1.26649938436,15300,2016-08-20 15:14:37,12,24.119,1834.8907096351,14.107612,0.9395148,2.17723432164,216.4,0,0,1024,1024,1260,1024,217.3,0,97,4,4.034,4.002,4.022,4.033,4.031,6,GPS_Atti,
49.6133938523898,14.9328842939922,1835.2187936351,14.435696,0,1.29713586828,15400,2016-08-20 15:14:37,12,24.119,1835.2187936351,14.435696,0.9395148,2.17723432164,216.4,0,0,1024,1024,1260,1024,217.3,0,97,4,4.034,4.002,4.022,4.033,4.031,6,GPS_Atti,
49.6133938446417,14.9328843081666,1835.5468776351,14.76378,0,1.29285109124,15500,2016-08-20 15:14:37,12,24.119,1835.5468776351,14.76378,0.9395148,2.17723432164,216.5,0,0,1024,1024,1257,1024,217.3,0,97,4,4.034,4.002,4.022,4.033,4.031,6,GPS_Atti,
49.6133938640505,14.9328846636553,1836.2030456351,15.419948,0,1.24928809772,15700,2016-08-20 15:14:37,12,24.119,1836.2030456351,15.419948,0.9395148,2.17723432164,216.4,0,0,1024,1024,1260,1024,217.3,0,97,4,4.034,4.002,4.022,4.033,4.031,6,GPS_Atti,
49.6133938863494,14.932884744805,1836.2030456351,15.419948,0,1.2453740556,15800,2016-08-20 15:14:37,12,24.119,1836.2030456351,15.419948,0.9395148,2.17723432164,216.4,0,0,1024,1024,1264,1024,217.3,0,97,4,4.034,4.002,4.022,4.033,4.031,6,GPS_Atti,
49.6133939199993,14.9328847351313,1836.5311296351,15.748032,0,1.25689964652,15900,2016-08-20 15:14:37,12,24.119,1836.5311296351,15.748032,0.9395148,2.17723432164,216.3,0,0,1024,1024,1266,1024,217.3,0,97,4,4.034,4.002,4.022,4.033,4.031,6,GPS_Atti,
49.6133938294934,14.9328843182274,1837.1872976351,16.4042,0,1.28702103856,16000,2016-08-20 15:14:37,12,24.115,1837.1872976351,16.4042,0.9395148,2.17723432164,216.3,0,0,1024,1024,1266,1024,217.3,0,97,3.999,4.04,4.008,4.029,4.026,4.031,6,GPS_Atti,
49.6133938301773,14.9328842995297,1837.1872976351,16.4042,0,1.28992130112,16100,2016-08-20 15:14:37,12,24.115,1837.1872976351,16.4042,0.9395148,2.17723432164,216.4,0,0,1024,1024,1266,1024,217.3,0,97,3.999,4.04,4.008,4.029,4.026,4.031,6,GPS_Atti,
49.6133937357906,14.9328842063031,1837.8434656351,17.060368,0,1.27676185188,16200,2016-08-20 15:14:37,12,24.115,1837.8434656351,17.060368,0.9395148,2.17723432164,216.4,0,0,1024,1024,1264,1024,217.3,0,97,3.999,4.04,4.008,4.029,4.026,4.031,6,GPS_Atti,
49.6133937176107,14.9328842189354,1838.1715496351,17.388452,0,1.26974413512,16300,2016-08-20 15:14:38,12,24.115,1838.1715496351,17.388452,0.9395148,2.17723432164,216.5,0,0,1024,1024,1265,1024,217.3,0,97,3.999,4.04,4.008,4.029,4.026,4.031,6,GPS_Atti,
49.6133936950807,14.9328843489488,1838.4996336351,17.716536,0,1.24396985608,16400,2016-08-20 15:14:38,12,24.115,1838.4996336351,17.716536,0.9395148,2.17723432164,216.5,0,0,1024,1024,1262,1024,217.3,0,97,3.999,4.04,4.008,4.029,4.026,4.031,6,GPS_Atti,
49.6133935678419,14.9328841952873,1839.1558016351,18.372704,0,1.23180122052,16600,2016-08-20 15:14:38,12,24.115,1839.1558016351,18.372704,0.9395148,2.17723432164,216.5,0,0,1024,1024,1263,1024,217.3,0,97,3.999,4.04,4.008,4.029,4.026,4.031,6,GPS_Atti,
49.6133935846252,14.9328841912223,1839.4838856351,18.700788,0,1.23703416032,16700,2016-08-20 15:14:38,12,24.115,1839.4838856351,18.700788,0.9395148,2.17723432164,216.5,0,0,1024,1024,1262,1024,217.3,0,97,3.999,4.04,4.008,4.029,4.026,4.031,6,GPS_Atti,
49.6133936381715,14.9328841343759,1839.8119696351,19.028872,0,1.26058731068,16800,2016-08-20 15:14:38,12,24.115,1839.8119696351,19.028872,0.9395148,2.17723432164,216.5,0,0,1024,1024,1262,1024,217.3,0,97,3.999,4.04,4.008,4.029,4.026,4.031,6,GPS_Atti,
49.6133936727963,14.9328841361524,1840.1400536351,19.356956,0,1.26985896452,16900,2016-08-20 15:14:38,12,24.115,1840.1400536351,19.356956,0.9395148,2.17723432164,216.5,0,0,1024,1024,1263,1024,217.3,0,97,3.999,4.04,4.008,4.029,4.026,4.031,6,GPS_Atti,
49.6133939049378,14.9328842488212,1840.4681376351,19.68504,0,1.31884518656,17000,2016-08-20 15:14:38,12,24.115,1840.4681376351,19.68504,0.9395148,2.17723432164,216.5,0,0,1024,1024,1263,1024,217.3,0,97,3.999,4.04,4.008,4.029,4.026,4.031,6,GPS_Atti,
49.6133939799739,14.932884231069,1841.1243056351,20.341208,0,1.34320214272,17200,2016-08-20 15:14:38,12,24.107,1841.1243056351,20.341208,0.9395148,2.17723432164,216.4,0,0,1024,1024,1264,1024,217.3,0,97,4.002,4.019,4.013,4.007,4.027,4.026,6,GPS_Atti,
49.6133939763476,14.9328842447223,1841.4523896351,20.669292,0,1.34021001664,17300,2016-08-20 15:14:38,12,24.107,1841.4523896351,20.669292,0.9395148,2.17723432164,216.4,0,0,1024,1024,1265,1024,217.3,0,97,4.002,4.019,4.013,4.007,4.027,4.026,6,GPS_Atti,
49.6133940375803,14.9328842976949,1841.7804736351,20.997376,0,1.350803849,17400,2016-08-20 15:14:39,12,24.107,1841.7804736351,20.997376,0.9395148,2.17723432164,216.4,0,0,1024,1024,1265,1024,217.3,0,97,4.002,4.019,4.013,4.007,4.027,4.026,6,GPS_Atti,
49.6133940152283,14.9328843016506,1842.1085576351,21.32546,0,1.34364833696,17500,2016-08-20 15:14:39,12,24.107,1842.1085576351,21.32546,0.9395148,2.17723432164,216.4,0,0,1024,1024,1265,1024,217.3,0,97,4.002,4.019,4.013,4.007,4.027,4.026,6,GPS_Atti,
49.6133940016158,14.9328842968671,1842.4366416351,21.653544,0,1.34029859932,17600,2016-08-20 15:14:39,12,24.107,1842.4366416351,21.653544,0.9395148,2.17723432164,216.5,0,0,1024,1024,1262,1024,217.3,0,97,4.002,4.019,4.013,4.007,4.027,4.026,6,GPS_Atti,
49.6133939788643,14.9328842680405,1842.7647256351,21.981628,0,1.33765096144,17700,2016-08-20 15:14:39,12,24.107,1842.7647256351,21.981628,0.9395148,2.17723432164,216.5,0,0,1024,1024,1263,1024,217.3,0,97,4.002,4.019,4.013,4.007,4.027,4.026,6,GPS_Atti,
49.613394062533,14.9328840671416,1843.4208936351,22.637796,0,1.39061028072,17900,2016-08-20 15:14:39,12,24.107,1843.4208936351,22.637796,0.9395148,2.17723432164,216.6,0,0,1024,1024,1263,1024,217.3,0,97,4.002,4.019,4.013,4.007,4.027,4.026,6,GPS_Atti,
49.6133941219389,14.9328838286473,1844.0770616351,23.293964,0,1.44241802516,18000,2016-08-20 15:14:39,12,24.107,1844.0770616351,23.293964,0.9395148,2.17723432164,216.6,0,0,1024,1024,1261,1024,217.3,0,97,4.002,4.019,4.013,4.007,4.027,4.026,6,GPS_Atti,
49.613394121668,14.9328838166435,1844.4051456351,23.622048,0,1.44411421944,18100,2016-08-20 15:14:39,12,24.107,1844.4051456351,23.622048,0.9395148,2.17723432164,216.6,0,0,1024,1024,1261,1024,217.3,0,97,4.002,4.019,4.013,4.007,4.027,4.026,6,GPS_Atti,
49.6133941281696,14.9328839005342,1844.7332296351,23.950132,0,1.43365490152,18200,2016-08-20 15:14:39,12,24.107,1844.7332296351,23.950132,0.9395148,2.17723432164,216.6,0,0,1024,1024,1262,1024,217.3,0,97,4.002,4.019,4.013,4.007,4.027,4.026,6,GPS_Atti,
49.6133941816152,14.9328838837429,1845.0613136351,24.278216,0,1.45147970524,18300,2016-08-20 15:14:40,12,24.105,1845.0613136351,24.278216,0.9395148,2.17723432164,216.5,0,0,1024,1024,1262,1024,217.3,0,96,4,4.027,3.996,4.013,4.035,4.032,6,GPS_Atti,
49.6133941966895,14.9328839000922,1845.7174816351,24.934384,0,1.45348101764,18500,2016-08-20 15:14:40,12,24.105,1845.7174816351,24.934384,0.9395148,2.17723432164,216.4,0,0,1024,1024,1262,1024,217.3,0,96,4,4.027,3.996,4.013,4.035,4.032,6,GPS_Atti,
49.6133942569307,14.9328841014666,1846.0455656351,25.262468,0,1.44287734276,18600,2016-08-20 15:14:40,12,24.105,1846.0455656351,25.262468,0.9395148,2.17723432164,216.3,0,0,1024,1024,1262,1024,217.3,0,96,4,4.027,3.996,4.013,4.035,4.032,6,GPS_Atti,
49.6133942433157,14.9328840895975,1846.3736496351,25.590552,0,1.44046592536,18700,2016-08-20 15:14:40,12,24.105,1846.3736496351,25.590552,0.9395148,2.17723432164,216.3,0,0,1024,1024,1262,1024,217.3,0,96,4,4.027,3.996,4.013,4.035,4.032,6,GPS_Atti,
49.6133943362907,14.9328839639778,1846.7017336351,25.918636,0,1.48534453572,18800,2016-08-20 15:14:40,12,24.105,1846.7017336351,25.918636,0.9395148,2.17723432164,216.3,0,0,1024,1024,1262,1024,217.3,0,96,4,4.027,3.996,4.013,4.035,4.032,6,GPS_Atti,
49.6133943236408,14.932883936875,1847.0298176351,26.24672,0,1.48537078244,18900,2016-08-20 15:14:40,12,24.105,1847.0298176351,26.24672,0.9395148,2.17723432164,216.3,0,0,1024,1024,1262,1024,217.3,0,96,4,4.027,3.996,4.013,4.035,4.032,6,GPS_Atti,
49.6133942127131,14.9328839881203,1847.3579016351,26.574804,0,1.4456037208,19000,2016-08-20 15:14:40,12,24.105,1847.3579016351,26.574804,0.9395148,2.17723432164,216.3,0,0,1024,1024,1262,1024,217.3,0,96,4,4.027,3.996,4.013,4.035,4.032,6,GPS_Atti,
49.6133941871226,14.9328839844726,1848.0140696351,27.230972,0,1.43864177832,19200,2016-08-20 15:14:40,12,24.105,1848.0140696351,27.230972,0.9395148,2.17723432164,216.3,0,0,1024,1024,1262,1024,217.3,0,96,4,4.027,3.996,4.013,4.035,4.032,6,GPS_Atti,
49.6133941388221,14.9328840074774,1848.3421536351,27.559056,0,1.42129925808,19300,2016-08-20 15:14:40,12,24.105,1848.3421536351,27.559056,0.9395148,2.17723432164,216.3,0,0,1024,1024,1262,1024,217.3,0,96,4,4.027,3.996,4.013,4.035,4.032,6,GPS_Atti,
49.6133940429625,14.9328841298179,1848.6702376351,27.88714,0,1.37595804928,19400,2016-08-20 15:14:41,12,24.105,1848.6702376351,27.88714,0.9395148,2.17723432164,216.4,0,0,1024,1024,1262,1024,217.3,0,96,4,4.027,3.996,4.013,4.035,4.032,6,GPS_Atti,
49.6133940533678,14.9328841466276,1848.9983216351,28.215224,0,1.37660109392,19500,2016-08-20 15:14:41,12,24.093,1848.9983216351,28.215224,0.9395148,2.17723432164,216.4,0,0,1024,1024,1262,1024,217.3,0,96,3.995,4.025,3.995,4.01,4.025,4.015,6,GPS_Atti,
49.6133940150406,14.9328841942395,1849.3264056351,28.543308,0,1.3586614608,19600,2016-08-20 15:14:41,12,24.093,1849.3264056351,28.543308,0.9395148,2.17723432164,216.4,0,0,1024,1024,1262,1024,217.3,0,96,3.995,4.025,3.995,4.01,4.025,4.015,6,GPS_Atti,
49.6133940251348,14.9328841799388,1849.6544896351,28.871392,0,1.36363521424,19700,2016-08-20 15:14:41,12,24.093,1849.6544896351,28.871392,0.9395148,2.17723432164,216.4,0,0,1024,1024,1262,1024,217.3,0,96,3.995,4.025,3.995,4.01,4.025,4.015,6,GPS_Atti,
49.613393935295,14.9328842573863,1849.9825736351,29.199476,0,1.32643705032,19800,2016-08-20 15:14:41,12,24.093,1849.9825736351,29.199476,0.9395148,2.17723432164,216.4,0,0,1024,1024,1262,1024,217.3,0,96,3.995,4.025,3.995,4.01,4.025,4.015,6,GPS_Atti,
49.6133939983615,14.9328843503599,1850.6387416351,29.855644,0,1.33191605312,20000,2016-08-20 15:14:41,12,24.093,1850.6387416351,29.855644,0.9395148,2.17723432164,216.4,0,0,1024,1024,1262,1024,217.3,0,96,3.995,4.025,3.995,4.01,4.025,4.015,6,GPS_Atti,
49.6133940195908,14.9328843331616,1850.9668256351,30.183728,0,1.34057747072,20100,2016-08-20 15:14:41,12,24.093,1850.9668256351,30.183728,0.9395148,2.17723432164,216.4,0,0,1024,1024,1262,1024,217.3,0,96,3.995,4.025,3.995,4.01,4.025,4.015,6,GPS_Atti,
49.6133939346361,14.9328843579439,1851.2949096351,30.511812,0,1.31205056692,20200,2016-08-20 15:14:41,12,24.093,1851.2949096351,30.511812,0.9395148,2.17723432164,216.5,0,0,1024,1024,1262,1024,217.3,0,96,3.995,4.025,3.995,4.01,4.025,4.015,6,GPS_Atti,
49.6133939456342,14.9328843555527,1851.6229936351,30.839896,0,1.31562012084,20300,2016-08-20 15:14:41,12,24.093,1851.6229936351,30.839896,0.9395148,2.17723432164,216.5,0,0,1024,1024,1262,1024,217.3,0,96,3.995,4.025,3.995,4.01,4.025,4.015,6,GPS_Atti,
49.6133939439779,14.9328841511128,1851.9510776351,31.16798,0,1.34423232648,20400,2016-08-20 15:14:42,12,24.093,1851.9510776351,31.16798,0.9395148,2.17723432164,216.5,0,0,1024,1024,1261,1024,217.3,0,96,3.995,4.025,3.995,4.01,4.025,4.015,6,GPS_Atti,
49.613393905787,14.9328841057477,1852.2791616351,31.496064,0,1.33991474104,20500,2016-08-20 15:14:42,12,24.093,1852.2791616351,31.496064,0.9395148,2.17723432164,216.5,0,0,1024,1024,1261,1024,217.3,0,96,3.995,4.025,3.995,4.01,4.025,4.015,6,GPS_Atti,
49.6133938124876,14.9328842103964,1852.9353296351,32.152232,0,1.29788061896,20700,2016-08-20 15:14:42,12,24.077,1852.9353296351,32.152232,0.9395148,2.17723432164,216.4,0,0,1024,1024,1260,1024,217.3,0,96,3.993,4.024,3.995,4.015,4.022,4.025,6,GPS_Atti,
49.6133938795513,14.9328842732142,1853.2634136351,32.480316,0,1.30798560616,20800,2016-08-20 15:14:42,12,24.077,1853.2634136351,32.480316,0.9395148,2.17723432164,216.4,0,0,1024,1024,1260,1024,217.3,0,96,3.993,4.024,3.995,4.015,4.022,4.025,6,GPS_Atti,
49.6133938877157,14.9328842840548,1853.5914976351,32.8084,0,1.30879597364,20900,2016-08-20 15:14:42,12,24.077,1853.5914976351,32.8084,0.9395148,2.17723432164,216.5,0,0,1024,1024,1265,1024,217.3,0,96,3.993,4.024,3.995,4.015,4.022,4.025,6,GPS_Atti,
49.6133937913065,14.9328842723874,1853.9195816351,33.136484,0,1.28270673396,21000,2016-08-20 15:14:42,12,24.077,1853.9195816351,33.136484,0.9395148,2.17723432164,216.5,0,0,1024,1024,1269,1024,217.3,0,96,3.993,4.024,3.995,4.015,4.022,4.025,6,GPS_Atti,
49.613393744819,14.9328842042183,1854.5757496351,33.792652,0,1.27961946352,21200,2016-08-20 15:14:42,12,24.077,1854.5757496351,33.792652,0.9395148,2.17723432164,216.5,0,0,1024,1024,1268,1024,217.3,0,96,3.993,4.024,3.995,4.015,4.022,4.025,6,GPS_Atti,
49.6133937627852,14.9328841941682,1854.5757496351,33.792652,0,1.28619426688,21300,2016-08-20 15:14:42,12,24.077,1854.5757496351,33.792652,0.9395148,2.17723432164,216.4,0,0,1024,1024,1267,1024,217.3,0,96,3.993,4.024,3.995,4.015,4.022,4.025,6,GPS_Atti,
49.6133937296676,14.9328841548795,1854.9038336351,34.120736,0,1.28281172084,21400,2016-08-20 15:14:43,12,24.077,1854.9038336351,34.120736,0.9395148,2.17723432164,216.4,0,0,1024,1024,1263,1024,217.3,0,96,3.993,4.024,3.995,4.015,4.022,4.025,6,GPS_Atti,
49.6133937369185,14.9328841634855,1855.5600016351,34.776904,0,1.28353678648,21500,2016-08-20 15:14:43,12,24.077,1855.5600016351,34.776904,0.9395148,2.17723432164,216.4,0,0,1024,1024,1259,1024,217.3,0,96,3.993,4.024,3.995,4.015,4.022,4.025,6,GPS_Atti,
49.6133937388791,14.9328841765887,1855.8880856351,35.104988,0,1.28210634024,21600,2016-08-20 15:14:43,12,24.077,1855.8880856351,35.104988,0.9395148,2.17723432164,216.5,0,0,1024,1024,1260,1024,217.3,0,96,3.993,4.024,3.995,4.015,4.022,4.025,6,GPS_Atti,
49.6133937211521,14.9328841637643,1855.8880856351,35.104988,0,1.27908140576,21700,2016-08-20 15:14:43,12,24.077,1855.8880856351,35.104988,0.9395148,2.17723432164,216.4,0,0,1024,1024,1260,1024,217.3,0,96,3.993,4.024,3.995,4.015,4.022,4.025,6,GPS_Atti,
49.613393717187,14.9328841832083,1856.2161696351,35.433072,0,1.27502300668,21800,2016-08-20 15:14:43,12,24.047,1856.2161696351,35.433072,0.9395148,2.17723432164,216.4,0,0,1024,1024,1259,1024,217.3,0,96,3.984,4.02,3.997,4.008,4.024,4.015,6,GPS_Atti,
49.613393709389,14.9328842165578,1856.5442536351,35.761156,0,1.26779203532,21900,2016-08-20 15:14:43,12,24.047,1856.5442536351,35.761156,0.9395148,2.17723432164,216.4,0,0,1024,1024,1261,1024,217.3,0,96,3.984,4.02,3.997,4.008,4.024,4.015,6,GPS_Atti,
49.6133936125533,14.9328842504632,1856.8723376351,36.08924,0,1.23558730988,22000,2016-08-20 15:14:43,12,24.047,1856.8723376351,36.08924,0.9395148,2.17723432164,216.4,0,0,1024,1024,1260,1024,217.3,0,96,3.984,4.02,3.997,4.008,4.024,4.015,6,GPS_Atti,
49.613393615818,14.9328843033846,1857.2004216351,36.417324,0,1.22842523616,22100,2016-08-20 15:14:43,12,24.047,1857.2004216351,36.417324,0.9395148,2.17723432164,216.4,0,0,1024,1024,1261,1024,217.3,0,96,3.984,4.02,3.997,4.008,4.024,4.015,6,GPS_Atti,
49.6133936540421,14.9328842108423,1857.8565896351,37.073492,0,1.25318901648,22300,2016-08-20 15:14:43,12,24.047,1857.8565896351,37.073492,0.9395148,2.17723432164,216.3,0,0,1024,1024,1259,1024,217.3,0,96,3.984,4.02,3.997,4.008,4.024,4.015,6,GPS_Atti,
49.6133936304962,14.9328842430999,1858.1846736351,37.401576,0,1.24170279564,22400,2016-08-20 15:14:44,12,24.047,1858.1846736351,37.401576,0.9395148,2.17723432164,216.3,0,0,1024,1024,1259,1024,217.3,0,96,3.984,4.02,3.997,4.008,4.024,4.015,6,GPS_Atti,
49.6133936399108,14.9328842296222,1858.5127576351,37.72966,0,1.24638455432,22500,2016-08-20 15:14:44,12,24.047,1858.5127576351,37.72966,0.9395148,2.17723432164,216.3,0,0,1024,1024,1258,1024,217.3,0,96,3.984,4.02,3.997,4.008,4.024,4.015,6,GPS_Atti,
49.6133936604251,14.9328841103332,1858.8408416351,38.057744,0,1.27044295404,22600,2016-08-20 15:14:44,12,24.047,1858.8408416351,38.057744,0.9395148,2.17723432164,216.3,0,0,1024,1024,1259,1024,217.3,0,96,3.984,4.02,3.997,4.008,4.024,4.015,6,GPS_Atti,
49.6133936431403,14.9328841092281,1859.1689256351,38.385828,0,1.26586618224,22700,2016-08-20 15:14:44,12,24.047,1859.1689256351,38.385828,0.9395148,2.17723432164,216.4,0,0,1024,1024,1260,1024,217.3,0,96,3.984,4.02,3.997,4.008,4.024,4.015,6,GPS_Atti,
49.6133935638511,14.9328840189909,1859.4970096351,38.713912,0,1.25867130012,22800,2016-08-20 15:14:44,12,24.047,1859.4970096351,38.713912,0.9395148,2.17723432164,216.5,0,0,1024,1024,1261,1024,217.3,0,96,3.984,4.02,3.997,4.008,4.024,4.015,6,GPS_Atti,
49.6133935619829,14.9328840411891,1860.1531776351,39.37008,0,1.25460633936,23000,2016-08-20 15:14:44,12,24.047,1860.1531776351,39.37008,0.9395148,2.17723432164,216.5,0,0,1024,1024,1261,1024,217.3,0,96,3.984,4.02,3.997,4.008,4.024,4.015,6,GPS_Atti,
49.6133935638574,14.9328840425603,1860.4812616351,39.698164,0,1.2548884916,23100,2016-08-20 15:14:44,12,24.047,1860.4812616351,39.698164,0.9395148,2.17723432164,216.4,0,0,1024,1024,1261,1024,217.3,0,96,3.984,4.02,3.997,4.008,4.024,4.015,6,GPS_Atti,
49.6133935653811,14.9328841498125,1860.8093456351,40.026248,0,1.23826447532,23200,2016-08-20 15:14:44,12,24.047,1860.8093456351,40.026248,0.9395148,2.17723432164,216.4,0,0,1024,1024,1261,1024,217.3,0,96,3.984,4.02,3.997,4.008,4.024,4.015,6,GPS_Atti,
49.6133935463902,14.9328842161239,1861.1374296351,40.354332,0,1.2226706428,23300,2016-08-20 15:14:45,12,24.047,1861.1374296351,40.354332,0.9395148,2.17723432164,216.3,0,0,1024,1024,1261,1024,217.3,0,96,3.984,4.02,3.997,4.008,4.024,4.015,6,GPS_Atti,
49.6133934663407,14.9328842334376,1861.4655136351,40.682416,0,1.19818245304,23400,2016-08-20 15:14:45,12,24.047,1861.4655136351,40.682416,0.9395148,2.17723432164,216.3,0,0,1024,1024,1261,1024,217.3,0,96,3.984,4.02,3.997,4.008,4.024,4.015,6,GPS_Atti,
49.6133934914525,14.9328842515953,1861.7935976351,41.0105,0,1.2021161802,23500,2016-08-20 15:14:45,12,24.047,1861.7935976351,41.0105,0.9395148,2.17723432164,216.3,0,0,1024,1024,1261,1024,217.3,0,96,3.984,4.02,3.997,4.008,4.024,4.015,6,GPS_Atti,
49.6133934752682,14.9328845438154,1862.4497656351,41.666668,0,1.15266735972,23700,2016-08-20 15:14:45,12,24.047,1862.4497656351,41.666668,0.9395148,2.17723432164,216.4,0,0,1024,1024,1262,1024,217.3,0,96,3.984,4.02,3.997,4.008,4.024,4.015,6,GPS_Atti,
49.6133935930124,14.9328846375809,1862.7778496351,41.994752,0,1.1726214286,23800,2016-08-20 15:14:45,12,24.047,1862.7778496351,41.994752,0.9395148,2.17723432164,216.3,0,0,1024,1024,1261,1024,217.3,0,96,3.984,4.02,3.997,4.008,4.024,4.015,6,GPS_Atti,
49.6133935892727,14.9328846943132,1863.1059336351,42.322836,0,1.16346132332,23900,2016-08-20 15:14:45,12,24.047,1863.1059336351,42.322836,0.9395148,2.17723432164,216.5,0,0,1024,1024,1261,1024,217.3,0,96,3.984,4.02,3.997,4.008,4.024,4.015,6,GPS_Atti,
49.6133934923423,14.9328847832832,1863.4340176351,42.65092,0,1.12254924852,24000,2016-08-20 15:14:45,12,24.047,1863.4340176351,42.65092,0.9395148,2.17723432164,216.5,0,0,1024,1024,1261,1024,217.3,0,96,3.984,4.02,3.997,4.008,4.024,4.015,6,GPS_Atti,
49.6133934890126,14.9328847544917,1863.7621016351,42.979004,0,1.1256890124,24100,2016-08-20 15:14:45,12,24.047,1863.7621016351,42.979004,0.9395148,2.17723432164,216.5,0,0,1024,1024,1261,1024,217.3,0,96,3.985,4.013,3.992,4.014,4.02,4.021,6,GPS_Atti,
49.6133933402425,14.9328847289154,1864.4182696351,43.635172,0,1.0868274626,24300,2016-08-20 15:14:45,12,24.047,1864.4182696351,43.635172,0.9395148,2.17723432164,216.5,0,0,1024,1024,1261,1024,217.3,0,96,3.985,4.013,3.992,4.014,4.02,4.021,6,GPS_Atti,
49.6133933394816,14.9328846903756,1864.7463536351,43.963256,0,1.0924048906,24400,2016-08-20 15:14:46,12,24.047,1864.7463536351,43.963256,0.9395148,2.17723432164,216.5,0,0,1024,1024,1261,1024,217.3,0,96,3.985,4.013,3.992,4.014,4.02,4.021,6,GPS_Atti,
49.6133932410241,14.9328846411703,1865.0744376351,44.29134,0,1.07265095296,24500,2016-08-20 15:14:46,12,24.047,1865.0744376351,44.29134,0.9395148,2.17723432164,216.4,0,0,1024,1024,1262,1024,217.3,0,96,3.985,4.013,3.992,4.014,4.02,4.021,6,GPS_Atti,
49.6133932427777,14.9328846448039,1865.4025216351,44.619424,0,1.07256237028,24600,2016-08-20 15:14:46,12,24.047,1865.4025216351,44.619424,0.9395148,2.17723432164,216.4,0,0,1024,1024,1262,1024,217.3,0,96,3.985,4.013,3.992,4.014,4.02,4.021,6,GPS_Atti,
49.6133932511482,14.9328846630682,1865.7306056351,44.947508,0,1.07202103168,24700,2016-08-20 15:14:46,12,24.047,1865.7306056351,44.947508,0.9395148,2.17723432164,216.4,0,0,1024,1024,1261,1024,217.3,0,96,3.985,4.013,3.992,4.014,4.02,4.021,6,GPS_Atti,
49.6133933335954,14.9328846177755,1866.3867736351,45.603676,0,1.10180121636,24900,2016-08-20 15:14:46,12,24.047,1866.3867736351,45.603676,0.9395148,2.17723432164,216.5,0,0,1024,1024,1261,1024,217.3,0,96,3.985,4.013,3.992,4.014,4.02,4.021,6,GPS_Atti,
49.6133933547477,14.9328846394694,1866.7148576351,45.93176,0,1.10438979912,25000,2016-08-20 15:14:46,12,24.047,1866.7148576351,45.93176,0.9395148,2.17723432164,216.5,0,0,1024,1024,1261,1024,217.3,0,96,3.985,4.013,3.992,4.014,4.02,4.021,6,GPS_Atti,
49.613393370042,14.9328846567894,1867.0429416351,46.259844,0,1.10605646584,25100,2016-08-20 15:14:46,12,24.047,1867.0429416351,46.259844,0.9395148,2.17723432164,216.5,0,0,1024,1024,1261,1024,217.3,0,96,3.985,4.013,3.992,4.014,4.02,4.021,6,GPS_Atti,
49.6133934915043,14.9328847266687,1867.3710256351,46.587928,0,1.13040686032,25200,2016-08-20 15:14:46,12,24.047,1867.3710256351,46.587928,0.9395148,2.17723432164,216.5,0,0,1024,1024,1261,1024,217.3,0,96,3.985,4.013,3.992,4.014,4.02,4.021,6,GPS_Atti,
49.613393496047,14.9328847112397,1867.6991096351,46.916012,0,1.13394688668,25300,2016-08-20 15:14:47,12,24.029,1867.6991096351,46.916012,0.9395148,2.17723432164,216.6,0,0,1024,1024,1261,1024,217.3,0,96,3.981,4.014,3.991,4.006,4.016,4.017,6,GPS_Atti,
49.6133935921831,14.9328845943624,1868.0271936351,47.244096,0,1.1785925574,25400,2016-08-20 15:14:47,12,24.029,1868.0271936351,47.244096,0.9395148,2.17723432164,216.6,0,0,1024,1024,1262,1024,217.3,0,96,3.981,4.014,3.991,4.006,4.016,4.017,6,GPS_Atti,
49.6133936218351,14.9328846130111,1868.3552776351,47.57218,0,1.18450791192,25500,2016-08-20 15:14:47,12,24.029,1868.3552776351,47.57218,0.9395148,2.17723432164,216.5,0,0,1024,1024,1262,1024,217.3,0,96,3.981,4.014,3.991,4.006,4.016,4.017,6,GPS_Atti,
49.6133936021028,14.9328847529636,1869.0114456351,48.228348,0,1.15899610008,25700,2016-08-20 15:14:47,12,24.029,1869.0114456351,48.228348,0.9395148,2.17723432164,216.5,0,0,1024,1024,1262,1024,217.3,0,96,3.981,4.014,3.991,4.006,4.016,4.017,6,GPS_Atti,
49.613393544639,14.932884910035,1869.3395296351,48.556432,0,1.120324839,25800,2016-08-20 15:14:47,12,24.029,1869.3395296351,48.556432,0.9395148,2.17723432164,216.4,0,0,1024,1024,1262,1024,217.3,0,96,3.981,4.014,3.991,4.006,4.016,4.017,6,GPS_Atti,
49.6133935267314,14.9328849309987,1869.6676136351,48.884516,0,1.11212930068,25900,2016-08-20 15:14:47,12,24.029,1869.6676136351,48.884516,0.9395148,2.17723432164,216.4,0,0,1024,1024,1263,1024,217.3,0,96,3.981,4.014,3.991,4.006,4.016,4.017,6,GPS_Atti,
49.6133936270975,14.9328849329275,1869.9956976351,49.2126,0,1.14200791056,26000,2016-08-20 15:14:47,12,24.029,1869.9956976351,49.2126,0.9395148,2.17723432164,216.4,0,0,1024,1024,1262,1024,217.3,0,96,3.981,4.014,3.991,4.006,4.016,4.017,6,GPS_Atti,
49.6133936038092,14.9328850708994,1870.3237816351,49.540684,0,1.11691604624,26100,2016-08-20 15:14:47,12,24.029,1870.3237816351,49.540684,0.9395148,2.17723432164,216.5,0,0,1024,1024,1262,1024,217.3,0,96,3.981,4.014,3.991,4.006,4.016,4.017,6,GPS_Atti,
49.6133936329148,14.9328849724479,1870.9799496351,50.196852,0,1.1385663094,26300,2016-08-20 15:14:47,12,24.029,1870.9799496351,50.196852,0.9395148,2.17723432164,216.5,0,0,1024,1024,1263,1024,217.3,0,96,3.981,4.014,3.991,4.006,4.016,4.017,6,GPS_Atti,
49.6133936698296,14.932884941901,1870.9799496351,50.196852,0,1.15377956448,26400,2016-08-20 15:14:48,12,24.029,1870.9799496351,50.196852,0.9395148,2.17723432164,216.5,0,0,1024,1024,1262,1024,217.3,0,96,3.981,4.014,3.991,4.006,4.016,4.017,6,GPS_Atti,
49.6133936704893,14.932884917281,1871.6361176351,50.85302,0,1.15720804228,26500,2016-08-20 15:14:48,12,24.028,1871.6361176351,50.85302,0.9395148,2.17723432164,216.4,0,0,1024,1024,1262,1024,217.3,0,96,3.985,4.012,3.992,4.006,4.013,4.015,6,GPS_Atti,
49.6133937669268,14.9328848957706,1871.9642016351,51.181104,0,1.18937667848,26600,2016-08-20 15:14:48,12,24.028,1871.9642016351,51.181104,0.9395148,2.17723432164,216.4,0,0,1024,1024,1264,1024,217.3,0,96,3.985,4.012,3.992,4.006,4.013,4.015,6,GPS_Atti,
49.6133937479892,14.9328849038038,1871.9642016351,51.181104,0,1.18254925044,26700,2016-08-20 15:14:48,12,24.028,1871.9642016351,51.181104,0.9395148,2.17723432164,216.3,0,0,1024,1024,1264,1024,217.3,0,96,3.985,4.012,3.992,4.006,4.013,4.015,6,GPS_Atti,
49.6133937514398,14.9328847998405,1872.6203696351,51.837272,0,1.1972113244,26800,2016-08-20 15:14:48,12,24.028,1872.6203696351,51.837272,0.9395148,2.17723432164,216.2,0,0,1024,1024,1264,1024,217.3,0,96,3.985,4.012,3.992,4.006,4.013,4.015,6,GPS_Atti,
49.6133937542974,14.9328846667398,1873.2765376351,52.49344,0,1.21598757172,27000,2016-08-20 15:14:48,12,24.028,1873.2765376351,52.49344,0.9395148,2.17723432164,216.3,0,0,1024,1024,1266,1024,217.3,0,96,3.985,4.012,3.992,4.006,4.013,4.015,6,GPS_Atti,
49.6133937582149,14.9328846712829,1873.6046216351,52.821524,0,1.21653219116,27100,2016-08-20 15:14:48,12,24.028,1873.6046216351,52.821524,0.9395148,2.17723432164,216.4,0,0,1024,1024,1267,1024,217.3,0,96,3.985,4.012,3.992,4.006,4.013,4.015,6,GPS_Atti,
49.6133938508095,14.932884587364,1873.9327056351,53.149608,0,1.255577468,27200,2016-08-20 15:14:48,12,24.028,1873.9327056351,53.149608,0.9395148,2.17723432164,216.4,0,0,1024,1024,1268,1024,217.3,0,96,3.985,4.012,3.992,4.006,4.013,4.015,6,GPS_Atti,
49.6133938309743,14.9328846167798,1874.2607896351,53.477692,0,1.24565948868,27300,2016-08-20 15:14:48,12,24.028,1874.2607896351,53.477692,0.9395148,2.17723432164,216.4,0,0,1024,1024,1273,1024,217.3,0,96,3.985,4.012,3.992,4.006,4.013,4.015,6,GPS_Atti,
49.6133937174106,14.9328846249718,1874.5888736351,53.805776,0,1.21081368704,27400,2016-08-20 15:14:49,12,24.028,1874.5888736351,53.805776,0.9395148,2.17723432164,216.5,0,0,1024,1024,1272,1024,217.3,0,96,3.985,4.012,3.992,4.006,4.013,4.015,6,GPS_Atti,
49.6133937086492,14.9328846221432,1874.9169576351,54.13386,0,1.20862536676,27500,2016-08-20 15:14:49,12,24.028,1874.9169576351,54.13386,0.9395148,2.17723432164,216.4,0,0,1024,1024,1271,1024,217.3,0,96,3.985,4.012,3.992,4.006,4.013,4.015,6,GPS_Atti,
49.6133937008692,14.9328845321173,1875.5731256351,54.790028,0,1.21904203376,27700,2016-08-20 15:14:49,12,23.998,1875.5731256351,54.790028,0.9395148,2.17723432164,216.5,0,0,1024,1024,1271,1024,217.3,0,96,3.982,4.01,3.985,3.996,4.011,4.01,6,GPS_Atti,
