latitude,longitude,altitude(feet),ascent(feet),speed(mph),distance(feet),time(millisecond),datetime(utc),satellites,voltage(v),max_altitude(feet),max_ascent(feet),max_speed(mph),max_distance(feet),compass_heading(degrees),isPhoto,isVideo,rc_elevator,rc_aileron,rc_throttle,rc_rudder,gimbal_heading(degrees),gimbal_pitch(degrees),battery_percent,voltageCell1,voltageCell2,voltageCell3,voltageCell4,voltageCell5,voltageCell6,flycStateRaw,flycState,message
49.6133251526422,14.9328733222553,1820.3415539858,0,0,0,0,2016-08-21 12:44:06,17,0,1820.3415539858,0,0,0,248.2,0,0,364,1684,364,364,241.8,0,77,4.081,4.087,4.079,4.08,4.084,4.086,6,GPS_Atti,
49.6133249374275,14.9328732195943,1820.3415539858,0,0,0.082186026252,100,2016-08-21 12:44:06,17,0,1820.3415539858,0,0,0.082186026252,248.1,0,0,364,1684,364,364,241.7,0,77,4.081,4.087,4.079,4.08,4.084,4.086,6,GPS_Atti,
49.6133248213039,14.9328731324265,1820.3415539858,0,0,0.128949151108,300,2016-08-21 12:44:07,17,0,1820.3415539858,0,0,0.128949151108,248.1,0,0,917,1531,776,790,241.6,0,77,4.081,4.087,4.079,4.08,4.084,4.086,6,GPS_Atti,
49.6133248175012,14.9328731174918,1820.3415539858,0,0,0.131508862476,400,2016-08-21 12:44:07,17,0,1820.3415539858,0,0,0.131508862476,248.1,0,0,917,1531,776,790,241.8,0,77,4.081,4.087,4.079,4.08,4.084,4.086,6,GPS_Atti,
49.6133246122998,14.9328729262791,1820.3415539858,0,0,0.218239180212,500,2016-08-21 12:44:07,17,0,1820.3415539858,0,0,0.218239180212,248.1,0,0,1024,1024,1024,1024,245.1,0,77,4.081,4.087,4.079,4.08,4.084,4.086,6,GPS_Atti,
49.6133246130617,14.9328729370023,1820.3415539858,0,0,0.216911424264,600,2016-08-21 12:44:07,17,0,1820.3415539858,0,0,0.218239180212,248.1,0,0,1024,1024,1024,1024,245.7,0,77,4.081,4.087,4.079,4.08,4.084,4.086,6,GPS_Atti,
49.6133245225211,14.9328727388341,1820.3415539858,0,0,0.26809712144,700,2016-08-21 12:44:07,17,0,1820.3415539858,0,0,0.26809712144,248.1,0,0,1024,1024,1024,1024,246,0,77,4.081,4.087,4.079,4.08,4.084,4.086,6,GPS_Atti,
49.6133245219034,14.9328727424062,1820.3415539858,0,0,0.267857292036,800,2016-08-21 12:44:07,17,0,1820.3415539858,0,0,0.26809712144,248,0,0,1024,1024,1024,1024,246.3,0,77,4.081,4.087,4.079,4.08,4.084,4.086,6,GPS_Atti,
49.6133244152626,14.9328724914275,1820.3415539858,0,0,0.33310040436,1000,2016-08-21 12:44:07,17,0,1820.3415539858,0,0,0.33310040436,247.9,0,0,1024,1024,1024,1024,246.4,0,77,4.081,4.087,4.079,4.08,4.084,4.086,6,GPS_Atti,
49.613324307857,14.9328725011852,1820.3415539858,0,0,0.36424541848,1100,2016-08-21 12:44:07,17,24.497,1820.3415539858,0,0,0.36424541848,247.8,0,0,1024,1024,1024,1024,246.5,0,77,4.081,4.087,4.079,4.08,4.084,4.086,6,GPS_Atti,
49.6133243042143,14.9328725114084,1820.3415539858,0,0,0.364091219,1200,2016-08-21 12:44:08,17,24.497,1820.3415539858,0,0,0.36424541848,247.8,0,0,1024,1024,1024,1024,246.6,0,77,4.081,4.087,4.079,4.08,4.084,4.086,6,GPS_Atti,
49.6133242101007,14.93287239167,1820.3415539858,0,0,0.40823164036,1300,2016-08-21 12:44:08,17,24.497,1820.3415539858,0,0,0.40823164036,247.8,0,0,1024,1024,1024,1024,246.7,0,77,4.081,4.087,4.079,4.08,4.084,4.086,6,GPS_Atti,
49.6133241997882,14.9328723988658,1820.3415539858,0,0,0.4104987008,1400,2016-08-21 12:44:08,17,24.497,1820.3415539858,0,0,0.4104987008,247.8,0,0,1024,1024,1024,1024,246.8,0,77,4.081,4.087,4.079,4.08,4.084,4.086,6,GPS_Atti,
49.6133241893435,14.9328725099905,1820.3415539858,0,0,0.40049541964,1500,2016-08-21 12:44:08,17,24.497,1820.3415539858,0,0,0.4104987008,247.8,0,0,1024,1024,1024,1024,246.8,0,77,4.081,4.087,4.079,4.08,4.084,4.086,6,GPS_Atti,
49.6133242043885,14.9328725192118,1820.3415539858,0,0,0.39463255856,1600,2016-08-21 12:44:08,17,24.497,1820.3415539858,0,0,0.4104987008,247.8,0,0,1024,1024,1024,1024,246.8,0,77,4.081,4.087,4.079,4.08,4.084,4.086,6,GPS_Atti,
49.61332410276,14.9328725309005,1820.3415539858,0,0,0.42629266456,1800,2016-08-21 12:44:08,17,24.497,1820.3415539858,0,0,0.42629266456,247.9,0,0,1024,1024,1024,1024,246.8,0,77,4.081,4.087,4.079,4.08,4.084,4.086,6,GPS_Atti,
49.6133241306533,14.9328725088446,1820.3415539858,0,0,0.41953413416,1900,2016-08-21 12:44:08,17,24.497,1820.3415539858,0,0,0.42629266456,247.9,0,0,1024,1024,1024,1024,246.9,0,77,4.081,4.087,4.079,4.08,4.084,4.086,6,GPS_Atti,
49.6133241395756,14.9328725170258,1820.3415539858,0,0,0.41575460648,2000,2016-08-21 12:44:08,17,24.497,1820.3415539858,0,0,0.42629266456,247.9,0,0,1024,1024,1024,1024,246.9,0,77,4.081,4.087,4.079,4.08,4.084,4.086,6,GPS_Atti,
49.6133241404075,14.9328725200112,1820.3415539858,0,0,0.41516405528,2100,2016-08-21 12:44:09,17,24.497,1820.3415539858,0,0,0.42629266456,247.9,0,0,1024,1024,1024,1024,246.9,0,77,4.081,4.087,4.079,4.08,4.084,4.086,10,AssitedTakeoff,
49.6133241407689,14.9328725297253,1820.3415539858,0,0,0.41400263792,2200,2016-08-21 12:44:09,17,24.46,1820.3415539858,0,0,0.42629266456,247.9,0,0,1024,1024,1024,1024,247,0,77,4.074,4.081,4.073,4.074,4.078,4.08,10,AssitedTakeoff,
49.6133241629686,14.9328725059589,1820.3415539858,0,0,0.40941274276,2300,2016-08-21 12:44:09,17,24.46,1820.3415539858,0,0,0.42629266456,247.9,0,0,1024,1024,1024,1024,247,0,77,4.074,4.081,4.073,4.074,4.078,4.08,10,AssitedTakeoff,
49.6133241700364,14.932872518886,1820.3415539858,0,0,0.40570211272,2400,2016-08-21 12:44:09,17,24.46,1820.3415539858,0,0,0.42629266456,247.9,0,0,1024,1024,1024,1024,247,0,77,4.074,4.081,4.073,4.074,4.078,4.08,10,AssitedTakeoff,
49.6133241605479,14.9328724893079,1820.3415539858,0,0,0.4120570998,2600,2016-08-21 12:44:09,17,24.46,1820.3415539858,0,0,0.42629266456,247.9,0,0,1024,1024,1024,1024,247,0,77,4.074,4.081,4.073,4.074,4.078,4.08,10,AssitedTakeoff,
49.6133239662405,14.9328728374973,1820.3415539858,0,0,0.44777232404,4300,2016-08-21 12:44:11,17,24.46,1820.3415539858,0,0,0.44777232404,247.7,0,0,1024,1024,1024,1024,247,0,77,4.074,4.081,4.073,4.074,4.078,4.08,10,AssitedTakeoff,
49.613323968492,14.9328728798317,1820.3415539858,0,0,0.44451444992,4400,2016-08-21 12:44:11,17,24.46,1820.3415539858,0,0,0.44777232404,247.6,0,0,1024,1024,1024,1024,247,0,77,4.074,4.081,4.073,4.074,4.078,4.08,10,AssitedTakeoff,
49.6133238768295,14.9328728911155,1820.3415539858,0,0,0.47650592076,4500,2016-08-21 12:44:11,17,24.46,1820.3415539858,0,0,0.47650592076,247.6,0,0,1024,1024,1024,1024,247,0,77,4.074,4.081,4.073,4.074,4.078,4.08,10,AssitedTakeoff,
49.613323881001,14.9328729030398,1820.3415539858,0,0,0.47442258736,4600,2016-08-21 12:44:11,17,24.46,1820.3415539858,0,0,0.47650592076,247.6,0,0,1024,1024,1024,1024,247,0,77,4.074,4.081,4.073,4.074,4.078,4.08,10,AssitedTakeoff,
49.6133238547692,14.9328729014556,1820.3415539858,0,0,0.48386484488,4800,2016-08-21 12:44:11,17,24.46,1820.3415539858,0,0,0.48386484488,247.6,0,0,1024,1024,1024,1024,247,0,77,4.074,4.081,4.073,4.074,4.078,4.08,10,AssitedTakeoff,
49.6133238499472,14.9328729950413,1820.3415539858,0,0,0.48154201016,4900,2016-08-21 12:44:11,16,24.46,1820.3415539858,0,0,0.48386484488,247.5,0,0,1024,1024,1024,1024,247,0,77,4.074,4.081,4.073,4.074,4.078,4.08,10,AssitedTakeoff,
49.6133238503773,14.9328729524922,1820.3415539858,0,0,0.48310369,5000,2016-08-21 12:44:11,16,24.34,1820.3415539858,0,0,0.48386484488,247.5,0,0,1024,1024,1634,1019,247,0,77,4.059,4.057,4.042,4.061,4.054,4.056,10,AssitedTakeoff,
49.6133237511906,14.9328729578745,1820.3415539858,0,0,0.51852363864,5100,2016-08-21 12:44:12,16,24.34,1820.3415539858,0,0,0.51852363864,247.5,0,0,1024,1024,1634,1019,247,0,77,4.059,4.057,4.042,4.061,4.054,4.056,10,AssitedTakeoff,
49.6133237559422,14.9328729661224,1820.3415539858,0,0,0.51649279868,5200,2016-08-21 12:44:12,16,24.34,1820.3415539858,0,0,0.51852363864,247.5,0,0,1024,1024,1646,1024,247,0,77,4.059,4.057,4.042,4.061,4.054,4.056,10,AssitedTakeoff,
49.6133237560597,14.9328729750618,1820.3415539858,0,0,0.5161089404,5300,2016-08-21 12:44:12,16,24.34,1820.3415539858,0,0,0.51852363864,247.4,0,0,1024,1024,1129,1024,247,0,77,4.059,4.057,4.042,4.061,4.054,4.056,10,AssitedTakeoff,
49.6133237536314,14.9328729688902,1820.3415539858,0,0,0.51721786432,5400,2016-08-21 12:44:12,16,24.34,1820.3415539858,0,0,0.51852363864,247.4,0,0,1024,1024,1024,1024,247,0,77,4.059,4.057,4.042,4.061,4.054,4.056,10,AssitedTakeoff,
49.6133237608713,14.9328729556387,1820.3415539858,0,0,0.51513125008,5600,2016-08-21 12:44:12,16,24.34,1820.3415539858,0,0,0.51852363864,247.4,0,0,1024,1024,1024,1024,247,0,77,4.059,4.057,4.042,4.061,4.054,4.056,10,AssitedTakeoff,
49.6133236567213,14.9328729569132,1820.3415539858,0,0,0.55257875784,5700,2016-08-21 12:44:12,16,24.34,1820.3415539858,0,0,0.55257875784,247.3,0,0,1024,1024,1024,1024,247,0,77,4.059,4.057,4.042,4.061,4.054,4.056,10,AssitedTakeoff,
49.6133236578672,14.9328729370618,1820.3415539858,0,0,0.55291668436,5800,2016-08-21 12:44:12,16,24.34,1820.3415539858,0,0,0.55291668436,247.3,0,0,1024,1024,1024,1024,247,0,77,4.059,4.057,4.042,4.061,4.054,4.056,10,AssitedTakeoff,
49.6133236529427,14.9328729294451,1820.3415539858,0,0,0.5549868944,5900,2016-08-21 12:44:12,16,24.34,1820.3415539858,0,0,0.5549868944,247.3,0,0,1024,1024,1224,1024,247,0,77,4.059,4.057,4.042,4.061,4.054,4.056,10,AssitedTakeoff,
49.6133236691265,14.9328729059135,1820.3415539858,0,0,0.55013453204,6000,2016-08-21 12:44:12,16,24.34,1820.3415539858,0,0,0.5549868944,247.2,0,0,1024,1024,1425,1024,247,0,77,4.059,4.057,4.042,4.061,4.054,4.056,10,AssitedTakeoff,
49.6133236698622,14.9328729043802,1820.3415539858,0,0,0.54993768164,6100,2016-08-21 12:44:13,15,24.34,1820.3415539858,0,0,0.5549868944,247.2,0,0,1024,1024,1404,1024,247,0,77,4.054,4.062,4.051,4.055,4.058,4.059,10,AssitedTakeoff,
49.6133235547742,14.932872933872,1820.3415539858,0,0,0.59016734172,6300,2016-08-21 12:44:13,15,24.34,1820.3415539858,0,0,0.59016734172,247.2,0,0,1024,1024,1393,1024,247,0,77,4.054,4.062,4.051,4.055,4.058,4.059,10,AssitedTakeoff,
49.6133235359934,14.9328729240052,1820.3415539858,0,0,0.59729988788,6400,2016-08-21 12:44:13,15,24.34,1820.3415539858,0,0,0.59729988788,247.2,0,0,1024,1024,1397,1024,247,0,77,4.054,4.062,4.051,4.055,4.058,4.059,10,AssitedTakeoff,
49.6133235815539,14.9328728605587,1820.3415539858,0,0,0.58351051736,6500,2016-08-21 12:44:13,16,24.34,1820.3415539858,0,0,0.59729988788,246.9,0,0,1024,1024,1385,1024,247,0,77,4.054,4.062,4.051,4.055,4.058,4.059,10,AssitedTakeoff,
49.6133234644086,14.9328727423127,1820.3415539858,0,0.3131716,0.63102364224,6600,2016-08-21 12:44:13,16,24.34,1820.3415539858,0,0.3131716,0.63102364224,246.3,0,0,1024,1024,1331,1024,247,0,77,4.054,4.062,4.051,4.055,4.058,4.059,6,GPS_Atti,
49.6133232939979,14.932872484146,1820.3415539858,0,0.6263432,0.70647640056,6700,2016-08-21 12:44:13,15,24.34,1820.3415539858,0,0.6263432,0.70647640056,245.9,0,0,1024,1024,1144,1024,247,0,77,4.054,4.062,4.051,4.055,4.058,4.059,6,GPS_Atti,
49.6133231091941,14.9328721620557,1820.6696379858,0.328084,0.8052984,0.79439963172,6800,2016-08-21 12:44:13,15,24.34,1820.6696379858,0.328084,0.8052984,0.79439963172,245.8,0,0,1024,1024,1024,1024,247,0,77,4.054,4.062,4.051,4.055,4.058,4.059,6,GPS_Atti,
49.6133227049481,14.9328714612536,1820.6696379858,0.328084,0.8052984,0.99552496624,6900,2016-08-21 12:44:13,15,24.34,1820.6696379858,0.328084,0.8052984,0.99552496624,245.9,0,0,1024,1024,1024,1024,247,0,77,4.054,4.062,4.051,4.055,4.058,4.059,6,GPS_Atti,
49.6133224591144,14.93287100165,1820.9977219858,0.656168,0.8052984,1.12548560032,7000,2016-08-21 12:44:13,15,24.34,1820.9977219858,0.656168,0.8052984,1.12548560032,246.1,0,0,1024,1024,1024,1024,247,0,77,4.054,4.062,4.051,4.055,4.058,4.059,6,GPS_Atti,
49.6133220456212,14.9328697301886,1821.3258059858,0.984252,0.4921268,1.41637799808,7200,2016-08-21 12:44:14,15,24.34,1821.3258059858,0.984252,0.8052984,1.41637799808,246.2,0,0,1024,1024,1024,1024,247,0,77,4.054,4.062,4.051,4.055,4.058,4.059,6,GPS_Atti,
49.6133219610648,14.9328693566597,1821.3258059858,0.984252,0.3131716,1.49492130768,7300,2016-08-21 12:44:14,14,24.134,1821.3258059858,0.984252,0.8052984,1.49492130768,246.3,0,0,1024,1024,1024,1024,247,0,77,4.018,4.03,3.996,4.051,4.025,4.021,6,GPS_Atti,
49.6133218709567,14.9328691183906,1821.3258059858,0.984252,0.223694,1.55602695268,7400,2016-08-21 12:44:14,14,24.134,1821.3258059858,0.984252,0.8052984,1.55602695268,246.4,0,0,1024,1024,1062,1024,247,0,77,4.018,4.03,3.996,4.051,4.025,4.021,6,GPS_Atti,
49.6133220584845,14.9328686764957,1821.3258059858,0.984252,0.223694,1.57499348872,7500,2016-08-21 12:44:14,16,24.134,1821.3258059858,0.984252,0.8052984,1.57499348872,246.4,0,0,1024,1024,1149,1024,247,0,77,4.018,4.03,3.996,4.051,4.025,4.021,6,GPS_Atti,
49.6133220866163,14.9328685693775,1821.6538899858,1.312336,0,1.58549545756,7600,2016-08-21 12:44:14,16,24.134,1821.6538899858,1.312336,0.8052984,1.58549545756,246.3,0,0,1024,1024,1166,1024,247,0,77,4.018,4.03,3.996,4.051,4.025,4.021,6,GPS_Atti,
49.6133222618567,14.9328686968404,1821.6538899858,1.312336,0,1.51922248956,7700,2016-08-21 12:44:14,16,24.134,1821.6538899858,1.312336,0.8052984,1.58549545756,246.2,0,0,1024,1024,1185,1024,247,0,77,4.018,4.03,3.996,4.051,4.025,4.021,6,GPS_Atti,
49.6133226433011,14.9328688214762,1821.9819739858,1.64042,0.223694,1.40366474308,7900,2016-08-21 12:44:14,15,24.134,1821.9819739858,1.64042,0.8052984,1.58549545756,246.2,0,0,1024,1024,1181,1024,247,0,77,4.018,4.03,3.996,4.051,4.025,4.021,6,GPS_Atti,
49.6133227132958,14.9328690231959,1821.9819739858,1.64042,0.3131716,1.35091211672,8000,2016-08-21 12:44:14,15,24.134,1821.9819739858,1.64042,0.8052984,1.58549545756,246.3,0,0,1024,1024,1181,1024,247,0,77,4.018,4.03,3.996,4.051,4.025,4.021,6,GPS_Atti,
49.6133230311237,14.9328690530909,1821.9819739858,1.64042,0.3131716,1.2718832428,8100,2016-08-21 12:44:14,15,24.134,1821.9819739858,1.64042,0.8052984,1.58549545756,246.6,0,0,1024,1024,1179,1024,247,0,77,4.018,4.03,3.996,4.051,4.025,4.021,6,GPS_Atti,
49.6133231367774,14.9328692427545,1821.9819739858,1.64042,0.3131716,1.21285108868,8200,2016-08-21 12:44:15,15,24.134,1821.9819739858,1.64042,0.8052984,1.58549545756,246.8,0,0,1024,1024,1178,1024,247,0,77,4.018,4.03,3.996,4.051,4.025,4.021,6,GPS_Atti,
49.6133233309189,14.9328695682099,1822.3100579858,1.968504,0.223694,1.10876315884,8300,2016-08-21 12:44:15,15,24.134,1822.3100579858,1.968504,0.8052984,1.58549545756,246.9,0,0,1024,1024,1178,1024,247,0,77,4.018,4.03,3.996,4.051,4.025,4.021,6,GPS_Atti,
49.6133234114497,14.9328697709386,1822.3100579858,1.968504,0.223694,1.05280187096,8400,2016-08-21 12:44:15,15,23.773,1822.3100579858,1.968504,0.8052984,1.58549545756,246.9,0,0,1024,1024,1178,1024,247,0,77,3.882,3.925,3.893,3.933,3.927,3.916,6,GPS_Atti,
49.6133238175906,14.9328700046355,1822.6381419858,2.296588,0.223694,0.92323821852,8600,2016-08-21 12:44:15,17,23.773,1822.6381419858,2.296588,0.8052984,1.58549545756,247,0,0,1024,1024,1178,1024,247,0,77,3.882,3.925,3.893,3.933,3.927,3.916,6,GPS_Atti,
49.6133238886731,14.9328700757816,1822.6381419858,2.296588,0,0.89536420188,8700,2016-08-21 12:44:15,17,23.773,1822.6381419858,2.296588,0.8052984,1.58549545756,246.9,0,0,1024,1024,1178,1024,247,0,77,3.882,3.925,3.893,3.933,3.927,3.916,6,GPS_Atti,
49.6133239190574,14.9328700834941,1822.9662259858,2.624672,0,0.88813323052,8800,2016-08-21 12:44:15,17,23.773,1822.9662259858,2.624672,0.8052984,1.58549545756,246.8,0,0,1024,1024,1179,1024,247,0,77,3.882,3.925,3.893,3.933,3.927,3.916,6,GPS_Atti,
49.6133241265114,14.9328703526423,1822.9662259858,2.624672,0,0.79561026168,8900,2016-08-21 12:44:15,17,23.773,1822.9662259858,2.624672,0.8052984,1.58549545756,246.7,0,0,1024,1024,1183,1024,247,0,77,3.882,3.925,3.893,3.933,3.927,3.916,6,GPS_Atti,
49.6133241705378,14.9328704724857,1822.9662259858,2.624672,0,0.76305448636,9000,2016-08-21 12:44:15,17,23.773,1822.9662259858,2.624672,0.8052984,1.58549545756,246.7,0,0,1024,1024,1183,1024,247,0,77,3.882,3.925,3.893,3.933,3.927,3.916,6,GPS_Atti,
49.6133241743902,14.9328707686621,1823.2943099858,2.952756,0,0.70129267336,9200,2016-08-21 12:44:16,17,23.773,1823.2943099858,2.952756,0.8052984,1.58549545756,246.5,0,0,1024,1024,1183,1024,247,0,77,3.882,3.925,3.893,3.933,3.927,3.916,6,GPS_Atti,
49.6133241432222,14.9328707427551,1823.6223939858,3.28084,0,0.71238191256,9300,2016-08-21 12:44:16,17,23.773,1823.6223939858,3.28084,0.8052984,1.58549545756,246.5,0,0,1024,1024,1188,1024,247,0,77,3.882,3.925,3.893,3.933,3.927,3.916,6,GPS_Atti,
49.6133241863113,14.9328708690343,1823.6223939858,3.28084,0,0.67870408996,9400,2016-08-21 12:44:16,17,23.773,1823.6223939858,3.28084,0.8052984,1.58549545756,246.4,0,0,1024,1024,1188,1024,247,0,77,3.882,3.925,3.893,3.933,3.927,3.916,6,GPS_Atti,
49.6133242786314,14.9328708864359,1823.9504779858,3.608924,0.223694,0.65823164836,9500,2016-08-21 12:44:16,18,23.773,1823.9504779858,3.608924,0.8052984,1.58549545756,246.4,0,0,1024,1024,1188,1024,247,0,77,3.882,3.925,3.893,3.933,3.927,3.916,6,GPS_Atti,
49.6133247497162,14.9328715256766,1824.2785619858,3.937008,0,0.44943570992,9700,2016-08-21 12:44:16,18,23.3,1824.2785619858,3.937008,0.8052984,1.58549545756,246.3,0,0,1024,1024,1188,1024,247,0,77,3.837,3.886,3.851,3.877,3.887,3.859,6,GPS_Atti,
49.6133247518915,14.9328716245674,1824.2785619858,3.937008,0,0.42713912128,9800,2016-08-21 12:44:16,18,23.3,1824.2785619858,3.937008,0.8052984,1.58549545756,246.3,0,0,1024,1024,1185,1024,247,0,77,3.837,3.886,3.851,3.877,3.887,3.859,6,GPS_Atti,
49.6133250037052,14.9328717264728,1824.6066459858,4.265092,0,0.38113846364,9900,2016-08-21 12:44:16,18,23.3,1824.6066459858,4.265092,0.8052984,1.58549545756,246.3,0,0,1024,1024,1182,1024,247,0,77,3.837,3.886,3.851,3.877,3.887,3.859,6,GPS_Atti,
49.6133250397911,14.9328716418921,1824.9347299858,4.593176,0,0.39937009152,10000,2016-08-21 12:44:16,18,23.3,1824.9347299858,4.593176,0.8052984,1.58549545756,246.3,0,0,1024,1024,1183,1024,247,0,77,3.837,3.886,3.851,3.877,3.887,3.859,6,GPS_Atti,
49.6133252174333,14.9328718258944,1824.9347299858,4.593176,0,0.35453085124,10100,2016-08-21 12:44:17,18,23.3,1824.9347299858,4.593176,0.8052984,1.58549545756,246.3,0,0,1024,1024,1180,1024,247,0,77,3.837,3.886,3.851,3.877,3.887,3.859,6,GPS_Atti,
49.6133251874078,14.9328718133844,1825.2628139858,4.92126,0,0.35692586444,10200,2016-08-21 12:44:17,18,23.3,1825.2628139858,4.92126,0.8052984,1.58549545756,246.3,0,0,1024,1024,1153,1024,247,0,77,3.837,3.886,3.851,3.877,3.887,3.859,6,GPS_Atti,
49.6133251129192,14.9328717524494,1825.2628139858,4.92126,0,0.37138780716,10400,2016-08-21 12:44:17,18,23.3,1825.2628139858,4.92126,0.8052984,1.58549545756,246.4,0,0,1024,1024,1063,1024,247,0,77,3.837,3.886,3.851,3.877,3.887,3.859,6,GPS_Atti,
49.613325283411,14.9328720394128,1825.5908979858,5.249344,0,0.306996072816,10500,2016-08-21 12:44:17,18,23.3,1825.5908979858,5.249344,0.8052984,1.58549545756,246.5,0,0,1024,1024,1024,1024,247,0,77,3.837,3.886,3.851,3.877,3.887,3.859,6,GPS_Atti,
49.6133252898804,14.9328720428794,1825.5908979858,5.249344,0,0.30656333002,10600,2016-08-21 12:44:17,18,23.3,1825.5908979858,5.249344,0.8052984,1.58549545756,246.6,0,0,1024,1024,1024,1024,247,0,77,3.837,3.886,3.851,3.877,3.887,3.859,6,GPS_Atti,
49.6133252609378,14.9328720332495,1825.5908979858,5.249344,0,0.307273959964,10700,2016-08-21 12:44:17,18,23.3,1825.5908979858,5.249344,0.8052984,1.58549545756,246.6,0,0,1024,1024,1024,1024,247,0,77,3.837,3.886,3.851,3.877,3.887,3.859,6,GPS_Atti,
49.6133252248939,14.9328720321464,1825.5908979858,5.249344,0.223694,0.306120744704,10800,2016-08-21 12:44:17,18,23.05,1825.5908979858,5.249344,0.8052984,1.58549545756,246.6,0,0,1024,1024,1024,1024,247,0,77,3.829,3.85,3.823,3.843,3.848,3.833,6,GPS_Atti,
49.6133251697975,14.9328718692305,1825.5908979858,5.249344,0.223694,0.3435531606,10900,2016-08-21 12:44:17,18,23.05,1825.5908979858,5.249344,0.8052984,1.58549545756,246.6,0,0,1024,1024,1024,1024,247,0,77,3.829,3.85,3.823,3.843,3.848,3.833,6,GPS_Atti,
49.613324997596,14.9328723800303,1825.5908979858,5.249344,0.223694,0.229814311816,11100,2016-08-21 12:44:17,18,23.05,1825.5908979858,5.249344,0.8052984,1.58549545756,246.5,0,0,1024,1024,1024,1024,247,0,77,3.829,3.85,3.823,3.843,3.848,3.833,6,GPS_Atti,
49.6133249490769,14.9328723753101,1825.5908979858,5.249344,0.223694,0.235858275264,11200,2016-08-21 12:44:18,18,23.05,1825.5908979858,5.249344,0.8052984,1.58549545756,246.5,0,0,1024,1024,1024,1024,247,0,77,3.829,3.85,3.823,3.843,3.848,3.833,6,GPS_Atti,
49.6133247463899,14.9328729190555,1825.5908979858,5.249344,0.223694,0.17622375892,11300,2016-08-21 12:44:18,18,23.05,1825.5908979858,5.249344,0.8052984,1.58549545756,246.4,0,0,1024,1024,1024,1024,247,0,77,3.829,3.85,3.823,3.843,3.848,3.833,6,GPS_Atti,
49.6133246574614,14.9328729894843,1825.5908979858,5.249344,0,0.19705053124,11400,2016-08-21 12:44:18,18,23.05,1825.5908979858,5.249344,0.8052984,1.58549545756,246.4,0,0,1024,1024,1024,1024,247,0,77,3.829,3.85,3.823,3.843,3.848,3.833,6,GPS_Atti,
49.6133247290867,14.9328729407198,1825.5908979858,5.249344,0,0.178930123836,11500,2016-08-21 12:44:18,18,23.05,1825.5908979858,5.249344,0.8052984,1.58549545756,246.4,0,0,1024,1024,1024,1024,247,0,77,3.829,3.85,3.823,3.843,3.848,3.833,6,GPS_Atti,
49.6133247045355,14.9328731470105,1825.5908979858,5.249344,0,0.168658798048,11600,2016-08-21 12:44:18,18,23.05,1825.5908979858,5.249344,0.8052984,1.58549545756,246.5,0,0,1024,1024,1024,1024,247,0,77,3.829,3.85,3.823,3.843,3.848,3.833,6,GPS_Atti,
49.6133247515714,14.9328731726274,1825.5908979858,5.249344,0,0.150544952324,11700,2016-08-21 12:44:18,18,23.05,1825.5908979858,5.249344,0.8052984,1.58549545756,246.5,0,0,1024,1024,1024,1024,247,0,77,3.829,3.85,3.823,3.843,3.848,3.833,6,GPS_Atti,
49.6133247254621,14.9328734266248,1825.5908979858,5.249344,0,0.157797249144,11900,2016-08-21 12:44:18,18,23.05,1825.5908979858,5.249344,0.8052984,1.58549545756,246.6,0,0,1024,1024,1024,1024,247,0,77,3.829,3.85,3.823,3.843,3.848,3.833,6,GPS_Atti,
49.6133247232972,14.9328733952407,1825.9189819858,5.577428,0,0.15759350898,12000,2016-08-21 12:44:18,18,23.012,1825.9189819858,5.577428,0.8052984,1.58549545756,246.6,0,0,1024,1024,1024,1024,247,0,77,3.818,3.854,3.818,3.829,3.853,3.837,6,GPS_Atti,
49.6133246175997,14.932873446264,1825.9189819858,5.577428,0,0.197398956448,12100,2016-08-21 12:44:19,18,23.012,1825.9189819858,5.577428,0.8052984,1.58549545756,246.6,0,0,1024,1024,1024,1024,247,0,77,3.818,3.854,3.818,3.829,3.853,3.837,6,GPS_Atti,
49.6133246124681,14.9328734227557,1825.9189819858,5.577428,0,0.198509192704,12200,2016-08-21 12:44:19,18,23.012,1825.9189819858,5.577428,0.8052984,1.58549545756,246.6,0,0,1024,1024,1024,1024,247,0,77,3.818,3.854,3.818,3.829,3.853,3.837,6,GPS_Atti,
49.6133244280129,14.9328735488011,1825.9189819858,5.577428,0,0.269750336716,12300,2016-08-21 12:44:19,18,23.012,1825.9189819858,5.577428,0.8052984,1.58549545756,246.6,0,0,1024,1024,1024,1024,247,0,77,3.818,3.854,3.818,3.829,3.853,3.837,6,GPS_Atti,
49.6133243095144,14.9328735503045,1825.9189819858,5.577428,0,0.3123031596,12500,2016-08-21 12:44:19,18,23.012,1825.9189819858,5.577428,0.8052984,1.58549545756,246.7,0,0,1024,1024,1024,1024,247,0,77,3.818,3.854,3.818,3.829,3.853,3.837,6,GPS_Atti,
49.6133243300083,14.9328735300553,1825.9189819858,5.577428,0,0.304131243328,12600,2016-08-21 12:44:19,18,23.012,1825.9189819858,5.577428,0.8052984,1.58549545756,246.7,0,0,1024,1024,1024,1024,247,0,77,3.818,3.854,3.818,3.829,3.853,3.837,6,GPS_Atti,
49.6133241159744,14.9328734220504,1825.9189819858,5.577428,0,0.37896326672,12700,2016-08-21 12:44:19,18,23.012,1825.9189819858,5.577428,0.8052984,1.58549545756,246.7,0,0,1024,1024,1024,1024,247,0,77,3.818,3.854,3.818,3.829,3.853,3.837,6,GPS_Atti,
49.6133240218858,14.9328734734741,1825.9189819858,5.577428,0.223694,0.41410106312,12800,2016-08-21 12:44:19,18,23.012,1825.9189819858,5.577428,0.8052984,1.58549545756,246.6,0,0,1024,1024,1024,1024,247,0,77,3.818,3.854,3.818,3.829,3.853,3.837,6,GPS_Atti,
49.6133238014692,14.9328732078453,1825.9189819858,5.577428,0.223694,0.4937172074,12900,2016-08-21 12:44:19,18,23.012,1825.9189819858,5.577428,0.8052984,1.58549545756,246.6,0,0,1024,1024,1024,1024,247,0,77,3.818,3.854,3.818,3.829,3.853,3.837,6,GPS_Atti,
49.6133236015236,14.9328730406892,1825.9189819858,5.577428,0.223694,0.56982613372,13100,2016-08-21 12:44:19,18,23.012,1825.9189819858,5.577428,0.8052984,1.58549545756,246.8,0,0,1024,1024,1024,1024,247,0,77,3.818,3.854,3.818,3.829,3.853,3.837,6,GPS_Atti,
49.613323505689,14.9328730673882,1825.9189819858,5.577428,0,0.6039042188,13200,2016-08-21 12:44:20,18,23.094,1825.9189819858,5.577428,0.8052984,1.58549545756,246.9,0,0,1024,1024,1024,1024,247,0,77,3.827,3.854,3.83,3.842,3.853,3.841,6,GPS_Atti,
49.6133236453026,14.9328730876819,1825.9189819858,5.577428,0,0.552739519,13300,2016-08-21 12:44:20,18,23.094,1825.9189819858,5.577428,0.8052984,1.58549545756,246.9,0,0,1024,1024,1024,1024,247,0,77,3.827,3.854,3.83,3.842,3.853,3.841,6,GPS_Atti,
49.6133235570985,14.9328731065652,1825.9189819858,5.577428,0,0.58436353576,13400,2016-08-21 12:44:20,18,23.094,1825.9189819858,5.577428,0.8052984,1.58549545756,247,0,0,1024,1024,1024,1024,247,0,77,3.827,3.854,3.83,3.842,3.853,3.841,6,GPS_Atti,
49.6133236879618,14.9328728779202,1825.5908979858,5.249344,0,0.54461287832,13500,2016-08-21 12:44:20,18,23.094,1825.9189819858,5.577428,0.8052984,1.58549545756,247.1,0,0,1024,1024,1024,1024,247,0,77,3.827,3.854,3.83,3.842,3.853,3.841,6,GPS_Atti,
49.6133236879618,14.9328728779202,1825.5908979858,5.249344,0,0.54461287832,13500,2016-08-21 12:44:20,18,23.094,1825.9189819858,5.577428,0.8052984,1.58549545756,247.1,0,0,1024,1024,1024,1024,247,0,77,3.827,3.854,3.83,3.842,3.853,3.841,6,GPS_Atti,
49.6133237351961,14.9328728446049,1825.5908979858,5.249344,0,0.52933728728,13600,2016-08-21 12:44:20,18,23.094,1825.9189819858,5.577428,0.8052984,1.58549545756,247.2,0,0,1024,1024,1024,1024,247,0,77,3.827,3.854,3.83,3.842,3.853,3.841,6,GPS_Atti,
49.6133239231196,14.932872514044,1825.5908979858,5.249344,0,0.48758531744,13700,2016-08-21 12:44:20,18,23.094,1825.9189819858,5.577428,0.8052984,1.58549545756,247.2,0,0,1024,1024,1024,1024,247,0,77,3.827,3.854,3.83,3.842,3.853,3.841,6,GPS_Atti,
49.6133239547526,14.932872494118,1825.5908979858,5.249344,0,0.47889437228,13800,2016-08-21 12:44:20,18,23.094,1825.9189819858,5.577428,0.8052984,1.58549545756,247.1,0,0,1024,1024,1024,1024,247,0,77,3.827,3.854,3.83,3.842,3.853,3.841,6,GPS_Atti,
49.6133241721756,14.9328721312906,1825.5908979858,5.249344,0,0.45522967336,14000,2016-08-21 12:44:20,18,23.094,1825.9189819858,5.577428,0.8052984,1.58549545756,246.8,0,0,1024,1024,1024,1024,247,0,77,3.827,3.854,3.83,3.842,3.853,3.841,6,GPS_Atti,
49.6133242862612,14.9328717421758,1825.5908979858,5.249344,0,0.48933072432,14100,2016-08-21 12:44:20,18,23.094,1825.9189819858,5.577428,0.8052984,1.58549545756,246.7,0,0,1024,1024,1024,1024,247,0,77,3.827,3.854,3.83,3.842,3.853,3.841,6,GPS_Atti,
49.6133242994243,14.9328717535124,1825.2628139858,4.92126,0,0.4841863672,14200,2016-08-21 12:44:21,18,22.987,1825.9189819858,5.577428,0.8052984,1.58549545756,246.6,0,0,1024,1024,1024,1024,247,0,77,3.809,3.85,3.824,3.826,3.845,3.84,6,GPS_Atti,
49.6133245435385,14.9328711858677,1825.2628139858,4.92126,0,0.55177823288,14300,2016-08-21 12:44:21,18,22.987,1825.9189819858,5.577428,0.8052984,1.58549545756,246.6,0,0,1024,1024,1024,1024,247,0,77,3.809,3.85,3.824,3.826,3.845,3.84,6,GPS_Atti,
49.6133245659816,14.9328711374898,1825.2628139858,4.92126,0,0.55907810188,14400,2016-08-21 12:44:21,18,22.987,1825.9189819858,5.577428,0.8052984,1.58549545756,246.6,0,0,1024,1024,1024,1024,247,0,77,3.809,3.85,3.824,3.826,3.845,3.84,6,GPS_Atti,
49.6133247333187,14.9328707847236,1825.5908979858,5.249344,0,0.6190781038,14600,2016-08-21 12:44:21,16,22.987,1825.9189819858,5.577428,0.8052984,1.58549545756,246.6,0,0,1024,1024,1024,1024,247,0,77,3.809,3.85,3.824,3.826,3.845,3.84,6,GPS_Atti,
49.6133248128403,14.9328708655824,1825.2628139858,4.92126,0,0.59384516336,14700,2016-08-21 12:44:21,16,22.987,1825.9189819858,5.577428,0.8052984,1.58549545756,246.5,0,0,1024,1024,1024,1024,247,0,77,3.809,3.85,3.824,3.826,3.845,3.84,6,GPS_Atti,
49.6133247689683,14.9328709840246,1825.2628139858,4.92126,0,0.570209992,14800,2016-08-21 12:44:21,16,22.987,1825.9189819858,5.577428,0.8052984,1.58549545756,246.5,0,0,1024,1024,1024,1024,247,0,77,3.809,3.85,3.824,3.826,3.845,3.84,6,GPS_Atti,
49.6133248405055,14.9328709947125,1825.2628139858,4.92126,0,0.56189634344,14900,2016-08-21 12:44:21,16,22.987,1825.9189819858,5.577428,0.8052984,1.58549545756,246.5,0,0,1024,1024,1024,1024,247,0,77,3.809,3.85,3.824,3.826,3.845,3.84,6,GPS_Atti,
49.6133247995351,14.9328711212587,1825.2628139858,4.92126,0,0.53603020088,15000,2016-08-21 12:44:21,16,22.987,1825.9189819858,5.577428,0.8052984,1.58549545756,246.5,0,0,1024,1024,1024,1024,247,0,77,3.809,3.85,3.824,3.826,3.845,3.84,6,GPS_Atti,
49.6133248826616,14.9328711812188,1824.9347299858,4.593176,0,0.51563978028,15100,2016-08-21 12:44:22,16,22.987,1825.9189819858,5.577428,0.8052984,1.58549545756,246.6,0,0,1024,1024,1024,1024,247,0,77,3.809,3.85,3.824,3.826,3.845,3.84,6,GPS_Atti,
49.6133247367347,14.9328715019794,1824.6066459858,4.265092,0,0.45628610384,15300,2016-08-21 12:44:22,16,22.987,1825.9189819858,5.577428,0.8052984,1.58549545756,246.6,0,0,1024,1024,1024,1024,247,0,77,3.809,3.85,3.824,3.826,3.845,3.84,6,GPS_Atti,
49.6133246697282,14.9328716038343,1824.6066459858,4.265092,0,0.44280185144,15400,2016-08-21 12:44:22,16,22.91,1825.9189819858,5.577428,0.8052984,1.58549545756,246.7,0,0,1024,1024,1024,1024,247,0,76,3.809,3.844,3.817,3.83,3.834,3.843,6,GPS_Atti,
49.613324886795,14.932871475503,1824.6066459858,4.265092,0,0.44722114292,15500,2016-08-21 12:44:22,16,22.91,1825.9189819858,5.577428,0.8052984,1.58549545756,246.7,0,0,1024,1024,1024,1024,247,0,76,3.809,3.844,3.817,3.83,3.834,3.843,6,GPS_Atti,
49.6133248224622,14.9328714702835,1824.6066459858,4.265092,0,0.45408137936,15600,2016-08-21 12:44:22,16,22.91,1825.9189819858,5.577428,0.8052984,1.58549545756,246.6,0,0,1024,1024,1024,1024,247,0,76,3.809,3.844,3.817,3.83,3.834,3.843,6,GPS_Atti,
49.6133247268441,14.9328716465518,1824.6066459858,4.265092,0,0.42551182464,15700,2016-08-21 12:44:22,16,22.91,1825.9189819858,5.577428,0.8052984,1.58549545756,246.5,0,0,1024,1024,1024,1024,247,0,76,3.809,3.844,3.817,3.83,3.834,3.843,6,GPS_Atti,
49.613324737393,14.9328716363531,1824.6066459858,4.265092,0,0.42637468556,15800,2016-08-21 12:44:22,16,22.91,1825.9189819858,5.577428,0.8052984,1.58549545756,246.5,0,0,1024,1024,1024,1024,247,0,76,3.809,3.844,3.817,3.83,3.834,3.843,6,GPS_Atti,
49.613324668589,14.9328718200283,1824.6066459858,4.265092,0,0.39661746676,15900,2016-08-21 12:44:22,16,22.91,1825.9189819858,5.577428,0.8052984,1.58549545756,246.5,0,0,1024,1024,1024,1024,247,0,76,3.809,3.844,3.817,3.83,3.834,3.843,6,GPS_Atti,Landing Gear Raised
49.6133245512895,14.932872100341,1824.6066459858,4.265092,0,0.36273951292,16100,2016-08-21 12:44:22,16,22.91,1825.9189819858,5.577428,0.8052984,1.58549545756,246.4,0,0,1024,1024,1024,1024,247,0,76,3.809,3.844,3.817,3.83,3.834,3.843,6,GPS_Atti,
49.613324460237,14.9328722551949,1824.6066459858,4.265092,0,0.3570046046,16200,2016-08-21 12:44:23,16,22.91,1825.9189819858,5.577428,0.8052984,1.58549545756,246.3,0,0,1024,1024,1024,1024,247,0,76,3.809,3.844,3.817,3.83,3.834,3.843,6,GPS_Atti,
49.6133245576853,14.9328723389607,1824.6066459858,4.265092,0,0.31804627002,16300,2016-08-21 12:44:23,16,22.91,1825.9189819858,5.577428,0.8052984,1.58549545756,246.2,0,0,1024,1024,1024,1024,247,0,76,3.809,3.844,3.817,3.83,3.834,3.843,6,GPS_Atti,
49.613324509668,14.9328724325786,1824.6066459858,4.265092,0,0.315066283048,16400,2016-08-21 12:44:23,16,22.91,1825.9189819858,5.577428,0.8052984,1.58549545756,246.2,0,0,1024,1024,1024,1024,247,0,76,3.809,3.844,3.817,3.83,3.834,3.843,6,GPS_Atti,
49.613324509668,14.9328724325786,1824.6066459858,4.265092,0,0.315066283048,16400,2016-08-21 12:44:23,16,22.91,1825.9189819858,5.577428,0.8052984,1.58549545756,246.2,0,0,1024,1024,1024,1024,247,0,76,3.8,3.831,3.803,3.814,3.829,3.823,6,GPS_Atti,
49.6133244413352,14.932872533409,1824.6066459858,4.265092,0,0.319573172956,16500,2016-08-21 12:44:23,16,22.91,1825.9189819858,5.577428,0.8052984,1.58549545756,246.2,0,0,1024,1024,1024,1024,247,0,76,3.8,3.831,3.803,3.814,3.829,3.823,6,GPS_Atti,
49.6133244417903,14.9328725029812,1824.9347299858,4.593176,0,0.323690299072,16600,2016-08-21 12:44:23,16,22.91,1825.9189819858,5.577428,0.8052984,1.58549545756,246.2,0,0,1024,1024,1024,1024,247,0,76,3.8,3.831,3.803,3.814,3.829,3.823,6,GPS_Atti,
49.6133245387518,14.9328724883842,1824.9347299858,4.593176,0,0.298371400624,16800,2016-08-21 12:44:23,17,22.91,1825.9189819858,5.577428,0.8052984,1.58549545756,246.3,0,0,1024,1024,1024,1024,247,0,76,3.8,3.831,3.803,3.814,3.829,3.823,6,GPS_Atti,
49.6133245268428,14.9328725312072,1824.9347299858,4.593176,0,0.295130586872,16900,2016-08-21 12:44:23,17,22.91,1825.9189819858,5.577428,0.8052984,1.58549545756,246.3,0,0,1024,1024,1024,1024,247,0,76,3.8,3.831,3.803,3.814,3.829,3.823,6,GPS_Atti,
49.6133245216345,14.9328724822605,1824.9347299858,4.593176,0,0.304031177708,17000,2016-08-21 12:44:23,17,22.91,1825.9189819858,5.577428,0.8052984,1.58549545756,246.4,0,0,1024,1024,1024,1024,247,0,76,3.8,3.831,3.803,3.814,3.829,3.823,6,GPS_Atti,
49.6133245100562,14.9328725533313,1824.9347299858,4.593176,0,0.296660770648,17100,2016-08-21 12:44:24,17,22.91,1825.9189819858,5.577428,0.8052984,1.58549545756,246.4,0,0,1024,1024,1024,1024,247,0,76,3.8,3.831,3.803,3.814,3.829,3.823,6,GPS_Atti,
49.6133245097614,14.9328725449827,1824.9347299858,4.593176,0,0.297958670952,17200,2016-08-21 12:44:24,17,22.91,1825.9189819858,5.577428,0.8052984,1.58549545756,246.5,0,0,1024,1024,1024,1024,247,0,76,3.8,3.831,3.803,3.814,3.829,3.823,6,GPS_Atti,
49.6133245473747,14.9328726462931,1824.9347299858,4.593176,0,0.272584326308,17400,2016-08-21 12:44:24,17,22.91,1825.9189819858,5.577428,0.8052984,1.58549545756,246.6,0,0,1024,1024,1024,1024,247,0,76,3.8,3.831,3.803,3.814,3.829,3.823,6,GPS_Atti,
49.6133245473747,14.9328726462931,1824.9347299858,4.593176,0,0.272584326308,17400,2016-08-21 12:44:24,17,22.91,1825.9189819858,5.577428,0.8052984,1.58549545756,246.6,0,0,1024,1024,1024,1024,247,0,76,3.8,3.831,3.803,3.814,3.829,3.823,6,GPS_Atti,
49.613324602885,14.9328727542836,1824.9347299858,4.593176,0,0.241371070716,17600,2016-08-21 12:44:24,17,22.766,1825.9189819858,5.577428,0.8052984,1.58549545756,246.7,0,0,1024,1024,1024,1024,247.1,0,76,3.776,3.814,3.774,3.796,3.816,3.8,6,GPS_Atti,
49.6133246308631,14.9328728374351,1824.9347299858,4.593176,0,0.222209324696,17700,2016-08-21 12:44:24,17,22.766,1825.9189819858,5.577428,0.8052984,1.58549545756,246.8,0,0,1024,1024,1024,1024,247,0,76,3.776,3.814,3.774,3.796,3.816,3.8,6,GPS_Atti,
49.6133247083917,14.9328728945195,1824.9347299858,4.593176,0,0.191039704276,17800,2016-08-21 12:44:24,17,22.766,1825.9189819858,5.577428,0.8052984,1.58549545756,246.9,0,0,1024,1024,1024,1024,247,0,76,3.776,3.814,3.774,3.796,3.816,3.8,6,GPS_Atti,
49.6133247329503,14.9328729314214,1824.9347299858,4.593176,0,0.178839900736,17900,2016-08-21 12:44:24,18,22.766,1825.9189819858,5.577428,0.8052984,1.58549545756,246.9,0,0,1024,1024,1024,1024,247,0,76,3.776,3.814,3.774,3.796,3.816,3.8,6,GPS_Atti,
49.6133249608929,14.9328729705975,1824.9347299858,4.593176,0,0.108652562532,18100,2016-08-21 12:44:24,18,22.766,1825.9189819858,5.577428,0.8052984,1.58549545756,246.7,0,0,1024,1024,1024,1024,247,0,76,3.776,3.814,3.774,3.796,3.816,3.8,6,GPS_Atti,
49.6133249636588,14.9328729457376,1824.9347299858,4.593176,0,0.112591539036,18200,2016-08-21 12:44:25,18,22.766,1825.9189819858,5.577428,0.8052984,1.58549545756,246.5,0,0,1024,1024,1024,1024,247,0,76,3.776,3.814,3.774,3.796,3.816,3.8,6,GPS_Atti,
49.6133250605622,14.9328730159106,1824.9347299858,4.593176,0,0.079833335888,18300,2016-08-21 12:44:25,17,22.766,1825.9189819858,5.577428,0.8052984,1.58549545756,246.4,0,0,1024,1024,1024,1024,247,0,76,3.776,3.814,3.774,3.796,3.816,3.8,6,GPS_Atti,
49.6133250559203,14.9328730420953,1824.9347299858,4.593176,0,0.075044949908,18400,2016-08-21 12:44:25,17,22.766,1825.9189819858,5.577428,0.8052984,1.58549545756,246.2,0,0,1024,1024,1024,1024,247,0,76,3.776,3.814,3.774,3.796,3.816,3.8,6,GPS_Atti,
49.6133252338815,14.9328730228875,1824.9347299858,4.593176,0,0.07672736466,18500,2016-08-21 12:44:25,17,22.766,1825.9189819858,5.577428,0.8052984,1.58549545756,246.3,0,0,1024,1024,1024,1024,247,0,76,3.776,3.814,3.774,3.796,3.816,3.8,6,GPS_Atti,
49.6133251930915,14.9328729971206,1824.9347299858,4.593176,0,0.078266406704,18600,2016-08-21 12:44:25,17,22.766,1825.9189819858,5.577428,0.8052984,1.58549545756,246.3,0,0,1024,1024,1024,1024,247,0,76,3.776,3.814,3.774,3.796,3.816,3.8,6,GPS_Atti,
49.6133252050124,14.9328729871282,1824.9347299858,4.593176,0,0.0814960656,18800,2016-08-21 12:44:25,17,22.808,1825.9189819858,5.577428,0.8052984,1.58549545756,246.6,0,0,1024,1024,1024,1024,247,0,76,3.78,3.812,3.795,3.802,3.821,3.804,6,GPS_Atti,
49.613325134712,14.9328728722788,1825.2628139858,4.92126,0,0.106576118896,18900,2016-08-21 12:44:25,17,22.808,1825.9189819858,5.577428,0.8052984,1.58549545756,246.7,0,0,1024,1024,1024,1024,247,0,76,3.78,3.812,3.795,3.802,3.821,3.804,6,GPS_Atti,
49.6133250966127,14.9328729161381,1825.2628139858,4.92126,0.223694,0.098158795792,19000,2016-08-21 12:44:25,17,22.808,1825.9189819858,5.577428,0.8052984,1.58549545756,246.9,0,0,1024,1024,1024,1024,247,0,76,3.78,3.812,3.795,3.802,3.821,3.804,6,GPS_Atti,
49.6133250448746,14.9328729113476,1825.2628139858,4.92126,0,0.10479495086,19100,2016-08-21 12:44:25,17,22.808,1825.9189819858,5.577428,0.8052984,1.58549545756,246.9,0,0,1024,1024,1024,1024,247,0,76,3.78,3.812,3.795,3.802,3.821,3.804,6,GPS_Atti,
49.6133250147068,14.9328728911377,1825.2628139858,4.92126,0.223694,0.113665029884,19200,2016-08-21 12:44:26,17,22.808,1825.9189819858,5.577428,0.8052984,1.58549545756,247,0,0,1024,1024,1024,1024,247,0,76,3.78,3.812,3.795,3.802,3.821,3.804,6,GPS_Atti,
49.6133249102002,14.932872913335,1825.2628139858,4.92126,0,0.131031500256,19300,2016-08-21 12:44:26,17,22.808,1825.9189819858,5.577428,0.8052984,1.58549545756,246.9,0,0,1024,1024,1024,1024,247,0,76,3.78,3.812,3.795,3.802,3.821,3.804,6,GPS_Atti,
49.6133247585541,14.9328728242605,1825.2628139858,4.92126,0,0.185830714608,19500,2016-08-21 12:44:26,16,22.808,1825.9189819858,5.577428,0.8052984,1.58549545756,246.7,0,0,1024,1024,1024,1024,247,0,76,3.78,3.812,3.795,3.802,3.821,3.804,6,GPS_Atti,
49.6133246934436,14.9328728796154,1825.2628139858,4.92126,0,0.197531830468,19600,2016-08-21 12:44:26,16,22.808,1825.9189819858,5.577428,0.8052984,1.58549545756,246.6,0,0,1024,1024,1024,1024,247,0,76,3.78,3.812,3.795,3.802,3.821,3.804,6,GPS_Atti,
49.6133247929233,14.9328727131942,1825.2628139858,4.92126,0,0.19482284088,19700,2016-08-21 12:44:26,17,22.808,1825.9189819858,5.577428,0.8052984,1.58549545756,246.5,0,0,1024,1024,1024,1024,247,0,76,3.78,3.812,3.795,3.802,3.821,3.804,6,GPS_Atti,
49.6133248047067,14.9328726917235,1825.2628139858,4.92126,0,0.195788720176,19800,2016-08-21 12:44:26,17,22.808,1825.9189819858,5.577428,0.8052984,1.58549545756,246.5,0,0,1024,1024,1024,1024,247,0,76,3.78,3.812,3.795,3.802,3.821,3.804,6,GPS_Atti,
49.6133247023904,14.9328725897783,1825.2628139858,4.92126,0,0.238683734672,20000,2016-08-21 12:44:26,17,22.821,1825.9189819858,5.577428,0.8052984,1.58549545756,246.5,0,0,1024,1024,1024,1024,247,0,76,3.788,3.803,3.794,3.804,3.819,3.815,6,GPS_Atti,
49.6133246027328,14.9328724020083,1825.2628139858,4.92126,0,0.295940954352,20100,2016-08-21 12:44:26,17,22.821,1825.9189819858,5.577428,0.8052984,1.58549545756,246.5,0,0,1024,1024,1024,1024,247,0,76,3.788,3.803,3.794,3.804,3.819,3.815,6,GPS_Atti,
49.6133245986592,14.932872421793,1825.2628139858,4.92126,0,0.293541347976,20200,2016-08-21 12:44:27,17,22.821,1825.9189819858,5.577428,0.8052984,1.58549545756,246.5,0,0,1024,1024,1024,1024,247,0,76,3.788,3.803,3.794,3.804,3.819,3.815,6,GPS_Atti,
49.6133245219109,14.9328723558614,1825.2628139858,4.92126,0,0.324266414576,20300,2016-08-21 12:44:27,17,22.821,1825.9189819858,5.577428,0.8052984,1.58549545756,246.4,0,0,1024,1024,1024,1024,247,0,76,3.788,3.803,3.794,3.804,3.819,3.815,6,GPS_Atti,
49.6133246043928,14.9328724514393,1825.2628139858,4.92126,0,0.287037738844,20500,2016-08-21 12:44:27,17,22.821,1825.9189819858,5.577428,0.8052984,1.58549545756,246.4,0,0,1024,1024,1024,1024,247,0,76,3.788,3.803,3.794,3.804,3.819,3.815,6,GPS_Atti,
49.6133246464353,14.9328724732496,1825.2628139858,4.92126,0,0.27275099298,20600,2016-08-21 12:44:27,17,22.821,1825.9189819858,5.577428,0.8052984,1.58549545756,246.4,0,0,1024,1024,1024,1024,247,0,76,3.788,3.803,3.794,3.804,3.819,3.815,6,GPS_Atti,
49.6133246780709,14.9328723864039,1825.2628139858,4.92126,0,0.280937016864,20800,2016-08-21 12:44:27,17,22.821,1825.9189819858,5.577428,0.8052984,1.58549545756,246.4,0,0,1024,1024,1024,1024,247,0,76,3.788,3.803,3.794,3.804,3.819,3.815,6,GPS_Atti,
49.6133246556993,14.9328722972801,1825.2628139858,4.92126,0,0.302630259028,20900,2016-08-21 12:44:27,17,22.821,1825.9189819858,5.577428,0.8052984,1.58549545756,246.4,0,0,1024,1024,1024,1024,247,0,76,3.788,3.803,3.794,3.804,3.819,3.815,6,GPS_Atti,
49.6133246357177,14.9328723297273,1825.2628139858,4.92126,0,0.301037411208,21000,2016-08-21 12:44:27,17,22.821,1825.9189819858,5.577428,0.8052984,1.58549545756,246.4,0,0,1024,1024,1024,1024,247,0,76,3.788,3.803,3.794,3.804,3.819,3.815,6,GPS_Atti,
49.6133246170587,14.9328724642359,1825.2628139858,4.92126,0,0.28165027148,21100,2016-08-21 12:44:28,17,22.821,1825.9189819858,5.577428,0.8052984,1.58549545756,246.4,0,0,1024,1024,1024,1024,247,0,76,3.788,3.803,3.794,3.804,3.819,3.815,6,GPS_Atti,
49.6133245361058,14.9328724546773,1825.2628139858,4.92126,0,0.30440781814,21200,2016-08-21 12:44:28,17,22.781,1825.9189819858,5.577428,0.8052984,1.58549545756,246.5,0,0,1024,1024,1024,1024,247,0,76,3.764,3.812,3.787,3.796,3.799,3.806,6,GPS_Atti,
49.6133245490529,14.9328724672777,1825.2628139858,4.92126,0,0.298911754972,21300,2016-08-21 12:44:28,17,22.781,1825.9189819858,5.577428,0.8052984,1.58549545756,246.5,0,0,1024,1024,1024,1024,247,0,76,3.764,3.812,3.787,3.796,3.799,3.806,6,GPS_Atti,
49.6133246691899,14.9328725367625,1825.2628139858,4.92126,0,0.256112869088,21500,2016-08-21 12:44:28,17,22.781,1825.9189819858,5.577428,0.8052984,1.58549545756,246.6,0,0,1024,1024,1024,1024,247,0,76,3.764,3.812,3.787,3.796,3.799,3.806,6,GPS_Atti,
49.6133246870034,14.9328724994013,1825.2628139858,4.92126,0,0.258266412464,21600,2016-08-21 12:44:28,17,22.781,1825.9189819858,5.577428,0.8052984,1.58549545756,246.6,0,0,1024,1024,1024,1024,247,0,76,3.764,3.812,3.787,3.796,3.799,3.806,6,GPS_Atti,
49.6133246974484,14.9328725706154,1825.2628139858,4.92126,0,0.243217855552,21700,2016-08-21 12:44:28,16,22.781,1825.9189819858,5.577428,0.8052984,1.58549545756,246.7,0,0,1024,1024,1024,1024,247,0,76,3.764,3.812,3.787,3.796,3.799,3.806,6,GPS_Atti,
49.6133247088541,14.9328725532239,1825.2628139858,4.92126,0,0.243450467108,21800,2016-08-21 12:44:28,16,22.781,1825.9189819858,5.577428,0.8052984,1.58549545756,246.7,0,0,1024,1024,1024,1024,247,0,76,3.764,3.812,3.787,3.796,3.799,3.806,6,GPS_Atti,
49.6133247952469,14.9328725957146,1825.2628139858,4.92126,0,0.215645348108,22000,2016-08-21 12:44:28,16,22.781,1825.9189819858,5.577428,0.8052984,1.58549545756,246.8,0,0,1024,1024,1024,1024,247.1,0,76,3.764,3.812,3.787,3.796,3.799,3.806,6,GPS_Atti,
49.6133248691472,14.9328726639687,1825.2628139858,4.92126,0,0.186858273696,22100,2016-08-21 12:44:28,17,22.781,1825.9189819858,5.577428,0.8052984,1.58549545756,246.7,0,0,1024,1024,1024,1024,247,0,76,3.764,3.812,3.787,3.796,3.799,3.806,6,GPS_Atti,
49.6133248521708,14.9328726053157,1825.2628139858,4.92126,0,0.201850072076,22200,2016-08-21 12:44:29,17,22.781,1825.9189819858,5.577428,0.8052984,1.58549545756,246.5,0,0,1024,1024,1024,1024,247,0,76,3.764,3.812,3.787,3.796,3.799,3.806,6,GPS_Atti,
49.6133248418832,14.9328725665767,1825.2628139858,4.92126,0,0.211585964776,22300,2016-08-21 12:44:29,17,22.781,1825.9189819858,5.577428,0.8052984,1.58549545756,246.5,0,0,1024,1024,1024,1024,247,0,76,3.764,3.812,3.787,3.796,3.799,3.806,6,GPS_Atti,
49.6133248279298,14.9328725461675,1825.2628139858,4.92126,0,0.218394363944,22400,2016-08-21 12:44:29,17,22.752,1825.9189819858,5.577428,0.8052984,1.58549545756,246.5,0,0,1024,1024,1024,1024,247,0,76,3.773,3.808,3.78,3.79,3.807,3.795,6,GPS_Atti,
49.6133249386022,14.9328725095814,1825.2628139858,4.92126,0,0.207382552568,22500,2016-08-21 12:44:29,17,22.752,1825.9189819858,5.577428,0.8052984,1.58549545756,246.5,0,0,1024,1024,1024,1024,247,0,76,3.773,3.808,3.78,3.79,3.807,3.795,6,GPS_Atti,
49.613324945369,14.9328724714956,1825.2628139858,4.92126,0,0.21486877328,22600,2016-08-21 12:44:29,17,22.752,1825.9189819858,5.577428,0.8052984,1.58549545756,246.5,0,0,1024,1024,1024,1024,247,0,76,3.773,3.808,3.78,3.79,3.807,3.795,6,GPS_Atti,
49.6133249569419,14.9328723284951,1825.5908979858,5.249344,0,0.245537409432,22800,2016-08-21 12:44:29,17,22.752,1825.9189819858,5.577428,0.8052984,1.58549545756,246.3,0,0,1024,1024,1024,1024,247,0,76,3.773,3.808,3.78,3.79,3.807,3.795,6,GPS_Atti,
49.613325036318,14.9328721629694,1825.5908979858,5.249344,0,0.277323827772,22900,2016-08-21 12:44:29,17,22.752,1825.9189819858,5.577428,0.8052984,1.58549545756,246.1,0,0,1024,1024,1024,1024,247,0,76,3.773,3.808,3.78,3.79,3.807,3.795,6,GPS_Atti,
49.613325036318,14.9328721629694,1825.5908979858,5.249344,0,0.277323827772,22900,2016-08-21 12:44:29,17,22.752,1825.9189819858,5.577428,0.8052984,1.58549545756,246.1,0,0,1024,1024,1024,1024,247,0,76,3.773,3.808,3.78,3.79,3.807,3.795,6,GPS_Atti,
49.6133250261985,14.9328722236553,1825.5908979858,5.249344,0,0.26377625516,23000,2016-08-21 12:44:29,17,22.752,1825.9189819858,5.577428,0.8052984,1.58549545756,246,0,0,1024,1024,1024,1024,247,0,76,3.773,3.808,3.78,3.79,3.807,3.795,6,GPS_Atti,
49.6133250076882,14.932872303481,1825.5908979858,5.249344,0.223694,0.24657809188,23100,2016-08-21 12:44:30,17,22.752,1825.9189819858,5.577428,0.8052984,1.58549545756,246,0,0,1024,1024,1024,1024,247,0,76,3.773,3.808,3.78,3.79,3.807,3.795,6,GPS_Atti,
49.6133249807249,14.932872404987,1825.5908979858,5.249344,0.223694,0.22573327494,23200,2016-08-21 12:44:30,17,22.752,1825.9189819858,5.577428,0.8052984,1.58549545756,246.1,0,0,1024,1024,1024,1024,247,0,76,3.773,3.808,3.78,3.79,3.807,3.795,6,GPS_Atti,
49.6133249203499,14.932872562986,1825.2628139858,4.92126,0.223694,0.198495413176,23300,2016-08-21 12:44:30,17,22.752,1825.9189819858,5.577428,0.8052984,1.58549545756,246.2,0,0,1024,1024,1024,1024,247,0,76,3.773,3.808,3.78,3.79,3.807,3.795,6,GPS_Atti,
49.6133248880543,14.9328726647879,1825.5908979858,5.249344,0.223694,0.182965228952,23400,2016-08-21 12:44:30,17,22.745,1825.9189819858,5.577428,0.8052984,1.58549545756,246.3,0,0,1024,1024,1024,1024,247,0,76,3.763,3.804,3.781,3.791,3.797,3.799,6,GPS_Atti,
49.6133247194781,14.932872957154,1825.2628139858,4.92126,0.223694,0.18007218424,23500,2016-08-21 12:44:30,17,22.745,1825.9189819858,5.577428,0.8052984,1.58549545756,246.3,0,0,1024,1024,1024,1024,247.1,0,76,3.763,3.804,3.781,3.791,3.797,3.799,6,GPS_Atti,
49.6133246270655,14.932873160135,1825.5908979858,5.249344,0,0.195548890772,23700,2016-08-21 12:44:30,18,22.745,1825.9189819858,5.577428,0.8052984,1.58549545756,246.4,0,0,1024,1024,1024,1024,247,0,76,3.763,3.804,3.781,3.791,3.797,3.799,6,GPS_Atti,
49.6133245381304,14.9328731777341,1825.5908979858,5.249344,0,0.226792330092,23800,2016-08-21 12:44:30,18,22.745,1825.9189819858,5.577428,0.8052984,1.58549545756,246.5,0,0,1024,1024,1024,1024,247,0,76,3.763,3.804,3.781,3.791,3.797,3.799,6,GPS_Atti,
49.6133245685829,14.9328732869639,1825.5908979858,5.249344,0,0.213256896588,23900,2016-08-21 12:44:30,17,22.745,1825.9189819858,5.577428,0.8052984,1.58549545756,246.6,0,0,1024,1024,1024,1024,247,0,76,3.763,3.804,3.781,3.791,3.797,3.799,6,GPS_Atti,
49.6133244937818,14.9328732205708,1825.5908979858,5.249344,0,0.241583669148,24000,2016-08-21 12:44:30,17,22.745,1825.9189819858,5.577428,0.8052984,1.58549545756,246.7,0,0,1024,1024,1024,1024,247,0,76,3.763,3.804,3.781,3.791,3.797,3.799,6,GPS_Atti,
49.6133245223009,14.9328733098157,1825.5908979858,5.249344,0,0.22999836694,24100,2016-08-21 12:44:31,17,22.745,1825.9189819858,5.577428,0.8052984,1.58549545756,246.7,0,0,1024,1024,1024,1024,247,0,76,3.763,3.804,3.781,3.791,3.797,3.799,6,GPS_Atti,
49.6133245424338,14.9328733804691,1825.5908979858,5.249344,0,0.223059062256,24300,2016-08-21 12:44:31,17,22.745,1825.9189819858,5.577428,0.8052984,1.58549545756,246.5,0,0,1024,1024,1024,1024,247,0,76,3.763,3.804,3.781,3.791,3.797,3.799,6,GPS_Atti,
49.6133245682256,14.9328733750265,1825.5908979858,5.249344,0,0.213588589512,24400,2016-08-21 12:44:31,17,22.745,1825.9189819858,5.577428,0.8052984,1.58549545756,246.4,0,0,1024,1024,1024,1024,247,0,76,3.763,3.804,3.781,3.791,3.797,3.799,6,GPS_Atti,
49.6133245682256,14.9328733750265,1825.5908979858,5.249344,0,0.213588589512,24400,2016-08-21 12:44:31,17,22.745,1825.9189819858,5.577428,0.8052984,1.58549545756,246.4,0,0,1024,1024,1024,1024,247,0,76,3.763,3.804,3.781,3.791,3.797,3.799,6,GPS_Atti,
49.6133244832197,14.9328735888491,1825.5908979858,5.249344,0,0.252238525132,24500,2016-08-21 12:44:31,17,22.745,1825.9189819858,5.577428,0.8052984,1.58549545756,246.2,0,0,1024,1024,1024,1024,247,0,76,3.768,3.792,3.788,3.794,3.808,3.791,6,GPS_Atti,
49.6133244100012,14.9328738205102,1825.5908979858,5.249344,0,0.295447187932,24700,2016-08-21 12:44:31,16,22.745,1825.9189819858,5.577428,0.8052984,1.58549545756,246.1,0,0,1024,1024,1024,1024,247,0,76,3.768,3.792,3.788,3.794,3.808,3.791,6,GPS_Atti,
49.6133243974471,14.9328738581572,1825.5908979858,5.249344,0,0.303262148812,24800,2016-08-21 12:44:31,16,22.745,1825.9189819858,5.577428,0.8052984,1.58549545756,246.2,0,0,1024,1024,1024,1024,247,0,76,3.768,3.792,3.788,3.794,3.808,3.791,6,GPS_Atti,
49.613324351715,14.9328741126611,1825.5908979858,5.249344,0,0.3468504048,25000,2016-08-21 12:44:31,16,22.745,1825.9189819858,5.577428,0.8052984,1.58549545756,246.4,0,0,1024,1024,1024,1024,247,0,76,3.768,3.792,3.788,3.794,3.808,3.791,6,GPS_Atti,
49.6133241852844,14.9328744595412,1825.5908979858,5.249344,0,0.44367783572,25100,2016-08-21 12:44:31,17,22.745,1825.9189819858,5.577428,0.8052984,1.58549545756,246.5,0,0,1024,1024,1024,1024,247,0,76,3.768,3.792,3.788,3.794,3.808,3.791,6,GPS_Atti,
49.6133241014593,14.9328745142818,1825.5908979858,5.249344,0,0.4759186504,25200,2016-08-21 12:44:32,17,22.745,1825.9189819858,5.577428,0.8052984,1.58549545756,246.5,0,0,1024,1024,1024,1024,247,0,76,3.768,3.792,3.788,3.794,3.808,3.791,6,GPS_Atti,
49.6133242183081,14.9328745984187,1825.5908979858,5.249344,0,0.45521655,25300,2016-08-21 12:44:32,17,22.745,1825.9189819858,5.577428,0.8052984,1.58549545756,246.4,0,0,1024,1024,1024,1024,247,0,76,3.768,3.792,3.788,3.794,3.808,3.791,6,GPS_Atti,
49.6133241493306,14.9328746257957,1825.5908979858,5.249344,0,0.47849739064,25400,2016-08-21 12:44:32,17,22.745,1825.9189819858,5.577428,0.8052984,1.58549545756,246.5,0,0,1024,1024,1024,1024,247,0,76,3.768,3.792,3.788,3.794,3.808,3.791,6,GPS_Atti,
49.6133241175302,14.9328747152315,1825.5908979858,5.249344,0,0.501066289,25500,2016-08-21 12:44:32,17,22.745,1825.9189819858,5.577428,0.8052984,1.58549545756,246.5,0,0,1024,1024,1024,1024,247,0,76,3.768,3.792,3.788,3.794,3.808,3.791,6,GPS_Atti,
49.6133241175302,14.9328747152315,1825.5908979858,5.249344,0,0.501066289,25500,2016-08-21 12:44:32,17,22.745,1825.9189819858,5.577428,0.8052984,1.58549545756,246.5,0,0,1024,1024,1024,1024,247,0,76,3.768,3.792,3.788,3.794,3.808,3.791,6,GPS_Atti,
49.6133241337622,14.9328746911072,1825.5908979858,5.249344,0,0.49285434648,25700,2016-08-21 12:44:32,16,22.729,1825.9189819858,5.577428,0.8052984,1.58549545756,246.6,0,0,1024,1024,1024,1024,247,0,75,3.768,3.792,3.788,3.794,3.808,3.791,6,GPS_Atti,
49.6133241679147,14.9328746674665,1825.5908979858,5.249344,0,0.47980316496,25900,2016-08-21 12:44:32,15,22.729,1825.9189819858,5.577428,0.8052984,1.58549545756,246.7,0,0,1024,1024,1024,1024,247,0,75,3.768,3.792,3.788,3.794,3.808,3.791,6,GPS_Atti,
49.6133241869104,14.9328746327593,1825.5908979858,5.249344,0,0.4691765242,26000,2016-08-21 12:44:32,15,22.729,1825.9189819858,5.577428,0.8052984,1.58549545756,246.6,0,0,1024,1024,1024,1024,247,0,75,3.768,3.792,3.788,3.794,3.808,3.791,6,GPS_Atti,
49.6133240678222,14.9328745523397,1825.5908979858,5.249344,0,0.49113846716,26100,2016-08-21 12:44:32,16,22.729,1825.9189819858,5.577428,0.8052984,1.58549545756,246.5,0,0,1024,1024,1024,1024,247,0,75,3.768,3.792,3.788,3.794,3.808,3.791,6,GPS_Atti,
49.6133240805321,14.9328745219966,1825.5908979858,5.249344,0,0.48316274512,26200,2016-08-21 12:44:33,16,22.729,1825.9189819858,5.577428,0.8052984,1.58549545756,246.3,0,0,1024,1024,1024,1024,247,0,75,3.768,3.792,3.788,3.794,3.808,3.791,6,GPS_Atti,
49.6133240853893,14.9328745010777,1825.5908979858,5.249344,0,0.47883531716,26300,2016-08-21 12:44:33,17,22.729,1825.9189819858,5.577428,0.8052984,1.58549545756,246.3,0,0,1024,1024,1024,1024,247,0,75,3.768,3.792,3.788,3.794,3.808,3.791,6,GPS_Atti,
49.6133240577332,14.9328744885644,1825.5908979858,5.249344,0,0.48538715464,26400,2016-08-21 12:44:33,17,22.729,1825.9189819858,5.577428,0.8052984,1.58549545756,246.3,0,0,1024,1024,1024,1024,247,0,75,3.768,3.792,3.788,3.794,3.808,3.791,6,GPS_Atti,
49.6133239455582,14.9328743742255,1825.5908979858,5.249344,0,0.50576773272,26500,2016-08-21 12:44:33,18,22.729,1825.9189819858,5.577428,0.8052984,1.58549545756,246.3,0,0,1024,1024,1024,1024,247,0,75,3.768,3.792,3.788,3.794,3.808,3.791,6,GPS_Atti,
49.6133239334858,14.9328741817856,1825.5908979858,5.249344,0,0.48902232536,26700,2016-08-21 12:44:33,17,22.729,1825.9189819858,5.577428,0.8052984,1.58549545756,246.5,0,0,1024,1024,1024,1024,247,0,75,3.768,3.792,3.788,3.794,3.808,3.791,6,GPS_Atti,
49.6133239485272,14.932874190467,1825.5908979858,5.249344,0,0.48490159032,26800,2016-08-21 12:44:33,17,22.729,1825.9189819858,5.577428,0.8052984,1.58549545756,246.6,0,0,1024,1024,1024,1024,247,0,75,3.768,3.792,3.788,3.794,3.808,3.791,6,GPS_Atti,
49.6133239658105,14.9328740974059,1825.5908979858,5.249344,0,0.4701935846,26900,2016-08-21 12:44:33,17,22.701,1825.9189819858,5.577428,0.8052984,1.58549545756,246.7,0,0,1024,1024,1024,1024,247,0,75,3.772,3.8,3.78,3.789,3.801,3.784,6,GPS_Atti,
49.6133239872472,14.9328741003727,1825.5908979858,5.249344,0,0.46327757388,27000,2016-08-21 12:44:33,17,22.701,1825.9189819858,5.577428,0.8052984,1.58549545756,246.8,0,0,1024,1024,1024,1024,247,0,75,3.772,3.8,3.78,3.789,3.801,3.784,6,GPS_Atti,
49.6133240266248,14.9328739607856,1825.5908979858,5.249344,0,0.4376804602,27100,2016-08-21 12:44:33,18,22.701,1825.9189819858,5.577428,0.8052984,1.58549545756,246.8,0,0,1024,1024,1024,1024,247,0,75,3.772,3.8,3.78,3.789,3.801,3.784,6,GPS_Atti,
49.6133240500766,14.9328740002356,1825.5908979858,5.249344,0,0.43302494824,27200,2016-08-21 12:44:34,18,22.701,1825.9189819858,5.577428,0.8052984,1.58549545756,246.8,0,0,1024,1024,1024,1024,247,0,75,3.772,3.8,3.78,3.789,3.801,3.784,6,GPS_Atti,
49.6133240668748,14.9328739289351,1825.5908979858,5.249344,0,0.42130578776,27300,2016-08-21 12:44:34,19,22.701,1825.9189819858,5.577428,0.8052984,1.58549545756,246.7,0,0,1024,1024,1024,1024,247,0,75,3.772,3.8,3.78,3.789,3.801,3.784,6,GPS_Atti,
49.6133240915198,14.932873944597,1825.5908979858,5.249344,0,0.41416339908,27400,2016-08-21 12:44:34,19,22.701,1825.9189819858,5.577428,0.8052984,1.58549545756,246.7,0,0,1024,1024,1024,1024,247,0,75,3.772,3.8,3.78,3.789,3.801,3.784,6,GPS_Atti,
49.6133241916828,14.9328738343808,1825.5908979858,5.249344,0,0.37091864704,27500,2016-08-21 12:44:34,19,22.701,1825.9189819858,5.577428,0.8052984,1.58549545756,246.6,0,0,1024,1024,1024,1024,247,0,75,3.772,3.8,3.78,3.789,3.801,3.784,6,GPS_Atti,
49.6133241959523,14.9328738103327,1825.5908979858,5.249344,0,0.36762468368,27600,2016-08-21 12:44:34,19,22.701,1825.9189819858,5.577428,0.8052984,1.58549545756,246.6,0,0,1024,1024,1024,1024,247,0,75,3.772,3.8,3.78,3.789,3.801,3.784,6,GPS_Atti,
49.6133242080931,14.9328735227549,1825.5908979858,5.249344,0,0.34786090352,27700,2016-08-21 12:44:34,19,22.701,1825.9189819858,5.577428,0.8052984,1.58549545756,246.6,0,0,1024,1024,1024,1024,247,0,75,3.772,3.8,3.78,3.789,3.801,3.784,6,GPS_Atti,
49.6133242085564,14.9328735141603,1825.5908979858,5.249344,0,0.3474245518,27800,2016-08-21 12:44:34,19,22.701,1825.9189819858,5.577428,0.8052984,1.58549545756,246.6,0,0,1024,1024,1024,1024,247,0,75,3.772,3.8,3.78,3.789,3.801,3.784,6,GPS_Atti,
49.6133242086718,14.9328734233641,1825.5908979858,5.249344,0,0.34523623152,27900,2016-08-21 12:44:34,19,22.701,1825.9189819858,5.577428,0.8052984,1.58549545756,246.5,0,0,1024,1024,1024,1024,247,0,75,3.766,3.79,3.777,3.778,3.807,3.787,6,GPS_Atti,
49.6133241844506,14.9328733932414,1825.5908979858,5.249344,0,0.3536417436,28000,2016-08-21 12:44:34,19,22.701,1825.9189819858,5.577428,0.8052984,1.58549545756,246.5,0,0,1024,1024,1024,1024,247,0,75,3.766,3.79,3.777,3.778,3.807,3.787,6,GPS_Atti,
49.6133241966149,14.9328732093841,1825.5908979858,5.249344,0,0.34982612668,28100,2016-08-21 12:44:35,19,22.701,1825.9189819858,5.577428,0.8052984,1.58549545756,246.4,0,0,1024,1024,1024,1024,247,0,75,3.766,3.79,3.777,3.778,3.807,3.787,6,GPS_Atti,
49.6133242081404,14.9328732117323,1825.5908979858,5.249344,0,0.34559056224,28200,2016-08-21 12:44:35,19,22.701,1825.9189819858,5.577428,0.8052984,1.58549545756,246.2,0,0,1024,1024,1024,1024,247,0,75,3.766,3.79,3.777,3.778,3.807,3.787,6,GPS_Atti,
49.6133241957392,14.9328730037553,1825.5908979858,5.249344,0,0.3571522424,28300,2016-08-21 12:44:35,18,22.701,1825.9189819858,5.577428,0.8052984,1.58549545756,246.1,0,0,1024,1024,1024,1024,247,0,75,3.766,3.79,3.777,3.778,3.807,3.787,6,GPS_Atti,
49.6133242109343,14.9328729924273,1825.5908979858,5.249344,0,0.35231628424,28400,2016-08-21 12:44:35,18,22.701,1825.9189819858,5.577428,0.8052984,1.58549545756,246.1,0,0,1024,1024,1024,1024,247,0,75,3.766,3.79,3.777,3.778,3.807,3.787,6,GPS_Atti,
49.6133242135432,14.9328729078483,1825.5908979858,5.249344,0,0.35636155996,28500,2016-08-21 12:44:35,18,22.701,1825.9189819858,5.577428,0.8052984,1.58549545756,246.1,0,0,1024,1024,1024,1024,247,0,75,3.766,3.79,3.777,3.778,3.807,3.787,6,GPS_Atti,
49.6133242090958,14.9328729245568,1825.5908979858,5.249344,0,0.35686024764,28600,2016-08-21 12:44:35,18,22.701,1825.9189819858,5.577428,0.8052984,1.58549545756,246.2,0,0,1024,1024,1024,1024,247,0,75,3.766,3.79,3.777,3.778,3.807,3.787,6,GPS_Atti,
49.6133242626387,14.9328727191166,1825.5908979858,5.249344,0,0.3546423998,28800,2016-08-21 12:44:35,18,22.701,1825.9189819858,5.577428,0.8052984,1.58549545756,246.4,0,0,1024,1024,1024,1024,247,0,75,3.766,3.79,3.777,3.778,3.807,3.787,6,GPS_Atti,
49.6133243434561,14.9328725816494,1825.5908979858,5.249344,0,0.3432414808,28900,2016-08-21 12:44:35,17,22.701,1825.9189819858,5.577428,0.8052984,1.58549545756,246.4,0,0,1024,1024,1024,1024,247,0,75,3.766,3.79,3.777,3.778,3.807,3.787,6,GPS_Atti,
49.6133243943679,14.9328725693032,1825.5908979858,5.249344,0,0.3289698268,29100,2016-08-21 12:44:36,18,22.698,1825.9189819858,5.577428,0.8052984,1.58549545756,246.3,0,0,1024,1024,1024,1024,247,0,75,3.758,3.793,3.779,3.789,3.797,3.792,6,GPS_Atti,
49.6133245140143,14.9328725720341,1825.5908979858,5.249344,0,0.292821859764,29300,2016-08-21 12:44:36,18,22.698,1825.9189819858,5.577428,0.8052984,1.58549545756,246.3,0,0,1024,1024,1024,1024,247,0,75,3.758,3.793,3.779,3.789,3.797,3.792,6,GPS_Atti,
49.6133245221424,14.9328726222215,1825.2628139858,4.92126,0,0.28337927416,29500,2016-08-21 12:44:36,19,22.698,1825.9189819858,5.577428,0.8052984,1.58549545756,246.5,0,0,1024,1024,1024,1024,247,0,75,3.758,3.793,3.779,3.789,3.797,3.792,6,GPS_Atti,
49.6133245057682,14.9328726393748,1825.5908979858,5.249344,0,0.285941282116,29600,2016-08-21 12:44:36,19,22.698,1825.9189819858,5.577428,0.8052984,1.58549545756,246.5,0,0,1024,1024,1024,1024,247,0,75,3.758,3.793,3.779,3.789,3.797,3.792,6,GPS_Atti,
49.6133245911533,14.932872641448,1825.5908979858,5.249344,0,0.260519037208,29700,2016-08-21 12:44:36,19,22.698,1825.9189819858,5.577428,0.8052984,1.58549545756,246.5,0,0,1024,1024,1024,1024,247,0,75,3.758,3.793,3.779,3.789,3.797,3.792,6,GPS_Atti,
49.6133246140632,14.9328726792411,1825.5908979858,5.249344,0,0.248433734984,29800,2016-08-21 12:44:36,19,22.698,1825.9189819858,5.577428,0.8052984,1.58549545756,246.5,0,0,1024,1024,1024,1024,247,0,75,3.758,3.793,3.779,3.789,3.797,3.792,6,GPS_Atti,
