latitude,longitude,altitude(feet),ascent(feet),speed(mph),distance(feet),time(millisecond),datetime(utc),satellites,voltage(v),max_altitude(feet),max_ascent(feet),max_speed(mph),max_distance(feet),compass_heading(degrees),isPhoto,isVideo,rc_elevator,rc_aileron,rc_throttle,rc_rudder,gimbal_heading(degrees),gimbal_pitch(degrees),battery_percent,voltageCell1,voltageCell2,voltageCell3,voltageCell4,voltageCell5,voltageCell6,flycStateRaw,flycState,message
49.6133681870384,14.932876110993,1820.5516127196,0,0,0,0,2016-08-21 14:17:11,12,0,1820.5516127196,0,0,0,249.2,0,0,364,1684,364,364,243.2,0,99,4.298,4.302,4.252,4.283,4.302,4.299,6,GPS_Atti,
49.6133681846718,14.9328761073564,1820.5516127196,0,0,0.00121844492088,100,2016-08-21 14:17:11,12,0,1820.5516127196,0,0,0.00121844492088,249.3,0,0,364,1684,364,364,243.1,0,99,4.298,4.302,4.252,4.283,4.302,4.299,6,GPS_Atti,
49.613368194996,14.9328761053241,1820.5516127196,0,0,0.0031977035144,200,2016-08-21 14:17:11,12,0,1820.5516127196,0,0,0.0031977035144,249.4,0,0,364,1684,364,364,243.2,0,99,4.298,4.302,4.252,4.283,4.302,4.299,6,GPS_Atti,
49.613368194996,14.9328761053241,1820.5516127196,0,0,0.0031977035144,200,2016-08-21 14:17:11,12,0,1820.5516127196,0,0,0.0031977035144,249.4,0,0,364,1684,364,364,243.2,0,99,4.298,4.302,4.252,4.283,4.302,4.299,6,GPS_Atti,
49.6133681900536,14.9328761093394,1820.5516127196,0,0,0.00116747379064,300,2016-08-21 14:17:11,12,0,1820.5516127196,0,0,0.0031977035144,249.4,0,0,364,1684,364,364,243.3,0,99,4.298,4.302,4.252,4.283,4.302,4.299,6,GPS_Atti,
49.6133681656407,14.9328760194152,1820.5516127196,0,0,0.0230137474556,500,2016-08-21 14:17:11,12,0,1820.5516127196,0,0,0.0230137474556,249.5,0,0,364,1684,364,364,243.4,0,99,4.298,4.302,4.252,4.283,4.302,4.299,6,GPS_Atti,
49.6133681536127,14.9328759281225,1820.5516127196,0,0,0.04491798044,600,2016-08-21 14:17:11,12,0,1820.5516127196,0,0,0.04491798044,249.5,0,0,364,1684,364,364,243.4,0,99,4.298,4.302,4.252,4.283,4.302,4.299,6,GPS_Atti,
49.6133681416586,14.9328759410724,1820.5516127196,0,0,0.043447836036,700,2016-08-21 14:17:11,12,0,1820.5516127196,0,0,0.04491798044,249.5,0,0,364,1684,364,364,243.4,0,99,4.298,4.302,4.252,4.283,4.302,4.299,6,GPS_Atti,
49.6133682380468,14.9328758420042,1820.5516127196,0,0,0.0662565638,800,2016-08-21 14:17:12,12,0,1820.5516127196,0,0,0.0662565638,249.5,0,0,364,1684,364,364,243.4,0,99,4.298,4.302,4.252,4.283,4.302,4.299,6,GPS_Atti,
49.6133682311309,14.9328758433676,1820.5516127196,0,0,0.065280185816,900,2016-08-21 14:17:12,12,25.737,1820.5516127196,0,0,0.0662565638,249.5,0,0,364,1684,364,364,243.4,0,99,4.298,4.302,4.252,4.283,4.302,4.299,6,GPS_Atti,
49.6133682260761,14.9328757374634,1820.5516127196,0,0,0.089444228584,1000,2016-08-21 14:17:12,12,25.737,1820.5516127196,0,0,0.089444228584,249.5,0,0,364,1684,364,364,243.4,0,99,4.298,4.302,4.252,4.283,4.302,4.299,6,GPS_Atti,
49.6133682550968,14.9328757275857,1820.5516127196,0,0,0.093977693296,1100,2016-08-21 14:17:12,12,25.737,1820.5516127196,0,0,0.093977693296,249.6,0,0,364,1684,364,364,243.4,0,99,4.298,4.302,4.252,4.283,4.302,4.299,6,GPS_Atti,
49.6133682550968,14.9328757275857,1820.5516127196,0,0,0.093977693296,1100,2016-08-21 14:17:12,12,25.737,1820.5516127196,0,0,0.093977693296,249.6,0,0,364,1684,364,364,243.5,0,99,4.298,4.302,4.252,4.283,4.302,4.299,6,GPS_Atti,
49.6133682443628,14.9328756086491,1820.5516127196,0,0,0.12058235294,1300,2016-08-21 14:17:12,12,25.737,1820.5516127196,0,0,0.12058235294,249.6,0,0,364,1684,364,364,243.5,0,99,4.298,4.302,4.252,4.283,4.302,4.299,6,GPS_Atti,
49.6133683592529,14.9328754870985,1820.5516127196,0,0,0.160315621928,1400,2016-08-21 14:17:12,12,25.737,1820.5516127196,0,0,0.160315621928,249.5,0,0,563,1476,420,484,243.7,0,99,4.298,4.302,4.252,4.283,4.302,4.299,6,GPS_Atti,
49.6133683563104,14.9328754783533,1820.5516127196,0,0,0.161806763708,1500,2016-08-21 14:17:12,12,25.737,1820.5516127196,0,0,0.161806763708,249.4,0,0,996,1024,823,910,244.3,0,99,4.298,4.302,4.252,4.283,4.302,4.299,6,GPS_Atti,
49.6133683582943,14.9328754753108,1820.5516127196,0,0,0.162748364788,1600,2016-08-21 14:17:12,12,25.737,1820.5516127196,0,0,0.162748364788,249.4,0,0,1024,1024,1024,1024,245.5,0,99,4.298,4.302,4.252,4.283,4.302,4.299,6,GPS_Atti,
49.6133683920917,14.9328754921543,1820.5516127196,0,0,0.164313981636,1700,2016-08-21 14:17:13,12,25.737,1820.5516127196,0,0,0.164313981636,249.4,0,0,1024,1024,1024,1024,246.6,0,99,4.298,4.302,4.252,4.283,4.302,4.299,6,GPS_Atti,
49.6133683906095,14.9328753963949,1820.5516127196,0,0,0.184538391732,1800,2016-08-21 14:17:13,12,25.737,1820.5516127196,0,0,0.184538391732,249.4,0,0,1024,1024,1024,1024,247.6,0,99,4.298,4.302,4.252,4.283,4.302,4.299,6,GPS_Atti,
49.6133683742033,14.9328753291472,1820.5516127196,0,0,0.19704068872,2000,2016-08-21 14:17:13,12,25.737,1820.5516127196,0,0,0.19704068872,249.5,0,0,1024,1024,1024,1024,247.9,0,99,4.298,4.301,4.252,4.283,4.303,4.299,6,GPS_Atti,
49.6133683624014,14.9328753315089,1820.5516127196,0,0,0.195062670284,2100,2016-08-21 14:17:13,12,25.737,1820.5516127196,0,0,0.19704068872,249.6,0,0,1024,1024,1024,1024,248.1,0,99,4.298,4.301,4.252,4.283,4.303,4.299,10,AssitedTakeoff,
49.613368355952,14.9328752352577,1820.5516127196,0,0,0.216003287752,2200,2016-08-21 14:17:13,12,25.737,1820.5516127196,0,0,0.216003287752,249.6,0,0,1024,1024,1024,1024,248.3,0,99,4.298,4.301,4.252,4.283,4.303,4.299,10,AssitedTakeoff,Return-to-Home Altitude:20M
49.6133683715222,14.932875241578,1820.5516127196,0,0,0.216271660464,2300,2016-08-21 14:17:13,12,25.737,1820.5516127196,0,0,0.216271660464,249.7,0,0,1024,1024,1024,1024,248.4,0,99,4.298,4.301,4.252,4.283,4.303,4.299,10,AssitedTakeoff,
49.6133684731247,14.9328751399182,1820.5516127196,0,0,0.252178813844,2400,2016-08-21 14:17:13,12,25.737,1820.5516127196,0,0,0.252178813844,249.7,0,0,1024,1024,1024,1024,248.5,0,99,4.298,4.301,4.252,4.283,4.303,4.299,10,AssitedTakeoff,
49.6133684703519,14.9328751418733,1820.5516127196,0,0,0.251340559224,2500,2016-08-21 14:17:13,12,25.737,1820.5516127196,0,0,0.252178813844,249.8,0,0,1024,1024,1024,1024,248.7,0,99,4.298,4.301,4.252,4.283,4.303,4.299,10,AssitedTakeoff,
49.6133685020258,14.9328750194705,1820.5516127196,0,0,0.2824721219,2600,2016-08-21 14:17:13,12,25.737,1820.5516127196,0,0,0.2824721219,249.9,0,0,1024,1024,1024,1024,248.7,0,99,4.298,4.301,4.252,4.283,4.303,4.299,10,AssitedTakeoff,
49.613368498414,14.9328750283229,1820.5516127196,0,0,0.28002461526,2700,2016-08-21 14:17:14,12,25.737,1820.5516127196,0,0,0.2824721219,249.9,0,0,1024,1024,1024,1024,248.8,0,99,4.298,4.301,4.252,4.283,4.303,4.299,10,AssitedTakeoff,
49.6133685989121,14.9328749368827,1820.5516127196,0,0,0.315629275192,2800,2016-08-21 14:17:14,12,25.737,1820.5516127196,0,0,0.315629275192,249.9,0,0,1024,1024,1024,1024,248.9,0,99,4.298,4.301,4.252,4.283,4.303,4.299,10,AssitedTakeoff,
49.6133686000967,14.9328749346365,1820.5516127196,0,0,0.316302175476,2900,2016-08-21 14:17:14,12,25.737,1820.5516127196,0,0,0.316302175476,249.9,0,0,1024,1024,1024,1024,248.9,0,99,4.298,4.301,4.252,4.283,4.303,4.299,10,AssitedTakeoff,
49.613368596836,14.9328749304538,1820.5516127196,0,0,0.316608277848,3000,2016-08-21 14:17:14,12,25.709,1820.5516127196,0,0,0.316608277848,249.8,0,0,1024,1024,1024,1024,248.9,0,99,4.294,4.297,4.246,4.278,4.297,4.292,10,AssitedTakeoff,
49.6133685905313,14.9328749219814,1820.5516127196,0,0,0.31730151934,3100,2016-08-21 14:17:14,12,25.709,1820.5516127196,0,0,0.31730151934,249.9,0,0,1024,1024,1024,1024,249,0,99,4.294,4.297,4.246,4.278,4.297,4.292,10,AssitedTakeoff,
49.6133686866396,14.9328748149958,1820.5516127196,0,0,0.35649935524,3200,2016-08-21 14:17:14,12,25.709,1820.5516127196,0,0,0.35649935524,249.9,0,0,1024,1024,1024,1024,249,0,99,4.294,4.297,4.246,4.278,4.297,4.292,10,AssitedTakeoff,
49.6133686882863,14.9328748057633,1820.5516127196,0,0,0.35868111384,3300,2016-08-21 14:17:14,12,25.709,1820.5516127196,0,0,0.35868111384,250,0,0,1024,1024,1024,1024,249.1,0,99,4.294,4.297,4.246,4.278,4.297,4.292,10,AssitedTakeoff,
49.6133686756283,14.9328746180539,1820.5516127196,0,0,0.39539699428,3500,2016-08-21 14:17:14,12,25.709,1820.5516127196,0,0,0.39539699428,250.1,0,0,1024,1024,1024,1024,249.1,0,99,4.294,4.297,4.246,4.278,4.297,4.292,10,AssitedTakeoff,
49.6133686693951,14.9328745152672,1820.5516127196,0,0,0.41626313668,3600,2016-08-21 14:17:14,12,25.709,1820.5516127196,0,0,0.41626313668,250.1,0,0,1024,1024,1024,1024,249.1,0,99,4.294,4.297,4.246,4.278,4.297,4.292,10,AssitedTakeoff,
49.6133686678783,14.9328745144931,1820.5516127196,0,0,0.41619423904,3700,2016-08-21 14:17:15,12,25.709,1820.5516127196,0,0,0.41626313668,250.2,0,0,1024,1024,1024,1024,249.2,0,99,4.294,4.297,4.246,4.278,4.297,4.292,10,AssitedTakeoff,
49.6133687692307,14.9328744180577,1820.5516127196,0,0,0.45308728484,3800,2016-08-21 14:17:15,12,25.709,1820.5516127196,0,0,0.45308728484,250.3,0,0,1024,1024,1024,1024,249.2,0,99,4.294,4.297,4.246,4.278,4.297,4.292,10,AssitedTakeoff,
49.6133687824341,14.9328744298248,1820.5516127196,0,0,0.45292324284,3900,2016-08-21 14:17:15,12,25.709,1820.5516127196,0,0,0.45308728484,250.3,0,0,1024,1024,1024,1024,249.2,0,99,4.294,4.297,4.246,4.278,4.297,4.292,10,AssitedTakeoff,
49.6133688856144,14.9328743207268,1820.5516127196,0,0,0.49404201056,4000,2016-08-21 14:17:15,12,25.709,1820.5516127196,0,0,0.49404201056,250.3,0,0,1024,1024,1024,1024,249.3,0,99,4.294,4.297,4.246,4.278,4.297,4.292,10,AssitedTakeoff,
49.6133688946656,14.9328743179941,1820.5516127196,0,0,0.49630579016,4100,2016-08-21 14:17:15,12,25.39,1820.5516127196,0,0,0.49630579016,250.4,0,0,1024,1024,1024,1024,249.3,0,99,4.238,4.264,4.205,4.211,4.261,4.24,10,AssitedTakeoff,
49.6133689359296,14.9328742382773,1820.5516127196,0,0,0.52023951796,4300,2016-08-21 14:17:15,12,25.39,1820.5516127196,0,0,0.52023951796,250.4,0,0,1024,1024,1024,1024,249.3,0,99,4.238,4.264,4.205,4.211,4.261,4.24,10,AssitedTakeoff,
49.6133690404346,14.9328740434038,1820.5516127196,0,0,0.5795275776,4400,2016-08-21 14:17:15,12,25.39,1820.5516127196,0,0,0.5795275776,250.4,0,0,1024,1024,1024,1024,249.3,0,99,4.238,4.264,4.205,4.211,4.261,4.24,10,AssitedTakeoff,
49.6133690264453,14.9328740690662,1820.5516127196,0,0,0.5716699658,4500,2016-08-21 14:17:15,12,25.39,1820.5516127196,0,0,0.5795275776,250.4,0,0,1024,1024,1054,1024,249.3,0,99,4.238,4.264,4.205,4.211,4.261,4.24,10,AssitedTakeoff,
49.613369035751,14.9328739722613,1820.5516127196,0,0,0.59288715808,4600,2016-08-21 14:17:15,12,25.39,1820.5516127196,0,0,0.59288715808,250.3,0,0,1024,1024,1044,1024,249.4,0,99,4.238,4.264,4.205,4.211,4.261,4.24,10,AssitedTakeoff,
49.6133690380865,14.9328739805649,1820.5516127196,0,0,0.59166012392,4700,2016-08-21 14:17:16,12,25.39,1820.5516127196,0,0,0.59288715808,250.3,0,0,1024,1024,1024,1024,249.4,0,99,4.238,4.264,4.205,4.211,4.261,4.24,10,AssitedTakeoff,
49.6133691412343,14.9328738460775,1820.5516127196,0,0,0.63865815692,4900,2016-08-21 14:17:16,12,25.39,1820.5516127196,0,0,0.63865815692,250.3,0,0,1024,1024,1024,1024,249.4,0,99,4.238,4.264,4.205,4.211,4.261,4.24,10,AssitedTakeoff,
49.6133691425022,14.9328736297377,1820.5516127196,0,0,0.68233926068,5000,2016-08-21 14:17:16,12,25.39,1820.5516127196,0,0,0.68233926068,250.2,0,0,1024,1024,1024,1024,249.4,0,99,4.238,4.264,4.205,4.211,4.261,4.24,10,AssitedTakeoff,
49.6133690982442,14.9328736015603,1820.5516127196,0,0,0.680036111,5100,2016-08-21 14:17:16,12,25.39,1820.5516127196,0,0,0.68233926068,250,0,0,1024,1024,1024,1024,249.4,0,99,4.238,4.264,4.205,4.211,4.261,4.24,10,AssitedTakeoff,
49.6133690942604,14.9328734944768,1820.5516127196,0,0,0.7015420172,5200,2016-08-21 14:17:16,12,25.39,1820.5516127196,0,0,0.7015420172,250,0,0,1024,1024,1024,1024,249.4,0,99,4.238,4.264,4.205,4.211,4.261,4.24,10,AssitedTakeoff,
49.6133690946072,14.9328734897719,1820.5516127196,0,0,0.70258204348,5300,2016-08-21 14:17:16,12,25.623,1820.5516127196,0,0,0.70258204348,250,0,0,1024,1024,1024,1024,249.4,0,99,4.28,4.282,4.234,4.263,4.283,4.28,10,AssitedTakeoff,
49.6133690801438,14.9328733879935,1820.5516127196,0,0,0.72149280524,5400,2016-08-21 14:17:16,12,25.623,1820.5516127196,0,0,0.72149280524,250.1,0,0,1024,1024,1024,1024,249.4,0,99,4.28,4.282,4.234,4.263,4.283,4.28,10,AssitedTakeoff,
49.6133690755496,14.932873387389,1820.5516127196,0,0,0.7208661648,5500,2016-08-21 14:17:16,12,25.623,1820.5516127196,0,0,0.72149280524,250.2,0,0,1024,1024,1024,1024,249.4,0,99,4.28,4.282,4.234,4.263,4.283,4.28,10,AssitedTakeoff,
49.6133691637689,14.9328732901452,1820.5516127196,0,0,0.75609910556,5600,2016-08-21 14:17:16,12,25.623,1820.5516127196,0,0,0.75609910556,250.2,0,0,1024,1024,1024,1024,249.4,0,99,4.28,4.282,4.234,4.263,4.283,4.28,10,AssitedTakeoff,
49.6133691681345,14.9328732481738,1820.5516127196,0,0,0.76560697988,5800,2016-08-21 14:17:17,12,25.623,1820.5516127196,0,0,0.76560697988,250.1,0,0,1024,1024,1024,1024,249.4,0,99,4.28,4.282,4.234,4.263,4.283,4.28,10,AssitedTakeoff,
49.6133691684417,14.9328732460938,1820.5516127196,0,0,0.7660925442,5900,2016-08-21 14:17:17,12,25.623,1820.5516127196,0,0,0.7660925442,250,0,0,1024,1024,1241,1024,249.4,0,99,4.28,4.282,4.234,4.263,4.283,4.28,10,AssitedTakeoff,
49.6133691691811,14.9328731436607,1820.5516127196,0,0,0.78770671812,6000,2016-08-21 14:17:17,12,25.623,1820.5516127196,0,0,0.78770671812,249.9,0,0,1024,1024,1492,1024,249.4,0,99,4.28,4.282,4.234,4.263,4.283,4.28,10,AssitedTakeoff,
49.6133691686332,14.9328731351661,1820.5516127196,0,0,0.7894029124,6100,2016-08-21 14:17:17,12,25.623,1820.5516127196,0,0,0.7894029124,250,0,0,1024,1024,1486,1024,249.4,0,99,4.28,4.282,4.234,4.263,4.283,4.28,10,AssitedTakeoff,
49.6133692680678,14.9328730298468,1820.5516127196,0,0,0.82831695564,6200,2016-08-21 14:17:17,12,25.623,1820.5516127196,0,0,0.82831695564,250,0,0,1024,1024,1427,1024,249.4,0,99,4.28,4.282,4.234,4.263,4.283,4.28,10,AssitedTakeoff,
49.6133692645419,14.9328730286657,1820.5516127196,0,0,0.82794950156,6300,2016-08-21 14:17:17,12,25.623,1820.5516127196,0,0,0.82831695564,250.1,0,0,1024,1024,1349,1024,249.4,0,99,4.28,4.282,4.234,4.263,4.283,4.28,10,AssitedTakeoff,
49.6133692456467,14.9328729697622,1820.5516127196,0,0,0.83702758584,6500,2016-08-21 14:17:17,12,25.621,1820.5516127196,0,0,0.83702758584,250.3,0,0,1024,1024,1267,1024,249.4,0,99,4.279,4.283,4.233,4.263,4.282,4.279,10,AssitedTakeoff,
49.6133692242886,14.9328727345284,1820.5516127196,0,0.223694,0.88336945084,6600,2016-08-21 14:17:17,12,25.621,1820.5516127196,0,0.223694,0.88336945084,250.3,0,0,1024,1024,1135,1024,249.4,0,99,4.279,4.283,4.233,4.263,4.282,4.279,6,GPS_Atti,
49.6133691987413,14.9328725382004,1820.5516127196,0,0.447388,0.92174871716,6700,2016-08-21 14:17:17,12,25.621,1820.5516127196,0,0.447388,0.92174871716,250.4,0,0,1024,1024,1052,1024,249.4,0,99,4.279,4.283,4.233,4.263,4.282,4.279,6,GPS_Atti,
49.6133692768279,14.9328719526527,1820.8796967196,0.328084,0.447388,1.06040357724,6800,2016-08-21 14:17:18,12,25.621,1820.8796967196,0.328084,0.447388,1.06040357724,250.3,0,0,1024,1024,1024,1024,249.4,0,99,4.279,4.283,4.233,4.263,4.282,4.279,6,GPS_Atti,
49.6133692422759,14.9328716149876,1820.8796967196,0.328084,0.671082,1.13044294956,6900,2016-08-21 14:17:18,12,25.621,1820.8796967196,0.328084,0.671082,1.13044294956,250.2,0,0,1024,1024,1024,1024,249.4,0,99,4.279,4.283,4.233,4.263,4.282,4.279,6,GPS_Atti,
49.6133692552163,14.9328708993011,1821.2077807196,0.656168,0.671082,1.29222116996,7000,2016-08-21 14:17:18,12,25.621,1821.2077807196,0.656168,0.671082,1.29222116996,250.1,0,0,1024,1024,1024,1024,249.4,0,99,4.279,4.283,4.233,4.263,4.282,4.279,6,GPS_Atti,
49.613369225996,14.9328704776583,1821.2077807196,0.656168,0.447388,1.38462602856,7100,2016-08-21 14:17:18,12,25.621,1821.2077807196,0.656168,0.671082,1.38462602856,250.2,0,0,1024,1024,1024,1024,249.4,0,99,4.279,4.283,4.233,4.263,4.282,4.279,6,GPS_Atti,
49.613369312388,14.9328696260432,1821.5358647196,0.984252,0.447388,1.58708010328,7300,2016-08-21 14:17:18,12,25.621,1821.5358647196,0.984252,0.671082,1.58708010328,250.3,0,0,1024,1024,1024,1024,249.4,0,99,4.279,4.283,4.233,4.263,4.282,4.279,6,GPS_Atti,
49.6133693225855,14.9328693022914,1821.5358647196,0.984252,0.223694,1.66205057812,7400,2016-08-21 14:17:18,11,25.621,1821.5358647196,0.984252,0.671082,1.66205057812,250.4,0,0,1024,1024,1024,1024,249.4,0,99,4.279,4.283,4.233,4.263,4.282,4.279,6,GPS_Atti,
49.6133692735661,14.9328691139931,1821.5358647196,0.984252,0.223694,1.70093837464,7500,2016-08-21 14:17:18,11,25.621,1821.5358647196,0.984252,0.671082,1.70093837464,250.4,0,0,1024,1024,1024,1024,249.4,0,99,4.279,4.283,4.233,4.263,4.282,4.279,6,GPS_Atti,
49.6133692937203,14.9328690472064,1821.5358647196,0.984252,0,1.718011866,7600,2016-08-21 14:17:18,11,25.62,1821.5358647196,0.984252,0.671082,1.718011866,250.4,0,0,1024,1024,1024,1024,249.4,0,99,4.091,4.093,4.232,4.244,4.284,4.28,6,GPS_Atti,
49.6133692617523,14.9328689874537,1821.5358647196,0.984252,0,1.72906173512,7700,2016-08-21 14:17:19,11,25.62,1821.5358647196,0.984252,0.671082,1.72906173512,250.3,0,0,1024,1024,1024,1024,249.4,0,99,4.091,4.093,4.232,4.244,4.284,4.28,6,GPS_Atti,
49.6133694124286,14.9328690060198,1821.5358647196,0.984252,0,1.73811029184,7800,2016-08-21 14:17:19,12,25.62,1821.5358647196,0.984252,0.671082,1.73811029184,250.3,0,0,1024,1024,1024,1024,249.4,0,99,4.091,4.093,4.232,4.244,4.284,4.28,6,GPS_Atti,
49.6133694117421,14.9328690318103,1821.5358647196,0.984252,0,1.7321522864,7900,2016-08-21 14:17:19,12,25.62,1821.5358647196,0.984252,0.671082,1.73811029184,250.2,0,0,1024,1024,1035,1024,249.5,0,99,4.091,4.093,4.232,4.244,4.284,4.28,6,GPS_Atti,
49.6133693962479,14.932868999902,1821.5358647196,0.984252,0,1.73799874328,8100,2016-08-21 14:17:19,12,25.62,1821.5358647196,0.984252,0.671082,1.73811029184,250.2,0,0,1024,1024,1297,1024,249.4,0,99,4.091,4.093,4.232,4.244,4.284,4.28,6,GPS_Atti,
49.613369416758,14.9328688985427,1821.5358647196,0.984252,0,1.7630742034,8200,2016-08-21 14:17:19,12,25.62,1821.5358647196,0.984252,0.671082,1.7630742034,250.3,0,0,1024,1024,1430,1024,249.4,0,99,4.091,4.093,4.232,4.244,4.284,4.28,6,GPS_Atti,
49.6133693942689,14.9328689419522,1821.8639487196,1.312336,0,1.75107289068,8300,2016-08-21 14:17:19,12,25.62,1821.8639487196,1.312336,0.671082,1.7630742034,250.3,0,0,1024,1024,1475,1024,249.4,0,99,4.091,4.093,4.232,4.244,4.284,4.28,6,GPS_Atti,
49.6133692837096,14.9328690111788,1821.8639487196,1.312336,0,1.72543968776,8400,2016-08-21 14:17:19,12,25.62,1821.8639487196,1.312336,0.671082,1.7630742034,250.3,0,0,1024,1024,1480,1024,249.4,0,99,4.091,4.093,4.232,4.244,4.284,4.28,6,GPS_Atti,
49.6133692915392,14.9328689827196,1822.1920327196,1.64042,0,1.73264769324,8500,2016-08-21 14:17:19,12,25.62,1822.1920327196,1.64042,0.671082,1.7630742034,250.3,0,0,1024,1024,1484,1024,249.4,0,99,4.091,4.093,4.232,4.244,4.284,4.28,6,GPS_Atti,
49.6133690864691,14.9328690700217,1822.8482007196,2.296588,0.223694,1.69653548736,8600,2016-08-21 14:17:19,12,25.62,1822.8482007196,2.296588,0.671082,1.7630742034,250.3,0,0,1024,1024,1466,1024,249.4,0,99,4.091,4.093,4.232,4.244,4.284,4.28,6,GPS_Atti,
49.6133690521326,14.9328691913733,1823.5043687196,2.952756,0.223694,1.66598102444,8700,2016-08-21 14:17:20,12,24.232,1823.5043687196,2.952756,0.671082,1.7630742034,250.3,0,0,1024,1024,1453,1024,249.4,0,99,4.091,4.093,4.232,4.244,4.284,4.28,6,GPS_Atti,
49.6133691241133,14.9328696857874,1824.8167047196,4.265092,0.223694,1.55692918368,8900,2016-08-21 14:17:20,12,24.232,1824.8167047196,4.265092,0.671082,1.7630742034,250.4,0,0,1024,1024,1432,1024,249.4,0,99,4.091,4.093,4.232,4.244,4.284,4.28,6,GPS_Atti,
49.6133687782925,14.9328696699346,1825.4728727196,4.92126,0.3131716,1.53788062664,9000,2016-08-21 14:17:20,11,24.232,1825.4728727196,4.92126,0.671082,1.7630742034,250.5,0,0,1024,1024,1428,1024,249.4,0,99,4.091,4.093,4.232,4.244,4.284,4.28,6,GPS_Atti,
49.6133685702122,14.9328701367285,1826.4571247196,5.905512,0.3131716,1.4192257672,9100,2016-08-21 14:17:20,11,24.232,1826.4571247196,5.905512,0.671082,1.7630742034,250.6,0,0,1024,1024,1429,1024,249.4,0,99,4.091,4.093,4.232,4.244,4.284,4.28,6,GPS_Atti,
49.6133686467478,14.9328701315589,1827.1132927196,6.56168,0.3131716,1.42346133164,9200,2016-08-21 14:17:20,11,24.232,1827.1132927196,6.56168,0.671082,1.7630742034,250.6,0,0,1024,1024,1432,1024,249.4,0,99,4.091,4.093,4.232,4.244,4.284,4.28,6,GPS_Atti,
49.613368549014,14.9328703924271,1827.7694607196,7.217848,0.3131716,1.35831369176,9300,2016-08-21 14:17:20,11,24.232,1827.7694607196,7.217848,0.671082,1.7630742034,250.4,0,0,1024,1024,1432,1024,249.4,0,99,4.091,4.093,4.232,4.244,4.284,4.28,6,GPS_Atti,Landing Gear Raising
49.6133686424515,14.9328705221971,1828.7537127196,8.2021,0.3131716,1.33160437332,9400,2016-08-21 14:17:20,12,24.232,1828.7537127196,8.2021,0.671082,1.7630742034,250.4,0,0,1024,1024,1433,1024,249.4,0,99,4.091,4.093,4.232,4.244,4.284,4.28,6,GPS_Atti,
49.6133682467593,14.9328708340517,1829.4098807196,8.858268,0.3131716,1.24766736276,9500,2016-08-21 14:17:20,12,24.232,1829.4098807196,8.858268,0.671082,1.7630742034,250.4,0,0,1024,1024,1430,1024,249.4,0,99,4.091,4.093,4.232,4.244,4.284,4.28,6,GPS_Atti,
49.6133683405159,14.9328710884796,1830.0660487196,9.514436,0.447388,1.188648332,9600,2016-08-21 14:17:20,11,24.232,1830.0660487196,9.514436,0.671082,1.7630742034,250.4,0,0,1024,1024,1405,1024,249.4,0,99,4.091,4.093,4.232,4.244,4.284,4.28,6,GPS_Atti,
49.6133682278976,14.9328714867332,1831.7064687196,11.154856,0.223694,1.09328415572,9800,2016-08-21 14:17:21,11,24.232,1831.7064687196,11.154856,0.671082,1.7630742034,250.3,0,0,1024,1024,1198,1024,249.4,0,99,4.091,4.093,4.232,4.244,4.284,4.28,6,GPS_Atti,
49.613368177441,14.9328716982733,1832.3626367196,11.811024,0.223694,1.04317916724,9900,2016-08-21 14:17:21,11,24.232,1832.3626367196,11.811024,0.671082,1.7630742034,250.4,0,0,1024,1024,1024,1024,249.4,0,99,4.042,4.049,4.003,4.011,4.058,4.104,6,GPS_Atti,
49.6133685249115,14.9328716803941,1832.6907207196,12.139108,0.223694,1.05462929884,10000,2016-08-21 14:17:21,11,24.232,1832.6907207196,12.139108,0.671082,1.7630742034,250.5,0,0,1024,1024,1024,1024,249.4,0,99,4.042,4.049,4.003,4.011,4.058,4.104,6,GPS_Atti,
49.6133685786475,14.9328717699816,1833.0188047196,12.467192,0.223694,1.03611879956,10100,2016-08-21 14:17:21,11,24.232,1833.0188047196,12.467192,0.671082,1.7630742034,250.4,0,0,1024,1024,1024,1024,249.4,0,99,4.042,4.049,4.003,4.011,4.058,4.104,6,GPS_Atti,
49.6133688215547,14.9328717191172,1833.3468887196,12.795276,0,1.06374347236,10200,2016-08-21 14:17:21,11,24.232,1833.3468887196,12.795276,0.671082,1.7630742034,250.3,0,0,1024,1024,1024,1024,249.4,0,99,4.042,4.049,4.003,4.011,4.058,4.104,6,GPS_Atti,
49.6133688989563,14.93287183582,1833.6749727196,13.12336,0,1.04350068956,10300,2016-08-21 14:17:21,11,24.232,1833.6749727196,13.12336,0.671082,1.7630742034,250.3,0,0,1024,1024,1024,1024,249.4,0,99,4.042,4.049,4.003,4.011,4.058,4.104,6,GPS_Atti,
49.6133697753029,14.932871900069,1834.0030567196,13.451444,0.223694,1.15184714972,10500,2016-08-21 14:17:21,10,24.232,1834.0030567196,13.451444,0.671082,1.7630742034,250.2,0,0,1024,1024,1024,1024,249.4,0,99,4.042,4.049,4.003,4.011,4.058,4.104,6,GPS_Atti,
49.6133700163689,14.9328716579115,1834.0030567196,13.451444,0.447388,1.24646329448,10600,2016-08-21 14:17:21,10,24.232,1834.0030567196,13.451444,0.671082,1.7630742034,250.2,0,0,1024,1024,1024,1024,249.4,0,99,4.042,4.049,4.003,4.011,4.058,4.104,6,GPS_Atti,
49.6133706507599,14.9328714556394,1834.0030567196,13.451444,0.447388,1.42097445492,10700,2016-08-21 14:17:22,10,24.232,1834.0030567196,13.451444,0.671082,1.7630742034,250.2,0,0,1024,1024,1024,1024,249.4,0,99,4.042,4.049,4.003,4.011,4.058,4.104,6,GPS_Atti,
49.6133704865426,14.9328714572466,1834.0030567196,13.451444,0.447388,1.38354991304,10800,2016-08-21 14:17:22,11,24.232,1834.0030567196,13.451444,0.671082,1.7630742034,250.2,0,0,1024,1024,1024,1024,249.4,0,99,4.042,4.049,4.003,4.011,4.058,4.104,6,GPS_Atti,
49.6133706392466,14.9328714128107,1834.0030567196,13.451444,0.223694,1.42619099052,10900,2016-08-21 14:17:22,11,24.232,1834.0030567196,13.451444,0.671082,1.7630742034,250.2,0,0,1024,1024,1024,1024,249.4,0,99,4.042,4.049,4.003,4.011,4.058,4.104,6,GPS_Atti,
49.613370603767,14.9328711909625,1834.3311407196,13.779528,0,1.4595472908,11000,2016-08-21 14:17:22,11,23.497,1834.3311407196,13.779528,0.671082,1.7630742034,250.3,0,0,1024,1024,1024,1024,249.4,0,99,3.923,3.943,3.852,3.9,3.962,3.949,6,GPS_Atti,
49.6133706443815,14.9328711554582,1834.3311407196,13.779528,0,1.47520345928,11100,2016-08-21 14:17:22,11,23.497,1834.3311407196,13.779528,0.671082,1.7630742034,250.4,0,0,1024,1024,1024,1024,249.4,0,99,3.923,3.943,3.852,3.9,3.962,3.949,6,GPS_Atti,
49.6133703412564,14.9328715738552,1834.3311407196,13.779528,0,1.32973101368,11300,2016-08-21 14:17:22,11,23.497,1834.3311407196,13.779528,0.671082,1.7630742034,250.4,0,0,1024,1024,1024,1024,249.4,0,99,3.923,3.943,3.852,3.9,3.962,3.949,6,GPS_Atti,
49.6133700162552,14.9328719458591,1834.3311407196,13.779528,0,1.18950791208,11400,2016-08-21 14:17:22,11,23.497,1834.3311407196,13.779528,0.671082,1.7630742034,250.5,0,0,1024,1024,1024,1024,249.4,0,99,3.923,3.943,3.852,3.9,3.962,3.949,6,GPS_Atti,
49.6133699231714,14.9328719848783,1834.3311407196,13.779528,0,1.16304465664,11500,2016-08-21 14:17:22,11,23.497,1834.3311407196,13.779528,0.671082,1.7630742034,250.5,0,0,1024,1024,1024,1024,249.4,0,99,3.923,3.943,3.852,3.9,3.962,3.949,6,GPS_Atti,
49.6133695841311,14.9328725364908,1834.3311407196,13.779528,0.223694,0.98685042528,11600,2016-08-21 14:17:22,11,23.497,1834.3311407196,13.779528,0.671082,1.7630742034,250.5,0,0,1024,1024,1024,1024,249.4,0,99,3.923,3.943,3.852,3.9,3.962,3.949,6,GPS_Atti,
49.6133695081102,14.9328726127098,1834.3311407196,13.779528,0,0.95720475504,11700,2016-08-21 14:17:23,11,23.497,1834.3311407196,13.779528,0.671082,1.7630742034,250.5,0,0,1024,1024,1024,1024,249.4,0,99,3.923,3.943,3.852,3.9,3.962,3.949,6,GPS_Atti,
49.6133689683981,14.9328732098623,1834.3311407196,13.779528,0.223694,0.74271984004,11900,2016-08-21 14:17:23,11,23.497,1834.3311407196,13.779528,0.671082,1.7630742034,250.3,0,0,1024,1024,1024,1024,249.4,0,99,3.923,3.943,3.852,3.9,3.962,3.949,6,GPS_Atti,
49.6133685969214,14.9328734165349,1834.3311407196,13.779528,0.223694,0.65429135952,12000,2016-08-21 14:17:23,11,23.497,1834.3311407196,13.779528,0.671082,1.7630742034,250.2,0,0,1024,1024,1024,1024,249.4,0,99,3.923,3.943,3.852,3.9,3.962,3.949,6,GPS_Atti,
49.6133684985708,14.9328734945345,1834.3311407196,13.779528,0.223694,0.62889109624,12100,2016-08-21 14:17:23,11,23.497,1834.3311407196,13.779528,0.671082,1.7630742034,250.1,0,0,1024,1024,1024,1024,249.4,0,99,3.923,3.943,3.852,3.9,3.962,3.949,6,GPS_Atti,
49.6133682771816,14.9328737760926,1834.3311407196,13.779528,0,0.5529527736,12200,2016-08-21 14:17:23,11,24.117,1834.3311407196,13.779528,0.671082,1.7630742034,250.1,0,0,1024,1024,1024,1024,249.4,0,99,4.031,4.03,3.973,3.99,4.036,4.029,6,GPS_Atti,
49.6133681990165,14.9328738245057,1834.3311407196,13.779528,0,0.54054791756,12300,2016-08-21 14:17:23,11,24.117,1834.3311407196,13.779528,0.671082,1.7630742034,250.1,0,0,1024,1024,1024,1024,249.4,0,99,4.031,4.03,3.973,3.99,4.036,4.029,6,GPS_Atti,
49.6133679551319,14.9328740651211,1834.3311407196,13.779528,0,0.49099082936,12500,2016-08-21 14:17:23,11,24.117,1834.3311407196,13.779528,0.671082,1.7630742034,250.2,0,0,1024,1024,1024,1024,249.4,0,99,4.031,4.03,3.973,3.99,4.036,4.029,6,GPS_Atti,
49.6133678839037,14.932874176901,1834.3311407196,13.779528,0,0.4704068392,12600,2016-08-21 14:17:23,11,24.117,1834.3311407196,13.779528,0.671082,1.7630742034,250.2,0,0,1024,1024,1024,1024,249.4,0,99,4.031,4.03,3.973,3.99,4.036,4.029,6,GPS_Atti,
49.6133679281713,14.9328741193746,1834.3311407196,13.779528,0,0.4802001466,12700,2016-08-21 14:17:23,11,24.117,1834.3311407196,13.779528,0.671082,1.7630742034,250.3,0,0,1024,1024,1024,1024,249.4,0,99,4.031,4.03,3.973,3.99,4.036,4.029,6,GPS_Atti,
49.6133679281713,14.9328741193746,1834.3311407196,13.779528,0,0.4802001466,12700,2016-08-21 14:17:24,11,24.117,1834.3311407196,13.779528,0.671082,1.7630742034,250.3,0,0,1024,1024,1024,1024,249.4,0,99,4.031,4.03,3.973,3.99,4.036,4.029,6,GPS_Atti,
49.6133679989428,14.9328742192636,1834.3311407196,13.779528,0,0.45244095936,12800,2016-08-21 14:17:24,11,24.117,1834.3311407196,13.779528,0.671082,1.7630742034,250.3,0,0,1024,1024,1024,1024,249.4,0,99,4.031,4.03,3.973,3.99,4.036,4.029,6,GPS_Atti,
49.6133680254859,14.9328742506257,1834.3311407196,13.779528,0,0.44372704832,12900,2016-08-21 14:17:24,11,24.117,1834.3311407196,13.779528,0.671082,1.7630742034,250.3,0,0,1024,1024,1024,1024,249.4,0,99,4.031,4.03,3.973,3.99,4.036,4.029,6,GPS_Atti,
49.6133681037156,14.9328742418969,1834.3311407196,13.779528,0,0.44290027664,13100,2016-08-21 14:17:24,11,24.117,1834.3311407196,13.779528,0.671082,1.7630742034,250.3,0,0,1024,1024,1024,1024,249.4,0,99,4.031,4.03,3.973,3.99,4.036,4.029,6,GPS_Atti,
49.6133680635476,14.9328743325952,1834.3311407196,13.779528,0,0.42282153584,13200,2016-08-21 14:17:24,11,24.117,1834.3311407196,13.779528,0.671082,1.7630742034,250.3,0,0,1024,1024,1024,1024,249.4,0,99,4.031,4.03,3.973,3.99,4.036,4.029,6,GPS_Atti,
49.6133680851834,14.9328743172294,1834.3311407196,13.779528,0,0.4256725858,13300,2016-08-21 14:17:24,11,23.978,1834.3311407196,13.779528,0.671082,1.7630742034,250.5,0,0,1024,1024,1024,1024,249.4,0,99,4.026,4.002,3.955,3.957,4.006,4.013,6,GPS_Atti,
49.6133681099052,14.9328742936912,1834.3311407196,13.779528,0,0.43053479068,13400,2016-08-21 14:17:24,11,23.978,1834.3311407196,13.779528,0.671082,1.7630742034,250.6,0,0,1024,1024,1024,1024,249.4,0,99,4.026,4.002,3.955,3.957,4.006,4.013,6,GPS_Atti,
49.6133680400305,14.9328743303635,1834.3311407196,13.779528,0,0.42434712644,13500,2016-08-21 14:17:24,11,23.978,1834.3311407196,13.779528,0.671082,1.7630742034,250.7,0,0,1024,1024,1024,1024,249.4,0,99,4.026,4.002,3.955,3.957,4.006,4.013,6,GPS_Atti,
49.6133681651225,14.9328744056015,1834.3311407196,13.779528,0,0.40323492104,13600,2016-08-21 14:17:24,11,23.978,1834.3311407196,13.779528,0.671082,1.7630742034,250.6,0,0,1024,1024,1024,1024,249.4,0,99,4.026,4.002,3.955,3.957,4.006,4.013,6,GPS_Atti,
49.6133680395596,14.932874297472,1834.3311407196,13.779528,0,0.43208334716,13800,2016-08-21 14:17:25,11,23.978,1834.3311407196,13.779528,0.671082,1.7630742034,250.4,0,0,1024,1024,1024,1024,249.4,0,99,4.026,4.002,3.955,3.957,4.006,4.013,6,GPS_Atti,
49.6133680581104,14.9328742806578,1834.3311407196,13.779528,0,0.43524279608,13900,2016-08-21 14:17:25,11,23.978,1834.3311407196,13.779528,0.671082,1.7630742034,250.4,0,0,1024,1024,1024,1024,249.4,0,99,4.026,4.002,3.955,3.957,4.006,4.013,6,GPS_Atti,
49.6133679840755,14.9328742540853,1834.3311407196,13.779528,0,0.4451771796,14000,2016-08-21 14:17:25,11,23.978,1834.3311407196,13.779528,0.671082,1.7630742034,250.4,0,0,1024,1024,1024,1024,249.4,0,99,4.026,4.002,3.955,3.957,4.006,4.013,6,GPS_Atti,
49.6133679787083,14.9328741971807,1834.3311407196,13.779528,0,0.45876969972,14100,2016-08-21 14:17:25,11,23.978,1834.3311407196,13.779528,0.671082,1.7630742034,250.4,0,0,1024,1024,1024,1024,249.4,0,99,4.026,4.002,3.955,3.957,4.006,4.013,6,GPS_Atti,
49.6133680089757,14.9328740750586,1834.3311407196,13.779528,0,0.4856627452,14200,2016-08-21 14:17:25,11,23.978,1834.3311407196,13.779528,0.671082,1.7630742034,250.4,0,0,1024,1024,1024,1024,249.4,0,99,4.026,4.002,3.955,3.957,4.006,4.013,6,GPS_Atti,
49.6133680390252,14.9328739883799,1834.3311407196,13.779528,0,0.50468505552,14400,2016-08-21 14:17:25,11,23.978,1834.3311407196,13.779528,0.671082,1.7630742034,250.4,0,0,1024,1024,1024,1024,249.4,0,99,4.026,4.002,3.955,3.957,4.006,4.013,6,GPS_Atti,
49.6133680567218,14.9328740037543,1834.3311407196,13.779528,0,0.50041668268,14500,2016-08-21 14:17:25,11,23.902,1834.3311407196,13.779528,0.671082,1.7630742034,250.5,0,0,1024,1024,1024,1024,249.4,0,99,4.001,3.981,3.954,3.947,4.018,3.996,6,GPS_Atti,
49.6133680784587,14.9328738142237,1834.3311407196,13.779528,0,0.54440290456,14600,2016-08-21 14:17:25,11,23.902,1834.3311407196,13.779528,0.671082,1.7630742034,250.6,0,0,1024,1024,1024,1024,249.4,0,99,4.001,3.981,3.954,3.947,4.018,3.996,6,GPS_Atti,
49.6133681031572,14.9328738492243,1834.3311407196,13.779528,0,0.53556104076,14700,2016-08-21 14:17:25,11,23.902,1834.3311407196,13.779528,0.671082,1.7630742034,250.4,0,0,1024,1024,1024,1024,249.4,0,99,4.001,3.981,3.954,3.947,4.018,3.996,6,GPS_Atti,
49.6133682346512,14.9328736287361,1834.3311407196,13.779528,0,0.58706694792,14800,2016-08-21 14:17:26,11,23.902,1834.3311407196,13.779528,0.671082,1.7630742034,250.4,0,0,1024,1024,1024,1024,249.4,0,99,4.001,3.981,3.954,3.947,4.018,3.996,6,GPS_Atti,
49.6133683192019,14.932873541065,1834.3311407196,13.779528,0,0.60944555756,14900,2016-08-21 14:17:26,11,23.902,1834.3311407196,13.779528,0.671082,1.7630742034,250.3,0,0,1024,1024,1024,1024,249.4,0,99,4.001,3.981,3.954,3.947,4.018,3.996,6,GPS_Atti,
49.6133683673375,14.9328734176284,1834.3311407196,13.779528,0,0.64010500736,15000,2016-08-21 14:17:26,11,23.902,1834.3311407196,13.779528,0.671082,1.7630742034,250.3,0,0,1024,1024,1024,1024,249.4,0,99,4.001,3.981,3.954,3.947,4.018,3.996,6,GPS_Atti,
49.6133684429564,14.9328733502171,1834.3311407196,13.779528,0,0.65929792136,15100,2016-08-21 14:17:26,11,23.902,1834.3311407196,13.779528,0.671082,1.7630742034,250.4,0,0,1024,1024,1024,1024,249.4,0,99,4.001,3.981,3.954,3.947,4.018,3.996,6,GPS_Atti,
49.6133684314357,14.9328732885769,1834.3311407196,13.779528,0,0.67315618952,15200,2016-08-21 14:17:26,11,23.902,1834.3311407196,13.779528,0.671082,1.7630742034,250.4,0,0,1024,1024,1024,1024,249.4,0,99,4.001,3.981,3.954,3.947,4.018,3.996,6,GPS_Atti,Landing Gear Raised
49.6133683959785,14.9328730981539,1834.0030567196,13.451444,0,0.7163057972,15400,2016-08-21 14:17:26,11,23.902,1834.3311407196,13.779528,0.671082,1.7630742034,250.3,0,0,1024,1024,1024,1024,249.4,0,99,4.001,3.981,3.954,3.947,4.018,3.996,6,GPS_Atti,
49.6133683652063,14.9328730979575,1834.0030567196,13.451444,0,0.71524608588,15500,2016-08-21 14:17:26,11,23.902,1834.3311407196,13.779528,0.671082,1.7630742034,250.3,0,0,1024,1024,1024,1024,249.4,0,99,4.001,3.981,3.954,3.947,4.018,3.996,6,GPS_Atti,
49.6133683033126,14.9328730244154,1834.0030567196,13.451444,0,0.73090225436,15600,2016-08-21 14:17:26,11,23.879,1834.3311407196,13.779528,0.671082,1.7630742034,250.3,0,0,1024,1024,1024,1024,249.4,0,99,3.996,3.985,3.945,3.944,3.99,3.991,6,GPS_Atti,
49.6133682969406,14.9328730090199,1834.0030567196,13.451444,0,0.73440619148,15700,2016-08-21 14:17:27,11,23.879,1834.3311407196,13.779528,0.671082,1.7630742034,250.4,0,0,1024,1024,1024,1024,249.4,0,99,3.996,3.985,3.945,3.944,3.99,3.991,6,GPS_Atti,
49.613368395757,14.9328730180481,1834.0030567196,13.451444,0,0.73513125712,15800,2016-08-21 14:17:27,11,23.879,1834.3311407196,13.779528,0.671082,1.7630742034,250.4,0,0,1024,1024,1024,1024,249.4,0,99,3.996,3.985,3.945,3.944,3.99,3.991,6,GPS_Atti,
49.6133684018089,14.9328730367007,1834.0030567196,13.451444,0,0.73097771368,15900,2016-08-21 14:17:27,11,23.879,1834.3311407196,13.779528,0.671082,1.7630742034,250.5,0,0,1024,1024,1024,1024,249.4,0,99,3.996,3.985,3.945,3.944,3.99,3.991,6,GPS_Atti,
49.6133684018089,14.9328730367007,1834.0030567196,13.451444,0,0.73097771368,15900,2016-08-21 14:17:27,11,23.879,1834.3311407196,13.779528,0.671082,1.7630742034,250.5,0,0,1024,1024,1024,1024,249.4,0,99,3.996,3.985,3.945,3.944,3.99,3.991,6,GPS_Atti,
49.6133685262811,14.932872994161,1834.3311407196,13.779528,0,0.7471456932,16100,2016-08-21 14:17:27,12,23.879,1834.3311407196,13.779528,0.671082,1.7630742034,250.5,0,0,1024,1024,1024,1024,249.4,0,99,3.996,3.985,3.945,3.944,3.99,3.991,6,GPS_Atti,
49.613368626822,14.9328730115251,1834.0030567196,13.451444,0,0.750082045,16200,2016-08-21 14:17:27,12,23.879,1834.3311407196,13.779528,0.671082,1.7630742034,250.6,0,0,1024,1024,1024,1024,249.4,0,99,3.996,3.985,3.945,3.944,3.99,3.991,6,GPS_Atti,
49.6133686425367,14.9328730780333,1834.3311407196,13.779528,0,0.73600396056,16300,2016-08-21 14:17:27,12,23.879,1834.3311407196,13.779528,0.671082,1.7630742034,250.6,0,0,1024,1024,1024,1024,249.4,0,99,3.996,3.985,3.945,3.944,3.99,3.991,6,GPS_Atti,
49.6133687315446,14.9328730872067,1834.3311407196,13.779528,0,0.74191931508,16400,2016-08-21 14:17:27,12,23.879,1834.3311407196,13.779528,0.671082,1.7630742034,250.6,0,0,1024,1024,1024,1024,249.4,0,99,3.996,3.985,3.945,3.944,3.99,3.991,6,GPS_Atti,
49.6133687192913,14.9328730930646,1834.0030567196,13.451444,0,0.73939962996,16500,2016-08-21 14:17:27,12,23.879,1834.3311407196,13.779528,0.671082,1.7630742034,250.4,0,0,1024,1024,1024,1024,249.4,0,99,3.996,3.985,3.945,3.944,3.99,3.991,6,GPS_Atti,
49.6133688109702,14.9328731177211,1834.0030567196,13.451444,0,0.74333007628,16600,2016-08-21 14:17:27,12,23.88,1834.3311407196,13.779528,0.671082,1.7630742034,250.4,0,0,1024,1024,1024,1024,249.4,0,99,3.98,4.001,3.941,3.949,3.998,4.007,6,GPS_Atti,
49.6133688109702,14.9328731177211,1834.0030567196,13.451444,0,0.74333007628,16600,2016-08-21 14:17:28,12,23.88,1834.3311407196,13.779528,0.671082,1.7630742034,250.4,0,0,1024,1024,1024,1024,249.4,0,99,3.98,4.001,3.941,3.949,3.998,4.007,6,GPS_Atti,
49.6133689410249,14.9328730554938,1834.0030567196,13.451444,0,0.7729330956,16900,2016-08-21 14:17:28,11,23.88,1834.3311407196,13.779528,0.671082,1.7630742034,250.4,0,0,1024,1024,1024,1024,249.4,0,99,3.98,4.001,3.941,3.949,3.998,4.007,6,GPS_Atti,
49.6133690405449,14.9328729309914,1834.0030567196,13.451444,0,0.81370081344,17000,2016-08-21 14:17:28,11,23.88,1834.3311407196,13.779528,0.671082,1.7630742034,250.4,0,0,1024,1024,1024,1024,249.4,0,99,3.98,4.001,3.941,3.949,3.998,4.007,6,GPS_Atti,
49.6133690315131,14.9328729020014,1834.0030567196,13.451444,0,0.81878939628,17100,2016-08-21 14:17:28,11,23.88,1834.3311407196,13.779528,0.671082,1.7630742034,250.5,0,0,1024,1024,1024,1024,249.4,0,99,3.98,4.001,3.941,3.949,3.998,4.007,6,GPS_Atti,
49.6133691640433,14.9328728197167,1834.0030567196,13.451444,0,0.85583007988,17200,2016-08-21 14:17:28,12,23.88,1834.3311407196,13.779528,0.671082,1.7630742034,250.5,0,0,1024,1024,1024,1024,249.4,0,99,3.98,4.001,3.941,3.949,3.998,4.007,6,GPS_Atti,
49.613369144917,14.9328727952225,1834.0030567196,13.451444,0,0.85823165476,17300,2016-08-21 14:17:28,12,23.88,1834.3311407196,13.779528,0.671082,1.7630742034,250.4,0,0,1024,1024,1024,1024,249.4,0,99,3.98,4.001,3.941,3.949,3.998,4.007,6,GPS_Atti,
49.6133692347592,14.9328726788292,1834.0030567196,13.451444,0,0.89690619668,17400,2016-08-21 14:17:28,12,23.88,1834.3311407196,13.779528,0.671082,1.7630742034,250.3,0,0,1024,1024,1024,1024,249.4,0,99,3.98,4.001,3.941,3.949,3.998,4.007,6,GPS_Atti,
49.6133692628544,14.9328726525406,1834.0030567196,13.451444,0,0.9069226012,17500,2016-08-21 14:17:28,12,23.88,1834.3311407196,13.779528,0.671082,1.7630742034,250.4,0,0,1024,1024,1024,1024,249.4,0,99,3.98,4.001,3.941,3.949,3.998,4.007,6,GPS_Atti,
49.6133693516847,14.932872566741,1834.0030567196,13.451444,0,0.93945541064,17600,2016-08-21 14:17:28,12,23.88,1834.3311407196,13.779528,0.671082,1.7630742034,250.4,0,0,1024,1024,1024,1024,249.4,0,99,3.98,4.001,3.941,3.949,3.998,4.007,6,GPS_Atti,
49.6133693329105,14.9328726006128,1834.0030567196,13.451444,0,0.92921918984,17700,2016-08-21 14:17:29,12,23.853,1834.3311407196,13.779528,0.671082,1.7630742034,250.5,0,0,1024,1024,1024,1024,249.4,0,98,3.981,3.995,3.932,3.941,3.996,4.003,6,GPS_Atti,
49.6133694165284,14.9328726680804,1834.0030567196,13.451444,0,0.92933730008,17800,2016-08-21 14:17:29,12,23.853,1834.3311407196,13.779528,0.671082,1.7630742034,250.5,0,0,1024,1024,1024,1024,249.4,0,98,3.981,3.995,3.932,3.941,3.996,4.003,6,GPS_Atti,
49.6133694076294,14.9328727088561,1833.6749727196,13.12336,0,0.91933073808,17900,2016-08-21 14:17:29,12,23.853,1834.3311407196,13.779528,0.671082,1.7630742034,250.5,0,0,1024,1024,1024,1024,249.4,0,98,3.981,3.995,3.932,3.941,3.996,4.003,6,GPS_Atti,
49.6133694948163,14.9328727406238,1833.6749727196,13.12336,0,0.92870409796,18000,2016-08-21 14:17:29,12,23.853,1834.3311407196,13.779528,0.671082,1.7630742034,250.5,0,0,1024,1024,1024,1024,249.4,0,98,3.981,3.995,3.932,3.941,3.996,4.003,6,GPS_Atti,
49.6133695139692,14.9328728149649,1833.6749727196,13.12336,0,0.9173392682,18100,2016-08-21 14:17:29,12,23.853,1834.3311407196,13.779528,0.671082,1.7630742034,250.5,0,0,1024,1024,1024,1024,249.4,0,98,3.981,3.995,3.932,3.941,3.996,4.003,6,GPS_Atti,
49.6133694637993,14.932872948385,1834.0030567196,13.451444,0,0.8808891358,18300,2016-08-21 14:17:29,12,23.853,1834.3311407196,13.779528,0.671082,1.7630742034,250.3,0,0,1024,1024,1024,1024,249.4,0,98,3.981,3.995,3.932,3.941,3.996,4.003,6,GPS_Atti,
49.6133695436458,14.9328730647628,1834.0030567196,13.451444,0,0.87382876812,18400,2016-08-21 14:17:29,12,23.853,1834.3311407196,13.779528,0.671082,1.7630742034,250.3,0,0,1024,1024,1024,1024,249.4,0,98,3.981,3.995,3.932,3.941,3.996,4.003,6,GPS_Atti,
49.6133695454214,14.9328730866464,1834.0030567196,13.451444,0,0.86993769188,18500,2016-08-21 14:17:29,12,23.853,1834.3311407196,13.779528,0.671082,1.7630742034,250.3,0,0,1024,1024,1024,1024,249.4,0,98,3.981,3.995,3.932,3.941,3.996,4.003,6,GPS_Atti,
49.6133696543826,14.9328731936993,1834.0030567196,13.451444,0,0.87305777072,18600,2016-08-21 14:17:29,12,23.853,1834.3311407196,13.779528,0.671082,1.7630742034,250.3,0,0,1024,1024,1024,1024,249.4,0,98,3.981,3.995,3.932,3.941,3.996,4.003,6,GPS_Atti,
49.6133696657679,14.9328731857803,1834.0030567196,13.451444,0,0.87708664224,18700,2016-08-21 14:17:30,12,23.853,1834.3311407196,13.779528,0.671082,1.7630742034,250.3,0,0,1024,1024,1024,1024,249.4,0,98,3.981,3.995,3.932,3.941,3.996,4.003,6,GPS_Atti,
49.6133696608987,14.9328733003294,1834.0030567196,13.451444,0,0.85478021108,18800,2016-08-21 14:17:30,12,23.827,1834.3311407196,13.779528,0.671082,1.7630742034,250.3,0,0,1024,1024,1024,1024,249.4,0,98,3.986,3.983,3.929,3.943,3.985,4.005,6,GPS_Atti,
49.6133697300165,14.9328732743393,1834.0030567196,13.451444,0,0.87556105164,19000,2016-08-21 14:17:30,12,23.827,1834.3311407196,13.779528,0.671082,1.7630742034,250.4,0,0,1024,1024,1024,1024,249.4,0,98,3.986,3.983,3.929,3.943,3.985,4.005,6,GPS_Atti,
49.6133696992425,14.9328731961935,1834.0030567196,13.451444,0,0.88272968704,19200,2016-08-21 14:17:30,12,23.827,1834.3311407196,13.779528,0.671082,1.7630742034,250.3,0,0,1024,1024,1025,1024,249.4,0,98,3.986,3.983,3.929,3.943,3.985,4.005,6,GPS_Atti,
49.6133696888057,14.9328732004352,1834.0030567196,13.451444,0,0.87957023812,19300,2016-08-21 14:17:30,12,23.827,1834.3311407196,13.779528,0.671082,1.7630742034,250.3,0,0,1024,1024,1034,1024,249.4,0,98,3.986,3.983,3.929,3.943,3.985,4.005,6,GPS_Atti,
49.6133696931087,14.9328731860868,1834.0030567196,13.451444,0,0.883202128,19400,2016-08-21 14:17:30,12,23.827,1834.3311407196,13.779528,0.671082,1.7630742034,250.3,0,0,1024,1024,1025,1024,249.4,0,98,3.986,3.983,3.929,3.943,3.985,4.005,6,GPS_Atti,
49.6133696826573,14.9328732101479,1834.0030567196,13.451444,0,0.87637469996,19500,2016-08-21 14:17:30,12,23.827,1834.3311407196,13.779528,0.671082,1.7630742034,250.4,0,0,1024,1024,1024,1024,249.4,0,98,3.986,3.983,3.929,3.943,3.985,4.005,6,GPS_Atti,
49.6133696100157,14.9328731328043,1834.0030567196,13.451444,0,0.8747703692,19700,2016-08-21 14:17:30,12,23.827,1834.3311407196,13.779528,0.671082,1.7630742034,250.5,0,0,1024,1024,1024,1024,249.4,0,98,3.986,3.983,3.929,3.943,3.985,4.005,6,GPS_Atti,
49.613369629123,14.9328732314533,1834.3311407196,13.779528,0,0.86035763908,19800,2016-08-21 14:17:31,12,23.827,1834.3311407196,13.779528,0.671082,1.7630742034,250.5,0,0,1024,1024,1237,1024,249.4,0,98,3.986,3.983,3.929,3.943,3.985,4.005,6,GPS_Atti,
49.613369643932,14.9328732267705,1834.3311407196,13.779528,0,0.86454727176,19900,2016-08-21 14:17:31,12,23.827,1834.3311407196,13.779528,0.671082,1.7630742034,250.5,0,0,1024,1024,1237,1024,249.4,0,98,3.986,3.983,3.929,3.943,3.985,4.005,6,GPS_Atti,
49.6133695382227,14.9328731990496,1834.3311407196,13.779528,0,0.846702783,20000,2016-08-21 14:17:31,12,23.827,1834.3311407196,13.779528,0.671082,1.7630742034,250.5,0,0,1024,1024,1466,1024,249.4,0,98,3.986,3.983,3.929,3.943,3.985,4.005,6,GPS_Atti,
49.6133695375714,14.93287315262,1834.6592247196,14.107612,0,0.8555118384,20100,2016-08-21 14:17:31,12,23.793,1834.6592247196,14.107612,0.671082,1.7630742034,250.5,0,0,1024,1024,1464,1024,249.4,0,98,3.986,3.983,3.929,3.943,3.985,4.005,6,GPS_Atti,
49.6133693869936,14.9328729086287,1835.3153927196,14.76378,0,0.87452102536,20300,2016-08-21 14:17:31,12,23.793,1835.3153927196,14.76378,0.671082,1.7630742034,250.4,0,0,1024,1024,1465,1024,249.4,0,98,3.986,3.983,3.929,3.943,3.985,4.005,6,GPS_Atti,
49.6133693761739,14.9328729541688,1835.6434767196,15.091864,0,0.86322837408,20400,2016-08-21 14:17:31,12,23.793,1835.6434767196,15.091864,0.671082,1.7630742034,250.4,0,0,1024,1024,1466,1024,249.4,0,98,3.986,3.983,3.929,3.943,3.985,4.005,6,GPS_Atti,
49.6133693779127,14.9328729049891,1836.6277287196,16.076116,0,0.87361223268,20500,2016-08-21 14:17:31,12,23.793,1836.6277287196,16.076116,0.671082,1.7630742034,250.4,0,0,1024,1024,1465,1024,249.4,0,98,3.986,3.983,3.929,3.943,3.985,4.005,6,GPS_Atti,
49.6133692944131,14.9328728540282,1837.2838967196,16.732284,0,0.86951774436,20600,2016-08-21 14:17:31,12,23.793,1837.2838967196,16.732284,0.671082,1.7630742034,250.5,0,0,1024,1024,1466,1024,249.4,0,98,3.986,3.983,3.929,3.943,3.985,4.005,6,GPS_Atti,
49.6133693235303,14.9328728932829,1837.9400647196,17.388452,0,0.86634517208,20700,2016-08-21 14:17:32,12,23.793,1837.9400647196,17.388452,0.671082,1.7630742034,250.5,0,0,1024,1024,1466,1024,249.4,0,98,3.986,3.983,3.929,3.943,3.985,4.005,6,GPS_Atti,
49.6133694585988,14.9328728357807,1838.9243167196,18.372704,0,0.90261485828,20800,2016-08-21 14:17:32,12,23.793,1838.9243167196,18.372704,0.671082,1.7630742034,250.4,0,0,1024,1024,1466,1024,249.4,0,98,3.986,3.983,3.929,3.943,3.985,4.005,6,GPS_Atti,
49.6133693115672,14.9328733262382,1840.5647367196,20.013124,0.223694,0.7757054054,21000,2016-08-21 14:17:32,11,23.793,1840.5647367196,20.013124,0.671082,1.7630742034,250.3,0,0,1024,1024,1466,1024,249.4,0,98,3.986,3.983,3.929,3.943,3.985,4.005,6,GPS_Atti,
49.6133693052947,14.9328734851439,1841.5489887196,20.997376,0.223694,0.74282810776,21100,2016-08-21 14:17:32,11,23.793,1841.5489887196,20.997376,0.671082,1.7630742034,250.4,0,0,1024,1024,1465,1024,249.4,0,98,3.986,3.983,3.929,3.943,3.985,4.005,6,GPS_Atti,
49.6133690025033,14.9328736756063,1842.2051567196,21.653544,0,0.64806104436,21200,2016-08-21 14:17:32,11,23.793,1842.2051567196,21.653544,0.671082,1.7630742034,250.5,0,0,1024,1024,1466,1024,249.4,0,98,3.986,3.983,3.929,3.943,3.985,4.005,6,GPS_Atti,
49.6133689445427,14.9328737790484,1843.1894087196,22.637796,0,0.61667324808,21300,2016-08-21 14:17:32,11,23.763,1843.1894087196,22.637796,0.671082,1.7630742034,250.5,0,0,1024,1024,1466,1024,249.4,0,98,3.933,3.901,3.931,3.949,3.991,3.982,6,GPS_Atti,
49.6133685821426,14.9328732955541,1844.1736607196,23.622048,0.223694,0.6810039588,21400,2016-08-21 14:17:32,11,23.763,1844.1736607196,23.622048,0.671082,1.7630742034,250.5,0,0,1024,1024,1465,1024,249.4,0,98,3.933,3.901,3.931,3.949,3.991,3.982,6,GPS_Atti,
49.6133682070787,14.9328732578335,1845.1579127196,24.6063,0.223694,0.67453086148,21500,2016-08-21 14:17:32,11,23.763,1845.1579127196,24.6063,0.671082,1.7630742034,250.4,0,0,1024,1024,1465,1024,249.4,0,98,3.933,3.901,3.931,3.949,3.991,3.982,6,GPS_Atti,
49.6133683634279,14.9328730987245,1845.8140807196,25.262468,0,0.71500658456,21600,2016-08-21 14:17:32,12,23.763,1845.8140807196,25.262468,0.671082,1.7630742034,250.4,0,0,1024,1024,1464,1024,249.4,0,98,3.933,3.901,3.931,3.949,3.991,3.982,6,GPS_Atti,
49.6133680642474,14.9328726400751,1847.4545007196,26.902888,0,0.8217519948,21800,2016-08-21 14:17:33,10,23.763,1847.4545007196,26.902888,0.671082,1.7630742034,250.4,0,0,1024,1024,1465,1024,249.4,0,98,3.933,3.901,3.931,3.949,3.991,3.982,6,GPS_Atti,
49.6133679787737,14.9328725611908,1848.4387527196,27.88714,0,0.84261157552,21900,2016-08-21 14:17:33,10,23.763,1848.4387527196,27.88714,0.671082,1.7630742034,250.5,0,0,1024,1024,1464,1024,249.4,0,98,3.933,3.901,3.931,3.949,3.991,3.982,6,GPS_Atti,
49.6133680900383,14.9328722975605,1849.4230047196,28.871392,0,0.90219491076,22000,2016-08-21 14:17:33,11,23.763,1849.4230047196,28.871392,0.671082,1.7630742034,250.5,0,0,1024,1024,1463,1024,249.4,0,98,3.933,3.901,3.931,3.949,3.991,3.982,6,GPS_Atti,
49.6133681661537,14.9328723273238,1850.4072567196,29.855644,0,0.89449806012,22100,2016-08-21 14:17:33,11,23.763,1850.4072567196,29.855644,0.671082,1.7630742034,250.4,0,0,1024,1024,1464,1024,249.4,0,98,3.933,3.901,3.931,3.949,3.991,3.982,6,GPS_Atti,
49.613368367601,14.9328720298472,1851.3915087196,30.839896,0,0.96703415168,22200,2016-08-21 14:17:33,12,23.763,1851.3915087196,30.839896,0.671082,1.7630742034,250.4,0,0,1024,1024,1464,1024,249.4,0,98,3.933,3.901,3.931,3.949,3.991,3.982,6,GPS_Atti,
49.6133684271411,14.9328720708317,1852.3757607196,31.824148,0,0.95910764224,22300,2016-08-21 14:17:33,12,23.763,1852.3757607196,31.824148,0.671082,1.7630742034,250.3,0,0,1024,1024,1464,1024,249.4,0,98,3.933,3.901,3.931,3.949,3.991,3.982,6,GPS_Atti,
49.6133687351975,14.932871752449,1854.0161807196,33.464568,0,1.04959649028,22500,2016-08-21 14:17:33,11,23.231,1854.0161807196,33.464568,0.671082,1.7630742034,250.2,0,0,1024,1024,1462,1024,249.4,0,98,3.892,3.904,3.848,3.858,3.988,3.909,6,GPS_Atti,
49.6133690658216,14.9328714595898,1855.0004327196,34.44882,0.223694,1.14538717576,22600,2016-08-21 14:17:33,11,23.231,1855.0004327196,34.44882,0.671082,1.7630742034,250.2,0,0,1024,1024,1463,1024,249.4,0,98,3.892,3.904,3.848,3.858,3.988,3.909,6,GPS_Atti,
49.613369151025,14.9328714439404,1855.9846847196,35.433072,0,1.15800200556,22700,2016-08-21 14:17:34,11,23.231,1855.9846847196,35.433072,0.671082,1.7630742034,250.4,0,0,1024,1024,1454,1024,249.4,0,98,3.892,3.904,3.848,3.858,3.988,3.909,6,GPS_Atti,
49.6133692791227,14.9328712503828,1856.9689367196,36.417324,0,1.21617786044,22800,2016-08-21 14:17:34,11,23.231,1856.9689367196,36.417324,0.671082,1.7630742034,250.5,0,0,1024,1024,1457,1024,249.4,0,98,3.892,3.904,3.848,3.858,3.988,3.909,6,GPS_Atti,
49.6133693572927,14.9328712545643,1857.6251047196,37.073492,0,1.22489177148,22900,2016-08-21 14:17:34,11,23.231,1857.6251047196,37.073492,0.671082,1.7630742034,250.5,0,0,1024,1024,1457,1024,249.4,0,98,3.892,3.904,3.848,3.858,3.988,3.909,6,GPS_Atti,
49.6133695421273,14.932871088014,1859.5936087196,39.041996,0,1.286253322,23100,2016-08-21 14:17:34,11,23.231,1859.5936087196,39.041996,0.671082,1.7630742034,250.4,0,0,1024,1024,1456,1024,249.4,0,98,3.892,3.904,3.848,3.858,3.988,3.909,6,GPS_Atti,
49.6133695421273,14.932871088014,1859.5936087196,39.041996,0,1.286253322,23100,2016-08-21 14:17:34,11,23.231,1859.5936087196,39.041996,0.671082,1.7630742034,250.4,0,0,1024,1024,1456,1024,249.4,0,98,3.892,3.904,3.848,3.858,3.988,3.909,6,GPS_Atti,
49.6133696242753,14.9328710212485,1861.2340287196,40.682416,0,1.31252300788,23300,2016-08-21 14:17:34,11,23.231,1861.2340287196,40.682416,0.671082,1.7630742034,250.3,0,0,1024,1024,1457,1024,249.4,0,98,3.892,3.904,3.848,3.858,3.988,3.909,6,GPS_Atti,
49.6133697562335,14.9328710010746,1862.2182807196,41.666668,0,1.3367946622,23400,2016-08-21 14:17:34,11,23.231,1862.2182807196,41.666668,0.671082,1.7630742034,250.3,0,0,1024,1024,1457,1024,249.4,0,98,3.892,3.904,3.848,3.858,3.988,3.909,6,GPS_Atti,
49.6133697243861,14.9328710765455,1863.2025327196,42.65092,0,1.315698861,23500,2016-08-21 14:17:34,11,23.231,1863.2025327196,42.65092,0.671082,1.7630742034,250.3,0,0,1024,1024,1457,1024,249.4,0,98,3.892,3.904,3.848,3.858,3.988,3.909,6,GPS_Atti,
49.613369802343,14.9328711382646,1864.1867847196,43.635172,0,1.31501644628,23600,2016-08-21 14:17:34,11,23.457,1864.1867847196,43.635172,0.671082,1.7630742034,250.3,0,0,1024,1024,1456,1024,249.4,0,98,3.923,3.928,3.88,3.885,3.942,3.924,6,GPS_Atti,
49.6133698085262,14.9328711381185,1865.1710367196,44.619424,0,1.3160597534,23700,2016-08-21 14:17:35,11,23.457,1865.1710367196,44.619424,0.671082,1.7630742034,250.3,0,0,1024,1024,1455,1024,249.4,0,98,3.923,3.928,3.88,3.885,3.942,3.924,6,GPS_Atti,
49.6133698018353,14.9328711783969,1866.1552887196,45.603676,0,1.30645673472,23800,2016-08-21 14:17:35,11,23.457,1866.1552887196,45.603676,0.671082,1.7630742034,250.3,0,0,1024,1024,1455,1024,249.4,0,98,3.923,3.928,3.88,3.885,3.942,3.924,6,GPS_Atti,
49.6133697941347,14.9328712138655,1867.1395407196,46.587928,0,1.29770673444,23900,2016-08-21 14:17:35,11,23.457,1867.1395407196,46.587928,0.671082,1.7630742034,250.4,0,0,1024,1024,1456,1024,249.4,0,98,3.923,3.928,3.88,3.885,3.942,3.924,6,GPS_Atti,
49.6133698094209,14.9328713947927,1867.7957087196,47.244096,0,1.26230319,24000,2016-08-21 14:17:35,11,23.457,1867.7957087196,47.244096,0.671082,1.7630742034,250.5,0,0,1024,1024,1456,1024,249.4,0,98,3.923,3.928,3.88,3.885,3.942,3.924,6,GPS_Atti,
49.6133697879605,14.9328714333461,1868.7799607196,48.228348,0,1.25058731036,24100,2016-08-21 14:17:35,11,23.457,1868.7799607196,48.228348,0.671082,1.7630742034,250.6,0,0,1024,1024,1456,1024,249.4,0,98,3.923,3.928,3.88,3.885,3.942,3.924,6,GPS_Atti,
49.6133696580257,14.9328716681252,1869.7642127196,49.2126,0,1.17947510336,24200,2016-08-21 14:17:35,12,23.457,1869.7642127196,49.2126,0.671082,1.7630742034,250.6,0,0,1024,1024,1455,1024,249.4,0,98,3.923,3.928,3.88,3.885,3.942,3.924,6,GPS_Atti,
49.613369629105,14.9328716720679,1870.4203807196,49.868768,0,1.17387799032,24300,2016-08-21 14:17:35,12,23.457,1870.4203807196,49.868768,0.671082,1.7630742034,250.5,0,0,1024,1024,1454,1024,249.4,0,98,3.923,3.928,3.88,3.885,3.942,3.924,6,GPS_Atti,
49.6133693157936,14.9328718744886,1871.4046327196,50.85302,0,1.08288061208,24400,2016-08-21 14:17:35,12,23.457,1871.4046327196,50.85302,0.671082,1.7630742034,250.4,0,0,1024,1024,1454,1024,249.4,0,98,3.923,3.928,3.88,3.885,3.942,3.924,6,GPS_Atti,
49.6133692449174,14.9328721197547,1873.0450527196,52.49344,0,1.01942588564,24600,2016-08-21 14:17:35,12,23.457,1873.0450527196,52.49344,0.671082,1.7630742034,250.2,0,0,1024,1024,1455,1024,249.4,0,98,3.923,3.928,3.88,3.885,3.942,3.924,6,GPS_Atti,
49.6133692613076,14.9328721045704,1874.0293047196,53.477692,0,1.02501971784,24700,2016-08-21 14:17:35,12,23.51,1874.0293047196,53.477692,0.671082,1.7630742034,250.2,0,0,1024,1024,1455,1024,249.4,0,98,3.919,3.936,3.877,3.895,3.938,3.947,6,GPS_Atti,
49.6133692613076,14.9328721045704,1874.0293047196,53.477692,0,1.02501971784,24700,2016-08-21 14:17:36,12,23.51,1874.0293047196,53.477692,0.671082,1.7630742034,250.2,0,0,1024,1024,1455,1024,249.4,0,98,3.919,3.936,3.877,3.895,3.938,3.947,6,GPS_Atti,
49.6133692804352,14.9328722840205,1875.0135567196,54.461944,0,0.98875003164,24800,2016-08-21 14:17:36,12,23.51,1875.0135567196,54.461944,0.671082,1.7630742034,250.2,0,0,1024,1024,1454,1024,249.4,0,98,3.919,3.936,3.877,3.895,3.938,3.947,6,GPS_Atti,
49.6133692909141,14.9328722640973,1875.9978087196,55.446196,0,0.9946030502,24900,2016-08-21 14:17:36,12,23.51,1875.9978087196,55.446196,0.671082,1.7630742034,250.1,0,0,1024,1024,1453,1024,249.4,0,98,3.919,3.936,3.877,3.895,3.938,3.947,6,GPS_Atti,
49.6133690697147,14.9328724352656,1876.6539767196,56.102364,0,0.92670278556,25000,2016-08-21 14:17:36,12,23.51,1876.6539767196,56.102364,0.671082,1.7630742034,250.1,0,0,1024,1024,1454,1024,249.4,0,98,3.919,3.936,3.877,3.895,3.938,3.947,6,GPS_Atti,
49.6133690736231,14.9328724267935,1877.6382287196,57.086616,0,0.92907811372,25100,2016-08-21 14:17:36,12,23.51,1877.6382287196,57.086616,0.671082,1.7630742034,250.1,0,0,1024,1024,1453,1024,249.4,0,98,3.919,3.936,3.877,3.895,3.938,3.947,6,GPS_Atti,
49.6133689774229,14.9328726141667,1878.6224807196,58.070868,0,0.8755085582,25200,2016-08-21 14:17:36,14,23.51,1878.6224807196,58.070868,0.671082,1.7630742034,250.1,0,0,1024,1024,1451,1024,249.4,0,98,3.919,3.936,3.877,3.895,3.938,3.947,6,GPS_Atti,
49.6133687794548,14.9328728855751,1880.2629007196,59.711288,0,0.7925361146,25400,2016-08-21 14:17:36,14,23.51,1880.2629007196,59.711288,0.671082,1.7630742034,250.1,0,0,1024,1024,1448,1024,249.4,0,98,3.919,3.936,3.877,3.895,3.938,3.947,6,GPS_Atti,
49.613368773241,14.9328728592649,1881.2471527196,60.69554,0,0.79791013052,25500,2016-08-21 14:17:36,14,23.51,1881.2471527196,60.69554,0.671082,1.7630742034,250.1,0,0,1024,1024,1448,1024,249.4,0,98,3.919,3.936,3.877,3.895,3.938,3.947,6,GPS_Atti,
49.6133685021,14.9328730502241,1882.2314047196,61.679792,0,0.7326443804,25600,2016-08-21 14:17:36,14,23.51,1882.2314047196,61.679792,0.671082,1.7630742034,250.2,0,0,1024,1024,1448,1024,249.4,0,98,3.919,3.936,3.877,3.895,3.938,3.947,6,GPS_Atti,
49.6133685060313,14.9328730389747,1883.2156567196,62.664044,0,0.73549543036,25700,2016-08-21 14:17:36,14,23.517,1883.2156567196,62.664044,0.671082,1.7630742034,250.3,0,0,1024,1024,1446,1024,249.4,0,98,3.925,3.928,3.88,3.901,3.941,3.944,6,GPS_Atti,
49.6133685060313,14.9328730389747,1883.2156567196,62.664044,0,0.73549543036,25700,2016-08-21 14:17:37,14,23.517,1883.2156567196,62.664044,0.671082,1.7630742034,250.3,0,0,1024,1024,1446,1024,249.4,0,98,3.925,3.928,3.88,3.901,3.941,3.944,6,GPS_Atti,
49.6133684129203,14.9328732286497,1883.8718247196,63.320212,0,0.68635500884,25800,2016-08-21 14:17:37,14,23.517,1883.8718247196,63.320212,0.671082,1.7630742034,250.4,0,0,1024,1024,1446,1024,249.4,0,98,3.925,3.928,3.88,3.901,3.941,3.944,6,GPS_Atti,
49.613368383807,14.9328732318702,1884.8560767196,64.304464,0,0.68440290904,25900,2016-08-21 14:17:37,14,23.517,1884.8560767196,64.304464,0.671082,1.7630742034,250.5,0,0,1024,1024,1445,1024,249.4,0,98,3.925,3.928,3.88,3.901,3.941,3.944,6,GPS_Atti,
49.613368221272,14.9328734012064,1886.8245807196,66.272968,0,0.64071852444,26100,2016-08-21 14:17:37,14,23.517,1886.8245807196,66.272968,0.671082,1.7630742034,250.4,0,0,1024,1024,1443,1024,249.4,0,98,3.925,3.928,3.88,3.901,3.941,3.944,6,GPS_Atti,
49.613368221272,14.9328734012064,1886.8245807196,66.272968,0,0.64071852444,26100,2016-08-21 14:17:37,14,23.517,1886.8245807196,66.272968,0.671082,1.7630742034,250.4,0,0,1024,1024,1444,1024,249.4,0,98,3.925,3.928,3.88,3.901,3.941,3.944,6,GPS_Atti,
49.613368180032,14.9328736095575,1888.4650007196,67.913388,0,0.59134844412,26300,2016-08-21 14:17:37,14,23.517,1888.4650007196,67.913388,0.671082,1.7630742034,250.5,0,0,1024,1024,1444,1024,249.4,0,98,3.925,3.928,3.88,3.901,3.941,3.944,6,GPS_Atti,
49.6133679995772,14.9328738037037,1889.4492527196,68.89764,0,0.54971786536,26400,2016-08-21 14:17:37,14,23.517,1889.4492527196,68.89764,0.671082,1.7630742034,250.5,0,0,1024,1024,1444,1024,249.4,0,98,3.925,3.928,3.88,3.901,3.941,3.944,6,GPS_Atti,
49.6133679697945,14.9328738182206,1890.4335047196,69.881892,0,0.54777888892,26500,2016-08-21 14:17:37,14,23.517,1890.4335047196,69.881892,0.671082,1.7630742034,250.6,0,0,1024,1024,1441,1024,249.4,0,98,3.925,3.928,3.88,3.901,3.941,3.944,6,GPS_Atti,
49.6133678803157,14.932873927981,1891.0896727196,70.53806,0,0.52806104052,26600,2016-08-21 14:17:37,14,23.517,1891.0896727196,70.53806,0.671082,1.7630742034,250.6,0,0,1024,1024,1445,1024,249.4,0,98,3.925,3.928,3.88,3.901,3.941,3.944,6,GPS_Atti,
49.6133678961566,14.9328739273891,1892.0739247196,71.522312,0,0.52700461004,26700,2016-08-21 14:17:38,14,23.496,1892.0739247196,71.522312,0.671082,1.7630742034,250.6,0,0,1024,1024,1447,1024,249.4,0,97,3.922,3.924,3.88,3.89,3.938,3.95,6,GPS_Atti,
49.6133678129814,14.9328740819194,1893.7143447196,73.162732,0,0.49871392672,26900,2016-08-21 14:17:38,14,23.496,1893.7143447196,73.162732,0.671082,1.7630742034,250.6,0,0,1024,1024,1448,1024,249.4,0,97,3.922,3.924,3.88,3.89,3.938,3.95,6,GPS_Atti,
49.6133677379357,14.9328741821686,1894.6985967196,74.146984,0,0.48452429372,27000,2016-08-21 14:17:38,14,23.496,1894.6985967196,74.146984,0.671082,1.7630742034,250.5,0,0,1024,1024,1445,1024,249.4,0,97,3.922,3.924,3.88,3.89,3.938,3.95,6,GPS_Atti,
49.6133677392454,14.9328742068966,1895.3547647196,74.803152,0,0.47886156388,27100,2016-08-21 14:17:38,14,23.496,1895.3547647196,74.803152,0.671082,1.7630742034,250.3,0,0,1024,1024,1443,1024,249.4,0,97,3.922,3.924,3.88,3.89,3.938,3.95,6,GPS_Atti,
49.6133676528291,14.9328744066831,1896.3390167196,75.787404,0,0.44756891196,27200,2016-08-21 14:17:38,14,23.496,1896.3390167196,75.787404,0.671082,1.7630742034,250.3,0,0,1024,1024,1434,1024,249.4,0,97,3.922,3.924,3.88,3.89,3.938,3.95,6,GPS_Atti,
