latitude,longitude,altitude(feet),ascent(feet),speed(mph),distance(feet),time(millisecond),datetime(utc),satellites,voltage(v),max_altitude(feet),max_ascent(feet),max_speed(mph),max_distance(feet),compass_heading(degrees),isPhoto,isVideo,rc_elevator,rc_aileron,rc_throttle,rc_rudder,gimbal_heading(degrees),gimbal_pitch(degrees),battery_percent,voltageCell1,voltageCell2,voltageCell3,voltageCell4,voltageCell5,voltageCell6,flycStateRaw,flycState,message
49.6133701165555,14.9328551590238,1820.3007035908,0,0,0,0,2016-08-21 11:55:44,12,0,1820.3007035908,0,0,0,261,0,0,412,1683,364,366,254.9,0,100,4.307,4.314,4.304,4.306,4.31,4.312,6,GPS_Atti,
49.6133702118578,14.9328553105199,1820.3007035908,0,0,0.04991634018,200,2016-08-21 11:55:45,12,0,1820.3007035908,0,0,0.04991634018,260.9,0,0,939,1275,834,806,254.8,0,100,4.307,4.314,4.304,4.306,4.31,4.312,6,GPS_Atti,
49.6133702077827,14.932855330666,1820.3007035908,0,0,0.052481300892,300,2016-08-21 11:55:45,12,0,1820.3007035908,0,0,0.052481300892,261,0,0,1024,1024,1024,1024,255.5,0,100,4.307,4.314,4.304,4.306,4.31,4.312,6,GPS_Atti,
49.6133701944211,14.9328553455172,1820.3007035908,0,0,0.052447836324,400,2016-08-21 11:55:45,12,0,1820.3007035908,0,0,0.052481300892,261,0,0,1024,1024,1024,1024,257.5,0,100,4.307,4.314,4.304,4.306,4.31,4.312,6,GPS_Atti,
49.6133702943388,14.9328554696029,1820.3007035908,0,0,0.097969491324,500,2016-08-21 11:55:45,12,0,1820.3007035908,0,0,0.097969491324,261,0,0,1024,1024,1024,1024,258.4,0,100,4.307,4.314,4.304,4.306,4.31,4.312,6,GPS_Atti,
49.6133702938765,14.9328554926286,1820.3007035908,0,0,0.102005580692,600,2016-08-21 11:55:45,12,0,1820.3007035908,0,0,0.102005580692,260.9,0,0,1024,1024,1024,1024,259.3,0,100,4.307,4.314,4.304,4.306,4.31,4.312,6,GPS_Atti,
49.6133703113102,14.9328555861143,1820.3007035908,0,0,0.123461946208,700,2016-08-21 11:55:45,12,0,1820.3007035908,0,0,0.123461946208,261,0,0,1024,1024,1024,1024,259.5,0,100,4.307,4.314,4.304,4.306,4.31,4.312,6,GPS_Atti,
49.6133703096637,14.9328555890148,1820.3007035908,0,0,0.123680122068,800,2016-08-21 11:55:45,12,0,1820.3007035908,0,0,0.123680122068,261.1,0,0,1024,1024,1024,1024,259.7,0,100,4.307,4.314,4.304,4.306,4.31,4.312,6,GPS_Atti,
49.6133704050424,14.932855529278,1820.3007035908,0,0,0.136893049,1000,2016-08-21 11:55:45,12,0,1820.3007035908,0,0,0.136893049,261,0,0,1024,1024,1024,1024,259.8,0,100,4.307,4.314,4.304,4.306,4.31,4.312,6,GPS_Atti,
49.6133704090509,14.932855529208,1820.3007035908,0,0,0.13801017502,1100,2016-08-21 11:55:46,12,25.852,1820.3007035908,0,0,0.13801017502,261,0,0,1024,1024,1024,1024,259.9,0,100,4.307,4.314,4.304,4.306,4.31,4.312,6,GPS_Atti,
49.6133704099082,14.9328555237898,1820.3007035908,0,0,0.137445214372,1200,2016-08-21 11:55:46,12,25.852,1820.3007035908,0,0,0.13801017502,261,0,0,1024,1024,1024,1024,260,0,100,4.307,4.314,4.304,4.306,4.31,4.312,6,GPS_Atti,
49.6133705044562,14.9328556103324,1820.3007035908,0,0,0.177234913808,1300,2016-08-21 11:55:46,12,25.852,1820.3007035908,0,0,0.177234913808,261,0,0,1024,1024,1024,1024,260.1,0,100,4.307,4.314,4.304,4.306,4.31,4.312,6,GPS_Atti,
49.6133705054879,14.9328555661514,1820.3007035908,0,0,0.171462275828,1400,2016-08-21 11:55:46,12,25.852,1820.3007035908,0,0,0.177234913808,261,0,0,1024,1024,1024,1024,260.1,0,100,4.307,4.314,4.304,4.306,4.31,4.312,6,GPS_Atti,
49.6133705027637,14.932855572708,1820.3007035908,0,0,0.171519690528,1500,2016-08-21 11:55:46,12,25.852,1820.3007035908,0,0,0.177234913808,261,0,0,1024,1024,1024,1024,260.2,0,100,4.307,4.314,4.304,4.306,4.31,4.312,6,GPS_Atti,
49.6133706026766,14.9328556841438,1820.3007035908,0,0,0.216488852072,1700,2016-08-21 11:55:46,12,25.852,1820.3007035908,0,0,0.216488852072,261,0,0,1024,1024,1024,1024,260.2,0,100,4.307,4.314,4.304,4.306,4.31,4.312,6,GPS_Atti,
49.6133706005912,14.9328556787872,1820.3007035908,0,0,0.215140426832,1800,2016-08-21 11:55:46,12,25.852,1820.3007035908,0,0,0.216488852072,261,0,0,1024,1024,1024,1024,260.2,0,100,4.307,4.314,4.304,4.306,4.31,4.312,6,GPS_Atti,
49.6133705975549,14.9328556763884,1820.3007035908,0,0,0.213907159076,1900,2016-08-21 11:55:46,12,25.852,1820.3007035908,0,0,0.216488852072,260.9,0,0,1024,1024,1024,1024,260.2,0,100,4.307,4.314,4.304,4.306,4.31,4.312,6,GPS_Atti,
49.6133706149717,14.9328556698388,1820.3007035908,0,0,0.218290361316,2000,2016-08-21 11:55:46,12,25.852,1820.3007035908,0,0,0.218290361316,260.8,0,0,1024,1024,1024,1024,260.3,0,100,4.307,4.314,4.304,4.306,4.31,4.312,10,AssitedTakeoff,
49.6133707100846,14.9328557736799,1820.3007035908,0,0,0.260781504408,2100,2016-08-21 11:55:47,12,25.852,1820.3007035908,0,0,0.260781504408,260.8,0,0,1024,1024,1024,1024,260.3,0,100,4.307,4.314,4.304,4.306,4.31,4.312,10,AssitedTakeoff,
49.6133707083274,14.9328557689087,1820.3007035908,0,0,0.259621399384,2200,2016-08-21 11:55:47,12,25.852,1820.3007035908,0,0,0.260781504408,260.8,0,0,1024,1024,1024,1024,260.3,0,100,4.307,4.313,4.304,4.305,4.31,4.311,10,AssitedTakeoff,Return-to-Home Altitude:20M
49.6133707219785,14.9328557778058,1820.3007035908,0,0,0.264933407428,2300,2016-08-21 11:55:47,12,25.852,1820.3007035908,0,0,0.264933407428,260.8,0,0,1024,1024,1024,1024,260.3,0,100,4.307,4.313,4.304,4.305,4.31,4.311,10,AssitedTakeoff,
49.6133707292764,14.9328557708233,1820.3007035908,0,0,0.266257226368,2400,2016-08-21 11:55:47,12,25.852,1820.3007035908,0,0,0.266257226368,260.9,0,0,1024,1024,1024,1024,260.3,0,100,4.307,4.313,4.304,4.305,4.31,4.311,10,AssitedTakeoff,
49.6133708301849,14.932855744219,1820.3007035908,0,0,0.294837935944,2600,2016-08-21 11:55:47,12,25.852,1820.3007035908,0,0,0.294837935944,260.7,0,0,1024,1024,1024,1024,260.3,0,100,4.307,4.313,4.304,4.305,4.31,4.311,10,AssitedTakeoff,
49.6133708297878,14.9328557449441,1820.3007035908,0,0,0.294790363764,2700,2016-08-21 11:55:47,12,25.852,1820.3007035908,0,0,0.294837935944,260.7,0,0,1024,1024,1024,1024,260.3,0,100,4.307,4.313,4.304,4.305,4.31,4.311,10,AssitedTakeoff,
49.6133708345664,14.9328557474075,1820.3007035908,0,0,0.296603027864,2800,2016-08-21 11:55:47,12,25.852,1820.3007035908,0,0,0.296603027864,260.6,0,0,1024,1024,1024,1024,260.3,0,100,4.307,4.313,4.304,4.305,4.31,4.311,10,AssitedTakeoff,
49.6133709365194,14.9328558699515,1820.3007035908,0,0,0.34313977476,2900,2016-08-21 11:55:47,12,25.852,1820.3007035908,0,0,0.34313977476,260.6,0,0,1024,1024,1024,1024,260.3,0,100,4.307,4.313,4.304,4.305,4.31,4.311,10,AssitedTakeoff,
49.6133709432605,14.9328558681285,1820.3007035908,0,0,0.34507547036,3000,2016-08-21 11:55:47,12,25.852,1820.3007035908,0,0,0.34507547036,260.6,0,0,1024,1024,1024,1024,260.3,0,100,4.307,4.313,4.304,4.305,4.31,4.311,10,AssitedTakeoff,
49.6133709498495,14.932855868896,1820.3007035908,0,0,0.34726707148,3100,2016-08-21 11:55:48,12,25.852,1820.3007035908,0,0,0.34726707148,260.6,0,0,1024,1024,1024,1024,260.3,0,100,4.307,4.313,4.304,4.305,4.31,4.311,10,AssitedTakeoff,
49.6133710670002,14.932855878438,1820.3007035908,0,0,0.38623032732,3300,2016-08-21 11:55:48,12,25.852,1820.3007035908,0,0,0.38623032732,260.6,0,0,1024,1024,1024,1024,260.3,0,100,4.307,4.313,4.304,4.305,4.31,4.311,10,AssitedTakeoff,
49.6133710715033,14.93285588188,1820.3007035908,0,0,0.38806103604,3400,2016-08-21 11:55:48,12,25.821,1820.3007035908,0,0,0.38806103604,260.6,0,0,1024,1024,1024,1024,260.3,0,100,4.3,4.307,4.298,4.3,4.304,4.306,10,AssitedTakeoff,
49.6133710449688,14.9328559747522,1820.3007035908,0,0,0.38977691536,3500,2016-08-21 11:55:48,12,25.821,1820.3007035908,0,0,0.38977691536,260.7,0,0,1024,1024,1024,1024,260.3,0,100,4.3,4.307,4.298,4.3,4.304,4.306,10,AssitedTakeoff,
49.6133710454033,14.9328559776219,1820.3007035908,0,0,0.39024935632,3600,2016-08-21 11:55:48,12,25.821,1820.3007035908,0,0,0.39024935632,260.7,0,0,1024,1024,1024,1024,260.3,0,100,4.3,4.307,4.298,4.3,4.304,4.306,10,AssitedTakeoff,
49.6133711486505,14.9328559729453,1820.3007035908,0,0,0.42287074844,3700,2016-08-21 11:55:48,12,25.821,1820.3007035908,0,0,0.42287074844,260.6,0,0,1024,1024,1024,1024,260.3,0,100,4.3,4.307,4.298,4.3,4.304,4.306,10,AssitedTakeoff,
49.6133711359643,14.9328559575338,1820.3007035908,0,0,0.4170931892,3800,2016-08-21 11:55:48,12,25.821,1820.3007035908,0,0,0.42287074844,260.5,0,0,1024,1024,1024,1024,260.3,0,100,4.3,4.307,4.298,4.3,4.304,4.306,10,AssitedTakeoff,
49.6133712481439,14.9328560653039,1820.3007035908,0,0,0.46513781016,4000,2016-08-21 11:55:48,12,25.821,1820.3007035908,0,0,0.46513781016,260.6,0,0,1024,1024,1024,1024,260.3,0,100,4.3,4.307,4.298,4.3,4.304,4.306,10,AssitedTakeoff,
49.6133712516893,14.9328560920845,1820.3007035908,0,0,0.46922901764,4100,2016-08-21 11:55:49,12,25.821,1820.3007035908,0,0,0.46922901764,260.5,0,0,1024,1024,1024,1024,260.3,0,100,4.3,4.307,4.298,4.3,4.304,4.306,10,AssitedTakeoff,
49.613371249736,14.9328560996656,1820.3007035908,0,0,0.46944883392,4200,2016-08-21 11:55:49,12,25.821,1820.3007035908,0,0,0.46944883392,260.5,0,0,1024,1024,1024,1024,260.3,0,100,4.3,4.307,4.298,4.3,4.304,4.306,10,AssitedTakeoff,
49.6133713482426,14.932856102509,1820.3007035908,0,0,0.50168636776,4300,2016-08-21 11:55:49,12,25.821,1820.3007035908,0,0,0.50168636776,260.4,0,0,1024,1024,1024,1024,260.3,0,100,4.3,4.307,4.298,4.3,4.304,4.306,10,AssitedTakeoff,
49.6133713442662,14.9328560996701,1820.3007035908,0,0,0.50008859868,4400,2016-08-21 11:55:49,12,25.821,1820.3007035908,0,0,0.50168636776,260.3,0,0,1024,1024,1024,1024,260.3,0,100,4.3,4.307,4.298,4.3,4.304,4.306,10,AssitedTakeoff,
49.6133714225563,14.9328560950095,1820.3007035908,0,0,0.52536419004,4500,2016-08-21 11:55:49,12,25.704,1820.3007035908,0,0,0.52536419004,260.3,0,0,1024,1024,1024,1024,260.3,0,100,4.279,4.292,4.278,4.28,4.289,4.288,10,AssitedTakeoff,
49.6133714194444,14.9328561025477,1820.3007035908,0,0,0.52508859948,4700,2016-08-21 11:55:49,12,25.704,1820.3007035908,0,0,0.52536419004,260.3,0,0,1024,1024,1024,1024,260.3,0,100,4.279,4.292,4.278,4.28,4.289,4.288,10,AssitedTakeoff,
49.6133713965115,14.9328560797656,1820.3007035908,0,0,0.51522639444,4800,2016-08-21 11:55:49,12,25.704,1820.3007035908,0,0,0.52536419004,260.3,0,0,1024,1024,1024,1024,260.3,0,100,4.279,4.292,4.278,4.28,4.289,4.288,10,AssitedTakeoff,
49.6133714991994,14.9328560875886,1820.3007035908,0,0,0.5501476554,4900,2016-08-21 11:55:49,12,25.704,1820.3007035908,0,0,0.5501476554,260.3,0,0,1024,1024,1024,1024,260.3,0,100,4.279,4.292,4.278,4.28,4.289,4.288,10,AssitedTakeoff,
49.6133715024753,14.9328560930756,1820.3007035908,0,0,0.55176182868,5000,2016-08-21 11:55:49,12,25.704,1820.3007035908,0,0,0.55176182868,260.2,0,0,1024,1024,1024,1024,260.3,0,100,4.279,4.292,4.278,4.28,4.289,4.288,10,AssitedTakeoff,
49.6133715115644,14.93285619634,1820.3007035908,0,0,0.56496392884,5100,2016-08-21 11:55:50,12,25.704,1820.3007035908,0,0,0.56496392884,260.2,0,0,1024,1024,1024,1024,260.3,0,100,4.279,4.292,4.278,4.28,4.289,4.288,10,AssitedTakeoff,
49.6133715115825,14.9328562030419,1820.3007035908,0,0,0.56565946692,5200,2016-08-21 11:55:50,12,25.704,1820.3007035908,0,0,0.56565946692,260.1,0,0,1024,1024,1110,1024,260.2,0,100,4.279,4.292,4.278,4.28,4.289,4.288,10,AssitedTakeoff,
49.6133716401042,14.9328562151757,1820.3007035908,0,0,0.60936353656,5400,2016-08-21 11:55:50,12,25.704,1820.3007035908,0,0,0.60936353656,260,0,0,1024,1024,1450,1024,260.3,0,100,4.279,4.292,4.278,4.28,4.289,4.288,10,AssitedTakeoff,
49.613371751164,14.9328562205168,1820.3007035908,0,0,0.64702757976,5500,2016-08-21 11:55:50,12,25.704,1820.3007035908,0,0,0.64702757976,260,0,0,1024,1024,1613,1024,260.3,0,100,4.279,4.292,4.278,4.28,4.289,4.288,10,AssitedTakeoff,
49.6133717580703,14.9328562307414,1820.3007035908,0,0,0.65028873472,5600,2016-08-21 11:55:50,12,25.704,1820.3007035908,0,0,0.65028873472,260.1,0,0,1024,1024,1591,1024,260.3,0,100,4.279,4.292,4.278,4.28,4.289,4.288,10,AssitedTakeoff,
49.6133717535574,14.9328561944089,1820.3007035908,0,0,0.64546918076,5700,2016-08-21 11:55:50,12,25.706,1820.3007035908,0,0,0.65028873472,260.1,0,0,1024,1024,1591,1024,260.3,0,100,4.279,4.291,4.28,4.281,4.287,4.287,10,AssitedTakeoff,
49.6133717570661,14.9328561525227,1820.3007035908,0,0,0.64296918068,5800,2016-08-21 11:55:50,12,25.706,1820.3007035908,0,0,0.65028873472,259.9,0,0,1024,1024,1514,1024,260.3,0,100,4.279,4.291,4.28,4.281,4.287,4.287,10,AssitedTakeoff,
49.6133718319313,14.9328559799323,1820.3007035908,0,0.447388,0.6552493648,5900,2016-08-21 11:55:50,12,25.706,1820.3007035908,0,0.447388,0.6552493648,259.8,0,0,1024,1024,1297,1024,260.3,0,100,4.279,4.291,4.28,4.281,4.287,4.287,6,GPS_Atti,
49.613371761783,14.9328556539784,1820.3007035908,0,0.447388,0.61155841852,6000,2016-08-21 11:55:50,12,25.706,1820.3007035908,0,0.447388,0.6552493648,259.8,0,0,1024,1024,1052,1024,260.3,0,100,4.279,4.291,4.28,4.281,4.287,4.287,6,GPS_Atti,
49.6133715876179,14.9328548055879,1820.6287875908,0.328084,0.7158208,0.54318243208,6200,2016-08-21 11:55:51,12,25.706,1820.6287875908,0.328084,0.7158208,0.6552493648,259.5,0,0,1024,1024,1024,1024,260.3,0,100,4.279,4.291,4.28,4.281,4.287,4.287,6,GPS_Atti,
49.613371354002,14.9328540604282,1820.9568715908,0.656168,0.7158208,0.5208497542,6300,2016-08-21 11:55:51,12,25.706,1820.9568715908,0.656168,0.7158208,0.6552493648,259.5,0,0,1024,1024,1024,1024,260.3,0,100,4.279,4.291,4.28,4.281,4.287,4.287,6,GPS_Atti,
49.6133712530916,14.932853565695,1820.9568715908,0.656168,0.671082,0.56020014916,6400,2016-08-21 11:55:51,12,25.706,1820.9568715908,0.656168,0.7158208,0.6552493648,259.5,0,0,1024,1024,1024,1024,260.3,0,100,4.279,4.291,4.28,4.281,4.287,4.287,6,GPS_Atti,
49.613371043577,14.9328531019814,1821.2849555908,0.984252,0.671082,0.59234253864,6500,2016-08-21 11:55:51,12,25.706,1821.2849555908,0.984252,0.7158208,0.6552493648,259.6,0,0,1024,1024,1051,1024,260.3,0,100,4.279,4.291,4.28,4.281,4.287,4.287,6,GPS_Atti,
49.6133708823705,14.9328527237581,1821.2849555908,0.984252,0.447388,0.63992128032,6600,2016-08-21 11:55:51,12,25.706,1821.2849555908,0.984252,0.7158208,0.6552493648,259.6,0,0,1024,1024,1024,1024,260.3,0,100,4.279,4.291,4.28,4.281,4.287,4.287,6,GPS_Atti,
49.6133709116266,14.932852538429,1821.6130395908,1.312336,0.447388,0.68406170168,6700,2016-08-21 11:55:51,12,25.706,1821.6130395908,1.312336,0.7158208,0.68406170168,259.7,0,0,1024,1024,1024,1024,260.3,0,100,4.279,4.291,4.28,4.281,4.287,4.287,6,GPS_Atti,
49.6133709062694,14.9328522989406,1821.6130395908,1.312336,0.223694,0.73496065344,6800,2016-08-21 11:55:51,12,25.701,1821.6130395908,1.312336,0.7158208,0.73496065344,259.7,0,0,1024,1024,1080,1024,260.3,0,100,4.279,4.289,4.279,4.281,4.287,4.287,6,GPS_Atti,
49.6133707744889,14.9328522165296,1821.6130395908,1.312336,0,0.73586288444,6900,2016-08-21 11:55:51,12,25.701,1821.6130395908,1.312336,0.7158208,0.73586288444,259.8,0,0,1024,1024,1080,1024,260.3,0,100,4.279,4.289,4.279,4.281,4.287,4.287,6,GPS_Atti,
49.6133708226118,14.9328521226175,1821.6130395908,1.312336,0,0.76263453884,7000,2016-08-21 11:55:51,12,25.701,1821.6130395908,1.312336,0.7158208,0.76263453884,259.9,0,0,1024,1024,1382,1024,260.3,0,100,4.279,4.289,4.279,4.281,4.287,4.287,6,GPS_Atti,
49.6133709459952,14.9328523588924,1821.6130395908,1.312336,0.223694,0.72784779232,7100,2016-08-21 11:55:52,12,25.701,1821.6130395908,1.312336,0.7158208,0.76263453884,260,0,0,1024,1024,1470,1024,260.3,0,100,4.279,4.289,4.279,4.281,4.287,4.287,6,GPS_Atti,
49.613371042346,14.9328523960953,1821.6130395908,1.312336,0.223694,0.73532810752,7200,2016-08-21 11:55:52,12,25.701,1821.6130395908,1.312336,0.7158208,0.76263453884,260.1,0,0,1024,1024,1508,1024,260.3,0,100,4.279,4.289,4.279,4.281,4.287,4.287,6,GPS_Atti,
49.6133711601338,14.932852668468,1821.9411235908,1.64042,0.223694,0.70115815892,7300,2016-08-21 11:55:52,12,25.701,1821.9411235908,1.64042,0.7158208,0.76263453884,260,0,0,1024,1024,1506,1024,260.3,0,100,4.279,4.289,4.279,4.281,4.287,4.287,6,GPS_Atti,
49.6133712497142,14.9328527407931,1822.2692075908,1.968504,0,0.70550527192,7400,2016-08-21 11:55:52,12,25.701,1822.2692075908,1.968504,0.7158208,0.76263453884,259.8,0,0,1024,1024,1503,1024,260.3,0,100,4.279,4.289,4.279,4.281,4.287,4.287,6,GPS_Atti,
49.613371268739,14.9328529172282,1823.5815435908,3.28084,0,0.6764435912,7600,2016-08-21 11:55:52,12,25.701,1823.5815435908,3.28084,0.7158208,0.76263453884,259.5,0,0,1024,1024,1489,1024,260.3,0,100,4.279,4.289,4.279,4.281,4.287,4.287,6,GPS_Atti,
49.6133712126655,14.9328530538689,1824.2377115908,3.937008,0,0.6384350598,7700,2016-08-21 11:55:52,12,25.701,1824.2377115908,3.937008,0.7158208,0.76263453884,259.6,0,0,1024,1024,1453,1024,260.3,0,100,4.279,4.289,4.279,4.281,4.287,4.287,6,GPS_Atti,
49.6133711776283,14.9328531078745,1824.8938795908,4.593176,0,0.62047902248,7800,2016-08-21 11:55:52,12,25.701,1824.8938795908,4.593176,0.7158208,0.76263453884,259.8,0,0,1024,1024,1434,1024,260.3,0,100,4.279,4.289,4.279,4.281,4.287,4.287,6,GPS_Atti,
49.6133711276745,14.9328531895929,1825.8781315908,5.577428,0,0.59401576704,7900,2016-08-21 11:55:52,13,24.763,1825.8781315908,5.577428,0.7158208,0.76263453884,260,0,0,1024,1024,1116,1024,260.3,0,100,4.103,4.145,4.082,4.108,4.165,4.119,6,GPS_Atti,
49.6133711314506,14.9328532744958,1826.5342995908,6.233596,0,0.5792979188,8000,2016-08-21 11:55:52,13,24.763,1826.5342995908,6.233596,0.7158208,0.76263453884,260.1,0,0,1024,1024,1024,1024,260.3,0,100,4.103,4.145,4.082,4.108,4.165,4.119,6,GPS_Atti,
49.6133711350886,14.9328536544189,1827.1904675908,6.889764,0,0.5144029036,8100,2016-08-21 11:55:53,13,24.763,1827.1904675908,6.889764,0.7158208,0.76263453884,260,0,0,1024,1024,1024,1024,260.3,0,100,4.103,4.145,4.082,4.108,4.165,4.119,6,GPS_Atti,Landing Gear Raising
49.6133711487833,14.9328539990179,1828.5028035908,8.2021,0,0.46586943748,8300,2016-08-21 11:55:53,13,24.763,1828.5028035908,8.2021,0.7158208,0.76263453884,260,0,0,1024,1024,1024,1024,260.3,0,100,4.103,4.145,4.082,4.108,4.165,4.119,6,GPS_Atti,
49.6133711471422,14.9328540409604,1828.8308875908,8.530184,0,0.4596128756,8400,2016-08-21 11:55:53,13,24.763,1828.8308875908,8.530184,0.7158208,0.76263453884,259.9,0,0,1024,1024,1024,1024,260.3,0,100,4.103,4.145,4.082,4.108,4.165,4.119,6,GPS_Atti,
49.6133712076785,14.9328544989185,1829.1589715908,8.858268,0.223694,0.42758859636,8500,2016-08-21 11:55:53,13,24.763,1829.1589715908,8.858268,0.7158208,0.76263453884,259.8,0,0,1024,1024,1024,1024,260.3,0,100,4.103,4.145,4.082,4.108,4.165,4.119,6,GPS_Atti,
49.6133712116222,14.9328545522941,1829.4870555908,9.186352,0.223694,0.42450132592,8600,2016-08-21 11:55:53,13,24.763,1829.4870555908,9.186352,0.7158208,0.76263453884,259.7,0,0,1024,1024,1024,1024,260.3,0,100,4.103,4.145,4.082,4.108,4.165,4.119,6,GPS_Atti,
49.6133716050657,14.9328553919194,1829.4870555908,9.186352,0.3131716,0.5458661592,8700,2016-08-21 11:55:53,13,24.763,1829.4870555908,9.186352,0.7158208,0.76263453884,259.7,0,0,1024,1024,1024,1024,260.3,0,100,4.103,4.145,4.082,4.108,4.165,4.119,6,GPS_Atti,
49.6133718991955,14.9328561576686,1829.8151395908,9.514436,0.3131716,0.69191603264,8900,2016-08-21 11:55:53,13,24.763,1829.8151395908,9.514436,0.7158208,0.76263453884,259.7,0,0,1024,1024,1024,1024,260.3,0,100,4.103,4.145,4.082,4.108,4.165,4.119,6,GPS_Atti,
49.6133720293091,14.9328563868981,1829.8151395908,9.514436,0.3131716,0.75582679584,9000,2016-08-21 11:55:53,13,24.763,1829.8151395908,9.514436,0.7158208,0.76263453884,259.7,0,0,1024,1024,1024,1024,260.3,0,100,4.103,4.145,4.082,4.108,4.165,4.119,6,GPS_Atti,
49.6133723502793,14.9328569970836,1829.8151395908,9.514436,0.3131716,0.9235728642,9100,2016-08-21 11:55:54,13,24.231,1829.8151395908,9.514436,0.7158208,0.9235728642,259.7,0,0,1024,1024,1024,1024,260.3,0,100,3.973,4.022,3.921,4,4.027,3.959,6,GPS_Atti,
49.613372470797,14.932857184927,1829.8151395908,9.514436,0.3131716,0.98344163252,9200,2016-08-21 11:55:54,13,24.231,1829.8151395908,9.514436,0.7158208,0.98344163252,259.7,0,0,1024,1024,1024,1024,260.3,0,100,3.973,4.022,3.921,4,4.027,3.959,6,GPS_Atti,
49.6133724170932,14.9328571390587,1829.8151395908,9.514436,0.3131716,0.96104661868,9300,2016-08-21 11:55:54,13,24.231,1829.8151395908,9.514436,0.7158208,0.98344163252,259.7,0,0,1024,1024,1024,1024,260.3,0,100,3.973,4.022,3.921,4,4.027,3.959,6,GPS_Atti,
49.6133726743541,14.9328574052895,1829.8151395908,9.514436,0,1.07371722596,9400,2016-08-21 11:55:54,13,24.231,1829.8151395908,9.514436,0.7158208,1.07371722596,259.8,0,0,1024,1024,1024,1024,260.3,0,100,3.973,4.022,3.921,4,4.027,3.959,6,GPS_Atti,
49.6133724398232,14.9328573479982,1829.8151395908,9.514436,0,0.99311682968,9500,2016-08-21 11:55:54,13,24.231,1829.8151395908,9.514436,0.7158208,1.07371722596,259.6,0,0,1024,1024,1024,1024,260.3,0,100,3.973,4.022,3.921,4,4.027,3.959,6,GPS_Atti,
49.6133724637643,14.9328573753502,1829.8151395908,9.514436,0,1.00394032084,9600,2016-08-21 11:55:54,13,24.231,1829.8151395908,9.514436,0.7158208,1.07371722596,259.5,0,0,1024,1024,1024,1024,260.3,0,100,3.973,4.022,3.921,4,4.027,3.959,6,GPS_Atti,
49.6133720303146,14.9328570370958,1829.8151395908,9.514436,0,0.82743440968,9800,2016-08-21 11:55:54,13,24.231,1829.8151395908,9.514436,0.7158208,1.07371722596,259.4,0,0,1024,1024,1024,1024,260.3,0,100,3.973,4.022,3.921,4,4.027,3.959,6,GPS_Atti,
49.6133718797314,14.9328569277407,1829.8151395908,9.514436,0,0.7672408382,9900,2016-08-21 11:55:54,13,24.231,1829.8151395908,9.514436,0.7158208,1.07371722596,259.5,0,0,1024,1024,1024,1024,260.3,0,100,3.973,4.022,3.921,4,4.027,3.959,6,GPS_Atti,
49.6133717748618,14.9328568383388,1829.8151395908,9.514436,0,0.72364831712,10000,2016-08-21 11:55:54,13,24.231,1829.8151395908,9.514436,0.7158208,1.07371722596,259.6,0,0,1024,1024,1024,1024,260.3,0,100,3.973,4.022,3.921,4,4.027,3.959,6,GPS_Atti,
49.6133714927001,14.9328568013493,1829.8151395908,9.514436,0,0.63468505968,10100,2016-08-21 11:55:55,13,24.231,1829.8151395908,9.514436,0.7158208,1.07371722596,259.7,0,0,1024,1024,1024,1024,260.3,0,100,3.973,4.022,3.921,4,4.027,3.959,6,GPS_Atti,
49.6133715329013,14.9328567801844,1829.8151395908,9.514436,0,0.64335960064,10200,2016-08-21 11:55:55,13,24.304,1829.8151395908,9.514436,0.7158208,1.07371722596,259.8,0,0,1024,1024,1024,1024,260.3,0,100,4.053,4.094,4.095,4.072,4.102,4.123,6,GPS_Atti,
49.6133711707482,14.9328565478454,1829.8151395908,9.514436,0,0.50569555424,10400,2016-08-21 11:55:55,13,24.304,1829.8151395908,9.514436,0.7158208,1.07371722596,259.7,0,0,1024,1024,1024,1024,260.3,0,100,4.053,4.094,4.095,4.072,4.102,4.123,6,GPS_Atti,
49.613371039697,14.9328564426903,1829.8151395908,9.514436,0,0.45335303288,10500,2016-08-21 11:55:55,13,24.304,1829.8151395908,9.514436,0.7158208,1.07371722596,259.6,0,0,1024,1024,1024,1024,260.3,0,100,4.053,4.094,4.095,4.072,4.102,4.123,6,GPS_Atti,
49.6133710813129,14.9328564434333,1829.4870555908,9.186352,0,0.46485893876,10600,2016-08-21 11:55:55,13,24.304,1829.8151395908,9.514436,0.7158208,1.07371722596,259.5,0,0,1024,1024,1024,1024,260.3,0,100,4.053,4.094,4.095,4.072,4.102,4.123,6,GPS_Atti,
49.613370776269,14.9328564361571,1829.4870555908,9.186352,0,0.38611877876,10700,2016-08-21 11:55:55,13,24.304,1829.8151395908,9.514436,0.7158208,1.07371722596,259.5,0,0,1024,1024,1024,1024,260.3,0,100,4.053,4.094,4.095,4.072,4.102,4.123,6,GPS_Atti,
49.6133708026693,14.9328564698532,1829.4870555908,9.186352,0,0.3983595928,10800,2016-08-21 11:55:55,13,24.304,1829.8151395908,9.514436,0.7158208,1.07371722596,259.6,0,0,1024,1024,1024,1024,260.3,0,100,4.053,4.094,4.095,4.072,4.102,4.123,6,GPS_Atti,
49.6133704971333,14.9328562973513,1829.4870555908,9.186352,0,0.302813986068,10900,2016-08-21 11:55:55,13,24.304,1829.8151395908,9.514436,0.7158208,1.07371722596,259.7,0,0,1024,1024,1024,1024,260.3,0,100,4.053,4.094,4.095,4.072,4.102,4.123,6,GPS_Atti,
49.6133700134628,14.9328561244603,1829.4870555908,9.186352,0,0.23130906252,11100,2016-08-21 11:55:55,13,24.304,1829.8151395908,9.514436,0.7158208,1.07371722596,259.9,0,0,1024,1024,1024,1024,260.3,0,100,4.053,4.094,4.095,4.072,4.102,4.123,6,GPS_Atti,
49.6133699773957,14.9328561081022,1829.4870555908,9.186352,0,0.230036424684,11200,2016-08-21 11:55:56,13,24.304,1829.8151395908,9.514436,0.7158208,1.07371722596,260,0,0,1024,1024,1024,1024,260.3,0,100,4.053,4.094,4.095,4.072,4.102,4.123,6,GPS_Atti,
49.6133698334142,14.9328558830243,1829.4870555908,9.186352,0,0.199914048392,11300,2016-08-21 11:55:56,13,24.304,1829.8151395908,9.514436,0.7158208,1.07371722596,260,0,0,1024,1024,1024,1024,260.3,0,100,4.053,4.094,4.095,4.072,4.102,4.123,6,GPS_Atti,
49.6133699075111,14.9328558609125,1829.4870555908,9.186352,0,0.182617131828,11400,2016-08-21 11:55:56,13,24.372,1829.8151395908,9.514436,0.7158208,1.07371722596,259.9,0,0,1024,1024,1024,1024,260.3,0,100,4.034,4.086,4.037,4.061,4.072,4.065,6,GPS_Atti,
49.6133698272905,14.9328557704611,1829.4870555908,9.186352,0,0.178973430924,11500,2016-08-21 11:55:56,13,24.372,1829.8151395908,9.514436,0.7158208,1.07371722596,259.9,0,0,1024,1024,1024,1024,260.3,0,100,4.034,4.086,4.037,4.061,4.072,4.065,6,GPS_Atti,
49.6133698487383,14.9328556475812,1829.4870555908,9.186352,0,0.151284781744,11600,2016-08-21 11:55:56,13,24.372,1829.8151395908,9.514436,0.7158208,1.07371722596,259.9,0,0,1024,1024,1024,1024,260.3,0,100,4.034,4.086,4.037,4.061,4.072,4.065,6,GPS_Atti,
49.6133697273801,14.9328555036254,1829.4870555908,9.186352,0.223694,0.163700136472,11700,2016-08-21 11:55:56,13,24.372,1829.8151395908,9.514436,0.7158208,1.07371722596,260,0,0,1024,1024,1024,1024,260.3,0,100,4.034,4.086,4.037,4.061,4.072,4.065,6,GPS_Atti,
49.6133698179328,14.9328555689783,1829.4870555908,9.186352,0.223694,0.145817918052,11800,2016-08-21 11:55:56,13,24.372,1829.8151395908,9.514436,0.7158208,1.07371722596,260,0,0,1024,1024,1024,1024,260.3,0,100,4.034,4.086,4.037,4.061,4.072,4.065,6,GPS_Atti,
49.6133699788613,14.9328552433099,1829.4870555908,9.186352,0.223694,0.054044949236,12000,2016-08-21 11:55:56,13,24.372,1829.8151395908,9.514436,0.7158208,1.07371722596,259.9,0,0,1024,1024,1024,1024,260.3,0,100,4.034,4.086,4.037,4.061,4.072,4.065,6,GPS_Atti,
49.6133700442453,14.9328552319379,1829.4870555908,9.186352,0.223694,0.0315141414284,12100,2016-08-21 11:55:57,13,24.372,1829.8151395908,9.514436,0.7158208,1.07371722596,259.8,0,0,1024,1024,1024,1024,260.3,0,100,4.034,4.086,4.037,4.061,4.072,4.065,6,GPS_Atti,
49.6133701717083,14.9328551358454,1829.4870555908,9.186352,0.223694,0.0208551843944,12200,2016-08-21 11:55:57,13,24.372,1829.8151395908,9.514436,0.7158208,1.07371722596,259.7,0,0,1024,1024,1024,1024,260.3,0,100,4.034,4.086,4.037,4.061,4.072,4.065,6,GPS_Atti,
49.6133701682756,14.9328550793596,1829.4870555908,9.186352,0.223694,0.0266599089896,12300,2016-08-21 11:55:57,13,24.372,1829.8151395908,9.514436,0.7158208,1.07371722596,259.7,0,0,1024,1024,1024,1024,260.3,0,100,4.034,4.086,4.037,4.061,4.072,4.065,6,GPS_Atti,
49.6133702818457,14.9328551391354,1829.4870555908,9.186352,0.223694,0.060489175164,12400,2016-08-21 11:55:57,13,24.372,1829.8151395908,9.514436,0.7158208,1.07371722596,259.7,0,0,1024,1024,1024,1024,260.3,0,100,4.034,4.086,4.037,4.061,4.072,4.065,6,GPS_Atti,
49.6133701756214,14.932855036715,1829.4870555908,9.186352,0.223694,0.03606135286,12500,2016-08-21 11:55:57,13,24.288,1829.8151395908,9.514436,0.7158208,1.07371722596,259.7,0,0,1024,1024,1024,1024,260.3,0,99,4.023,4.063,4.038,4.057,4.06,4.047,6,GPS_Atti,
49.6133702693448,14.9328550897051,1829.4870555908,9.186352,0.223694,0.0581036764,12600,2016-08-21 11:55:57,13,24.288,1829.8151395908,9.514436,0.7158208,1.07371722596,259.7,0,0,1024,1024,1024,1024,260.3,0,99,4.023,4.063,4.038,4.057,4.06,4.047,6,GPS_Atti,
49.6133703005025,14.9328549275204,1829.1589715908,8.858268,0.223694,0.086598427968,12800,2016-08-21 11:55:57,13,24.288,1829.8151395908,9.514436,0.7158208,1.07371722596,259.7,0,0,1024,1024,1024,1024,260.3,0,99,4.023,4.063,4.038,4.057,4.06,4.047,6,GPS_Atti,
49.6133703067571,14.9328549482041,1829.1589715908,8.858268,0.223694,0.085437010608,12900,2016-08-21 11:55:57,13,24.288,1829.8151395908,9.514436,0.7158208,1.07371722596,259.7,0,0,1024,1024,1024,1024,260.3,0,99,4.023,4.063,4.038,4.057,4.06,4.047,6,GPS_Atti,
49.6133704212077,14.9328549925283,1829.4870555908,9.186352,0.223694,0.117915358104,13000,2016-08-21 11:55:57,13,24.288,1829.8151395908,9.514436,0.7158208,1.07371722596,259.7,0,0,1024,1024,1024,1024,260.3,0,99,4.023,4.063,4.038,4.057,4.06,4.047,6,GPS_Atti,
49.6133705971975,14.9328550003976,1829.4870555908,9.186352,0.223694,0.179326449308,13200,2016-08-21 11:55:58,13,24.288,1829.8151395908,9.514436,0.7158208,1.07371722596,259.6,0,0,1024,1024,1024,1024,260.3,0,99,4.023,4.063,4.038,4.057,4.06,4.047,6,GPS_Atti,
49.6133707071847,14.9328551901484,1829.4870555908,9.186352,0.223694,0.215616148632,13400,2016-08-21 11:55:58,13,24.288,1829.8151395908,9.514436,0.7158208,1.07371722596,259.8,0,0,1024,1024,1024,1024,260.3,0,99,4.023,4.063,4.038,4.057,4.06,4.047,6,GPS_Atti,
49.6133706599375,14.932855331929,1829.4870555908,9.186352,0.223694,0.202422578656,13500,2016-08-21 11:55:58,13,24.288,1829.8151395908,9.514436,0.7158208,1.07371722596,259.8,0,0,1024,1024,1052,1024,260.3,0,99,4.023,4.063,4.038,4.057,4.06,4.047,6,GPS_Atti,
49.6133707557672,14.9328554350841,1829.4870555908,9.186352,0.223694,0.242174876516,13600,2016-08-21 11:55:58,13,24.288,1829.8151395908,9.514436,0.7158208,1.07371722596,259.8,0,0,1024,1024,1497,1024,260.3,0,99,4.023,4.063,4.038,4.057,4.06,4.047,6,GPS_Atti,
49.6133705913352,14.9328556042676,1829.1589715908,8.858268,0,0.202694560292,13700,2016-08-21 11:55:58,13,24.288,1829.8151395908,9.514436,0.7158208,1.07371722596,259.8,0,0,1024,1024,1684,1027,260.3,0,99,4.023,4.063,4.038,4.057,4.06,4.047,6,GPS_Atti,
49.6133706577752,14.932855683313,1829.4870555908,9.186352,0,0.233138786988,13800,2016-08-21 11:55:58,13,24.267,1829.8151395908,9.514436,0.7158208,1.07371722596,259.8,0,0,1024,1024,1684,1024,260.3,0,99,4.02,4.066,4.016,4.048,4.067,4.047,6,GPS_Atti,
49.61337062228,14.9328558942813,1829.8151395908,9.514436,0,0.253489837508,14000,2016-08-21 11:55:58,13,24.267,1829.8151395908,9.514436,0.7158208,1.07371722596,259.8,0,0,1024,1024,1684,1024,260.3,0,99,4.02,4.066,4.016,4.048,4.067,4.047,6,GPS_Atti,
49.6133705249345,14.9328558850885,1830.4713075908,10.170604,0,0.227291017772,14100,2016-08-21 11:55:59,13,24.267,1830.4713075908,10.170604,0.7158208,1.07371722596,259.7,0,0,1024,1024,1684,1024,260.3,0,99,4.02,4.066,4.016,4.048,4.067,4.047,6,GPS_Atti,
49.6133705956096,14.9328559019666,1831.1274755908,10.826772,0,0.247781832076,14200,2016-08-21 11:55:59,13,24.267,1831.1274755908,10.826772,0.7158208,1.07371722596,259.5,0,0,1024,1024,1684,1024,260.3,0,99,4.02,4.066,4.016,4.048,4.067,4.047,6,GPS_Atti,Landing Gear Raised
49.6133703108988,14.9328556607563,1831.7836435908,11.48294,0.223694,0.138188324632,14300,2016-08-21 11:55:59,13,24.267,1831.7836435908,11.48294,0.7158208,1.07371722596,259.6,0,0,1024,1024,1684,1024,260.3,0,99,4.02,4.066,4.016,4.048,4.067,4.047,6,GPS_Atti,
49.6133703052703,14.9328553205793,1832.7678955908,12.467192,0.223694,0.078735566824,14400,2016-08-21 11:55:59,13,24.267,1832.7678955908,12.467192,0.7158208,1.07371722596,259.7,0,0,1024,1024,1684,1024,260.3,0,99,4.02,4.066,4.016,4.048,4.067,4.047,6,GPS_Atti,
49.6133703743963,14.9328549179835,1834.0802315908,13.779528,0.223694,0.10998523974,14500,2016-08-21 11:55:59,13,24.267,1834.0802315908,13.779528,0.7158208,1.07371722596,259.6,0,0,1024,1024,1684,1024,260.3,0,99,4.02,4.066,4.016,4.048,4.067,4.047,6,GPS_Atti,
49.6133704731223,14.9328546976908,1835.3925675908,15.091864,0.3131716,0.169759519868,14600,2016-08-21 11:55:59,13,24.267,1835.3925675908,15.091864,0.7158208,1.07371722596,259.6,0,0,1024,1024,1684,1024,260.3,0,99,4.02,4.066,4.016,4.048,4.067,4.047,6,GPS_Atti,
49.613370021529,14.9328542855453,1836.7049035908,16.4042,0.223694,0.209381896464,14700,2016-08-21 11:55:59,13,24.267,1836.7049035908,16.4042,0.7158208,1.07371722596,259.7,0,0,1024,1024,1684,1024,260.3,0,99,4.02,4.066,4.016,4.048,4.067,4.047,6,GPS_Atti,
49.6133700586666,14.932854163809,1838.0172395908,17.716536,0,0.236216214908,14800,2016-08-21 11:55:59,13,24.267,1838.0172395908,17.716536,0.7158208,1.07371722596,259.7,0,0,1024,1024,1684,1024,260.3,0,99,4.02,4.066,4.016,4.048,4.067,4.047,6,GPS_Atti,
49.6133698251551,14.9328544056851,1839.3295755908,19.028872,0.223694,0.20741142396,14900,2016-08-21 11:55:59,14,24.242,1839.3295755908,19.028872,0.7158208,1.07371722596,259.6,0,0,1024,1024,1684,1024,260.3,0,99,4.015,4.047,4.034,4.049,4.063,4.023,6,GPS_Atti,
49.613369457542,14.9328539397422,1840.9699955908,20.669292,0,0.37535762356,15000,2016-08-21 11:55:59,14,24.242,1840.9699955908,20.669292,0.7158208,1.07371722596,259.5,0,0,1024,1024,1684,1024,260.3,0,99,4.015,4.047,4.034,4.049,4.063,4.023,6,GPS_Atti,
49.6133699128476,14.9328541423269,1844.2508355908,23.950132,0.223694,0.251577435872,15200,2016-08-21 11:56:00,14,24.242,1844.2508355908,23.950132,0.7158208,1.07371722596,259.5,0,0,1024,1024,1684,1024,260.3,0,99,4.015,4.047,4.034,4.049,4.063,4.023,6,GPS_Atti,
49.6133699740049,14.9328541176219,1845.8912555908,25.590552,0.223694,0.25162238338,15300,2016-08-21 11:56:00,14,24.242,1845.8912555908,25.590552,0.7158208,1.07371722596,259.5,0,0,1024,1024,1684,1024,260.3,0,99,4.015,4.047,4.034,4.049,4.063,4.023,6,GPS_Atti,
49.6133701257286,14.9328540650049,1847.5316755908,27.230972,0.223694,0.258649286492,15400,2016-08-21 11:56:00,14,24.242,1847.5316755908,27.230972,0.7158208,1.07371722596,259.6,0,0,1024,1024,1684,1024,260.3,0,99,4.015,4.047,4.034,4.049,4.063,4.023,6,GPS_Atti,
49.6133705104385,14.9328547743367,1849.1720955908,28.871392,0.447388,0.170065294156,15500,2016-08-21 11:56:00,13,24.242,1849.1720955908,28.871392,0.7158208,1.07371722596,259.7,0,0,1024,1024,1674,1024,260.3,0,99,4.015,4.047,4.034,4.049,4.063,4.023,6,GPS_Atti,
49.613370691075,14.9328547087459,1850.8125155908,30.511812,0.447388,0.235092527208,15600,2016-08-21 11:56:00,13,24.242,1850.8125155908,30.511812,0.7158208,1.07371722596,259.8,0,0,1024,1024,1672,1024,260.3,0,99,4.015,4.047,4.034,4.049,4.063,4.023,6,GPS_Atti,
49.6133711081879,14.9328554678177,1852.4529355908,32.152232,0.447388,0.36908793832,15700,2016-08-21 11:56:00,14,24.242,1852.4529355908,32.152232,0.7158208,1.07371722596,259.8,0,0,1024,1024,1665,1024,260.3,0,99,4.015,4.047,4.034,4.049,4.063,4.023,6,GPS_Atti,
49.613371622212,14.9328564106867,1855.7337755908,35.433072,0.3131716,0.62395999372,15900,2016-08-21 11:56:00,14,24.242,1855.7337755908,35.433072,0.7158208,1.07371722596,259.7,0,0,1024,1024,1667,1024,260.3,0,99,4.015,4.047,4.034,4.049,4.063,4.023,6,GPS_Atti,
49.6133717846306,14.9328565666443,1857.3741955908,37.073492,0.3131716,0.69362863112,16000,2016-08-21 11:56:00,14,24.242,1857.3741955908,37.073492,0.7158208,1.07371722596,259.6,0,0,1024,1024,1668,1024,260.3,0,99,4.015,4.047,4.034,4.049,4.063,4.023,6,GPS_Atti,
49.6133717846306,14.9328565666443,1857.3741955908,37.073492,0.3131716,0.69362863112,16000,2016-08-21 11:56:00,14,24.167,1857.3741955908,37.073492,0.7158208,1.07371722596,259.6,0,0,1024,1024,1668,1024,260.3,0,99,3.897,4.019,3.933,4.022,4.044,3.967,6,GPS_Atti,
49.6133718597769,14.9328571730865,1859.0146155908,38.713912,0.3131716,0.7944882144,16100,2016-08-21 11:56:01,14,24.167,1859.0146155908,38.713912,0.7158208,1.07371722596,259.5,0,0,1024,1024,1668,1024,260.3,0,99,3.897,4.019,3.933,4.022,4.044,3.967,6,GPS_Atti,
49.6133720768587,14.9328574884906,1860.6550355908,40.354332,0.3131716,0.9026575092,16200,2016-08-21 11:56:01,14,24.167,1860.6550355908,40.354332,0.7158208,1.07371722596,259.5,0,0,1024,1024,1665,1024,260.3,0,99,3.897,4.019,3.933,4.022,4.044,3.967,6,GPS_Atti,
49.6133721689979,14.9328580584654,1862.2954555908,41.994752,0.3131716,1.01516735532,16300,2016-08-21 11:56:01,14,24.167,1862.2954555908,41.994752,0.7158208,1.07371722596,259.4,0,0,1024,1024,1660,1024,260.3,0,99,3.897,4.019,3.933,4.022,4.044,3.967,6,GPS_Atti,
49.6133724300314,14.9328590658229,1865.5762955908,45.275592,0.3131716,1.25117458072,16500,2016-08-21 11:56:01,14,24.167,1865.5762955908,45.275592,0.7158208,1.25117458072,259.5,0,0,1024,1024,1660,1024,260.3,0,99,3.897,4.019,3.933,4.022,4.044,3.967,6,GPS_Atti,
49.613372514681,14.9328592264017,1867.2167155908,46.916012,0.223694,1.30003613084,16600,2016-08-21 11:56:01,14,24.167,1867.2167155908,46.916012,0.7158208,1.30003613084,259.6,0,0,1024,1024,1661,1024,260.3,0,99,3.897,4.019,3.933,4.022,4.044,3.967,6,GPS_Atti,
49.613372514681,14.9328592264017,1867.2167155908,46.916012,0.223694,1.30003613084,16600,2016-08-21 11:56:01,14,24.167,1867.2167155908,46.916012,0.7158208,1.30003613084,259.6,0,0,1024,1024,1661,1024,260.3,0,99,3.897,4.019,3.933,4.022,4.044,3.967,6,GPS_Atti,
49.6133724565009,14.9328596006852,1868.8571355908,48.556432,0.223694,1.35328416404,16700,2016-08-21 11:56:01,14,24.167,1868.8571355908,48.556432,0.7158208,1.35328416404,259.6,0,0,1024,1024,1655,1024,260.3,0,99,3.897,4.019,3.933,4.022,4.044,3.967,6,GPS_Atti,
49.6133725118046,14.932859740678,1870.4975555908,50.196852,0,1.39170280044,16800,2016-08-21 11:56:01,14,24.167,1870.4975555908,50.196852,0.7158208,1.39170280044,259.6,0,0,1024,1024,1652,1024,260.3,0,99,3.897,4.019,3.933,4.022,4.044,3.967,6,GPS_Atti,
49.6133725360393,14.9328603151883,1873.7783955908,53.477692,0,1.50499676732,17000,2016-08-21 11:56:01,14,24.167,1873.7783955908,53.477692,0.7158208,1.50499676732,259.9,0,0,1024,1024,1647,1024,260.3,0,99,3.897,4.019,3.933,4.022,4.044,3.967,6,GPS_Atti,
49.6133723143289,14.9328604734517,1875.4188155908,55.118112,0,1.49042327604,17100,2016-08-21 11:56:01,14,23.071,1875.4188155908,55.118112,0.7158208,1.50499676732,259.9,0,0,1024,1024,1638,1024,260.3,0,99,3.849,3.871,3.847,3.857,3.887,3.875,6,GPS_Atti,
49.6133724301195,14.932860635242,1877.0592355908,56.758532,0,1.54546592872,17200,2016-08-21 11:56:02,14,23.071,1877.0592355908,56.758532,0.7158208,1.54546592872,259.8,0,0,1024,1024,1631,1024,260.3,0,99,3.849,3.871,3.847,3.857,3.887,3.875,6,GPS_Atti,
49.6133723487826,14.932860691865,1878.6996555908,58.398952,0,1.54080385508,17300,2016-08-21 11:56:02,14,23.071,1878.6996555908,58.398952,0.7158208,1.54546592872,259.8,0,0,1024,1024,1602,1024,260.3,0,99,3.849,3.871,3.847,3.857,3.887,3.875,6,GPS_Atti,
49.6133723537553,14.9328606257151,1880.3400755908,60.039372,0,1.52852039012,17400,2016-08-21 11:56:02,14,23.071,1880.3400755908,60.039372,0.7158208,1.54546592872,259.9,0,0,1024,1024,1413,1024,260.3,0,99,3.849,3.871,3.847,3.857,3.887,3.875,6,GPS_Atti,
49.6133723080069,14.9328609542416,1881.9804955908,61.679792,0,1.58624348908,17500,2016-08-21 11:56:02,14,23.071,1881.9804955908,61.679792,0.7158208,1.58624348908,259.8,0,0,1024,1024,1390,1024,260.3,0,99,3.849,3.871,3.847,3.857,3.887,3.875,6,GPS_Atti,
49.6133722645563,14.9328608990214,1883.2928315908,62.992128,0,1.5669948008,17600,2016-08-21 11:56:02,14,23.071,1883.2928315908,62.992128,0.7158208,1.58624348908,259.7,0,0,1024,1024,1386,1024,260.3,0,99,3.849,3.871,3.847,3.857,3.887,3.875,6,GPS_Atti,
49.613372089859,14.9328610220836,1885.9175035908,65.6168,0,1.56187012872,17800,2016-08-21 11:56:02,14,23.071,1885.9175035908,65.6168,0.7158208,1.58624348908,259.6,0,0,1024,1024,1350,1024,260.3,0,99,3.849,3.871,3.847,3.857,3.887,3.875,6,GPS_Atti,
49.6133719384732,14.9328609648526,1886.9017555908,66.601052,0,1.52500332964,17900,2016-08-21 11:56:02,14,23.071,1886.9017555908,66.601052,0.7158208,1.58624348908,259.7,0,0,1024,1024,1302,1024,260.3,0,99,3.849,3.871,3.847,3.857,3.887,3.875,6,GPS_Atti,
49.6133719112183,14.9328608902216,1887.8860075908,67.585304,0,1.5047900744,18000,2016-08-21 11:56:02,14,23.071,1887.8860075908,67.585304,0.7158208,1.58624348908,259.8,0,0,1024,1024,1262,1024,260.3,0,99,3.849,3.871,3.847,3.857,3.887,3.875,6,GPS_Atti,
49.6133718596608,14.9328609631193,1888.8702595908,68.569556,0,1.5123196022,18100,2016-08-21 11:56:03,14,23.071,1888.8702595908,68.569556,0.7158208,1.58624348908,259.7,0,0,1024,1024,1226,1024,260.3,0,99,3.849,3.871,3.847,3.857,3.887,3.875,6,GPS_Atti,
49.6133716782027,14.9328608536778,1890.1825955908,69.881892,0,1.46183075544,18300,2016-08-21 11:56:03,14,23.561,1890.1825955908,69.881892,0.7158208,1.58624348908,259.7,0,0,1024,1024,1157,1024,260.3,0,99,3.899,3.952,3.918,3.94,3.954,3.929,6,GPS_Atti,
49.6133718016505,14.93286106394,1890.8387635908,70.53806,0,1.52532157112,18400,2016-08-21 11:56:03,14,23.561,1890.8387635908,70.53806,0.7158208,1.58624348908,259.7,0,0,1024,1024,1107,1024,260.3,0,99,3.899,3.952,3.918,3.94,3.954,3.929,6,GPS_Atti,
49.6133717093831,14.9328609194499,1891.1668475908,70.866144,0,1.48059059856,18500,2016-08-21 11:56:03,14,23.561,1891.1668475908,70.866144,0.7158208,1.58624348908,259.7,0,0,1024,1024,1051,1024,260.3,0,99,3.899,3.952,3.918,3.94,3.954,3.929,6,GPS_Atti,
49.6133716962137,14.9328608608053,1891.4949315908,71.194228,0,1.46595477132,18600,2016-08-21 11:56:03,14,23.561,1891.4949315908,71.194228,0.7158208,1.58624348908,259.6,0,0,1024,1024,1024,1024,260.3,0,99,3.899,3.952,3.918,3.94,3.954,3.929,6,GPS_Atti,
49.6133716353479,14.9328608872958,1891.4949315908,71.194228,0,1.46315949564,18700,2016-08-21 11:56:03,14,23.561,1891.4949315908,71.194228,0.7158208,1.58624348908,259.6,0,0,1024,1024,1024,1024,260.3,0,99,3.899,3.952,3.918,3.94,3.954,3.929,6,GPS_Atti,
49.6133716712587,14.9328608699339,1891.8230155908,71.522312,0,1.46438981064,18800,2016-08-21 11:56:03,14,23.561,1891.8230155908,71.522312,0.7158208,1.58624348908,259.7,0,0,1024,1024,1024,1024,260.3,0,99,3.899,3.952,3.918,3.94,3.954,3.929,6,GPS_Atti,
49.6133715016634,14.9328605527394,1891.8230155908,71.522312,0,1.37157484704,18900,2016-08-21 11:56:03,14,23.561,1891.8230155908,71.522312,0.7158208,1.58624348908,259.7,0,0,1024,1024,1024,1024,260.3,0,99,3.899,3.952,3.918,3.94,3.954,3.929,6,GPS_Atti,
49.6133716447177,14.9328607344471,1891.8230155908,71.522312,0,1.43111225052,19000,2016-08-21 11:56:03,14,23.561,1891.8230155908,71.522312,0.7158208,1.58624348908,259.8,0,0,1024,1024,1024,1024,260.3,0,99,3.899,3.952,3.918,3.94,3.954,3.929,6,GPS_Atti,
49.613371309193,14.9328601265168,1891.8230155908,71.522312,0,1.2523458406,19100,2016-08-21 11:56:04,14,23.561,1891.8230155908,71.522312,0.7158208,1.58624348908,259.9,0,0,1024,1024,1024,1024,260.3,0,99,3.899,3.952,3.918,3.94,3.954,3.929,6,GPS_Atti,
49.6133712505131,14.9328594849576,1892.1510995908,71.850396,0.223694,1.10317588832,19300,2016-08-21 11:56:04,14,23.561,1892.1510995908,71.850396,0.7158208,1.58624348908,259.8,0,0,1024,1024,1024,1024,260.3,0,99,3.899,3.952,3.918,3.94,3.954,3.929,6,GPS_Atti,
49.6133713497429,14.9328594089603,1892.1510995908,71.850396,0.223694,1.1008366494,19400,2016-08-21 11:56:04,14,23.601,1892.1510995908,71.850396,0.7158208,1.58624348908,259.7,0,0,1024,1024,1024,1024,260.3,0,99,3.897,3.954,3.925,3.947,3.951,3.934,6,GPS_Atti,
49.6133714319546,14.9328590110726,1892.4791835908,72.17848,0.223694,1.02935370748,19500,2016-08-21 11:56:04,14,23.601,1892.4791835908,72.17848,0.7158208,1.58624348908,259.6,0,0,1024,1024,1024,1024,260.3,0,99,3.897,3.954,3.925,3.947,3.951,3.934,6,GPS_Atti,
49.6133716072926,14.9328589180506,1892.4791835908,72.17848,0.223694,1.04187339292,19600,2016-08-21 11:56:04,14,23.601,1892.4791835908,72.17848,0.7158208,1.58624348908,259.6,0,0,1024,1024,1024,1024,260.3,0,99,3.897,3.954,3.925,3.947,3.951,3.934,6,GPS_Atti,
49.6133712739947,14.9328584849453,1892.1510995908,71.850396,0,0.89248034352,19800,2016-08-21 11:56:04,14,23.601,1892.4791835908,72.17848,0.7158208,1.58624348908,259.6,0,0,1024,1024,1024,1024,260.3,0,99,3.897,3.954,3.925,3.947,3.951,3.934,6,GPS_Atti,
49.6133707607856,14.9328582038093,1892.1510995908,71.850396,0,0.75719818696,19900,2016-08-21 11:56:04,14,23.601,1892.4791835908,72.17848,0.7158208,1.58624348908,259.7,0,0,1024,1024,1024,1024,260.3,0,99,3.897,3.954,3.925,3.947,3.951,3.934,6,GPS_Atti,
49.6133705397142,14.9328581705157,1892.1510995908,71.850396,0,0.72846787108,20000,2016-08-21 11:56:04,14,23.601,1892.4791835908,72.17848,0.7158208,1.58624348908,259.8,0,0,1024,1024,1024,1024,260.3,0,99,3.897,3.954,3.925,3.947,3.951,3.934,6,GPS_Atti,
49.6133704114091,14.9328580113727,1892.1510995908,71.850396,0,0.68282810584,20100,2016-08-21 11:56:05,14,23.601,1892.4791835908,72.17848,0.7158208,1.58624348908,259.8,0,0,1024,1024,1024,1024,260.3,0,99,3.897,3.954,3.925,3.947,3.951,3.934,6,GPS_Atti,
49.6133704121212,14.9328580138749,1892.4791835908,72.17848,0,0.68345146544,20200,2016-08-21 11:56:05,14,23.601,1892.4791835908,72.17848,0.7158208,1.58624348908,259.8,0,0,1024,1024,1024,1024,260.3,0,99,3.897,3.954,3.925,3.947,3.951,3.934,6,GPS_Atti,
49.6133699342373,14.9328574856453,1892.4791835908,72.17848,0,0.55402560828,20300,2016-08-21 11:56:05,14,23.601,1892.4791835908,72.17848,0.7158208,1.58624348908,259.7,0,0,1024,1024,1024,1024,260.3,0,99,3.897,3.954,3.925,3.947,3.951,3.934,6,GPS_Atti,
49.613369954214,14.9328575524457,1892.4791835908,72.17848,0,0.56890093684,20400,2016-08-21 11:56:05,14,23.601,1892.4791835908,72.17848,0.7158208,1.58624348908,259.5,0,0,1024,1024,1024,1024,260.3,0,99,3.897,3.954,3.925,3.947,3.951,3.934,6,GPS_Atti,
49.6133698046101,14.9328573510152,1892.4791835908,72.17848,0,0.53054135556,20600,2016-08-21 11:56:05,14,24.223,1892.4791835908,72.17848,0.7158208,1.58624348908,259.7,0,0,1024,1024,1024,1024,260.3,0,99,4.011,4.042,4.005,4.02,4.055,4.042,6,GPS_Atti,
49.6133698046101,14.9328573510152,1892.4791835908,72.17848,0,0.53054135556,20600,2016-08-21 11:56:05,14,24.223,1892.4791835908,72.17848,0.7158208,1.58624348908,259.7,0,0,1024,1024,1024,1024,260.3,0,99,4.011,4.042,4.005,4.02,4.055,4.042,6,GPS_Atti,
49.6133695919433,14.9328571440123,1892.4791835908,72.17848,0,0.50678807396,20700,2016-08-21 11:56:05,14,24.223,1892.4791835908,72.17848,0.7158208,1.58624348908,259.8,0,0,1024,1024,1024,1024,260.3,0,99,4.011,4.042,4.005,4.02,4.055,4.042,6,GPS_Atti,
49.6133696889976,14.9328571689096,1892.8072675908,72.506564,0.223694,0.50009187952,20800,2016-08-21 11:56:05,14,24.223,1892.8072675908,72.506564,0.7158208,1.58624348908,259.8,0,0,1024,1024,1024,1024,260.3,0,99,4.011,4.042,4.005,4.02,4.055,4.042,6,GPS_Atti,
49.6133697582516,14.9328571242461,1892.8072675908,72.506564,0.223694,0.48262468736,20900,2016-08-21 11:56:05,14,24.223,1892.8072675908,72.506564,0.7158208,1.58624348908,259.9,0,0,1024,1024,1024,1024,260.3,0,99,4.011,4.042,4.005,4.02,4.055,4.042,6,GPS_Atti,
49.6133698240888,14.9328571996241,1892.8072675908,72.506564,0.223694,0.4940616956,21000,2016-08-21 11:56:05,14,24.223,1892.8072675908,72.506564,0.7158208,1.58624348908,259.8,0,0,1024,1024,1024,1024,260.3,0,99,4.011,4.042,4.005,4.02,4.055,4.042,6,GPS_Atti,
49.6133699574176,14.9328572525507,1892.8072675908,72.506564,0.223694,0.49830710256,21100,2016-08-21 11:56:06,14,24.223,1892.8072675908,72.506564,0.7158208,1.58624348908,259.9,0,0,1024,1024,1024,1024,260.3,0,99,4.011,4.042,4.005,4.02,4.055,4.042,6,GPS_Atti,
49.6133701966546,14.9328574784991,1892.8072675908,72.506564,0.223694,0.54910434828,21300,2016-08-21 11:56:06,14,24.223,1892.8072675908,72.506564,0.7158208,1.58624348908,259.9,0,0,1024,1024,1024,1024,260.3,0,99,4.011,4.042,4.005,4.02,4.055,4.042,6,GPS_Atti,
49.6133703261437,14.9328575986342,1892.8072675908,72.506564,0.223694,0.581774953,21400,2016-08-21 11:56:06,14,24.223,1892.8072675908,72.506564,0.7158208,1.58624348908,259.9,0,0,1024,1024,1024,1024,260.3,0,99,4.011,4.042,4.005,4.02,4.055,4.042,6,GPS_Atti,
49.6133703379806,14.9328577233386,1893.1353515908,72.834648,0.223694,0.61156826104,21500,2016-08-21 11:56:06,14,24.223,1893.1353515908,72.834648,0.7158208,1.58624348908,259.7,0,0,1024,1024,1024,1024,260.3,0,99,4.011,4.042,4.005,4.02,4.055,4.042,6,GPS_Atti,
49.6133704498804,14.9328578350562,1893.1353515908,72.834648,0.223694,0.64419949568,21600,2016-08-21 11:56:06,14,24.047,1893.1353515908,72.834648,0.7158208,1.58624348908,259.5,0,0,1024,1024,1024,1024,260.3,0,99,3.984,4.036,3.977,3.996,4.02,4.019,6,GPS_Atti,
49.6133703821443,14.9328577973555,1893.1353515908,72.834648,0.223694,0.63118768424,21700,2016-08-21 11:56:06,14,24.047,1893.1353515908,72.834648,0.7158208,1.58624348908,259.6,0,0,1024,1024,1024,1024,260.3,0,99,3.984,4.036,3.977,3.996,4.02,4.019,6,GPS_Atti,
49.6133705179518,14.9328577887968,1893.4634355908,73.162732,0.223694,0.638697527,21800,2016-08-21 11:56:06,14,24.047,1893.4634355908,73.162732,0.7158208,1.58624348908,259.6,0,0,1024,1024,1024,1024,260.3,0,99,3.984,4.036,3.977,3.996,4.02,4.019,6,GPS_Atti,
49.613370635235,14.9328578900663,1893.4634355908,73.162732,0,0.6727854546,22000,2016-08-21 11:56:06,14,24.047,1893.4634355908,73.162732,0.7158208,1.58624348908,259.8,0,0,1024,1024,1024,1024,260.3,0,99,3.984,4.036,3.977,3.996,4.02,4.019,6,GPS_Atti,
49.6133704461958,14.9328579304546,1893.4634355908,73.162732,0.223694,0.66611878772,22100,2016-08-21 11:56:06,14,24.047,1893.4634355908,73.162732,0.7158208,1.58624348908,259.9,0,0,1024,1024,1024,1024,260.3,0,99,3.984,4.036,3.977,3.996,4.02,4.019,6,GPS_Atti,
49.613370460608,14.9328580684664,1893.4634355908,73.162732,0,0.69915684652,22200,2016-08-21 11:56:07,14,24.047,1893.4634355908,73.162732,0.7158208,1.58624348908,259.9,0,0,1024,1024,1024,1024,260.3,0,99,3.984,4.036,3.977,3.996,4.02,4.019,6,GPS_Atti,
49.6133702510812,14.9328581419646,1893.4634355908,73.162732,0,0.70687666304,22300,2016-08-21 11:56:07,14,24.047,1893.4634355908,73.162732,0.7158208,1.58624348908,260,0,0,1024,1024,1024,1024,260.3,0,99,3.984,4.036,3.977,3.996,4.02,4.019,6,GPS_Atti,
49.6133702110833,14.9328582616138,1893.4634355908,73.162732,0,0.7342683962,22400,2016-08-21 11:56:07,14,24.047,1893.4634355908,73.162732,0.7158208,1.58624348908,260,0,0,1024,1024,1024,1024,260.3,0,99,3.984,4.036,3.977,3.996,4.02,4.019,6,GPS_Atti,
49.6133700270927,14.9328579726472,1893.4634355908,73.162732,0,0.6659449032,22500,2016-08-21 11:56:07,14,24.047,1893.4634355908,73.162732,0.7158208,1.58624348908,259.8,0,0,1024,1024,1024,1024,260.3,0,99,3.984,4.036,3.977,3.996,4.02,4.019,6,GPS_Atti,
49.6133700497876,14.9328578970644,1893.4634355908,73.162732,0,0.6477362412,22600,2016-08-21 11:56:07,14,24.047,1893.4634355908,73.162732,0.7158208,1.58624348908,259.7,0,0,1024,1024,1024,1024,260.3,0,99,3.984,4.036,3.977,3.996,4.02,4.019,6,GPS_Atti,
49.6133698775932,14.9328576111703,1893.7915195908,73.490816,0,0.58621064868,22800,2016-08-21 11:56:07,14,24.063,1893.7915195908,73.490816,0.7158208,1.58624348908,259.6,0,0,1024,1024,1024,1024,260.3,0,98,3.984,4.036,3.977,3.996,4.02,4.019,6,GPS_Atti,
49.6133698056762,14.9328574706587,1893.7915195908,73.490816,0,0.5581200966,22900,2016-08-21 11:56:07,14,24.063,1893.7915195908,73.490816,0.7158208,1.58624348908,259.7,0,0,1024,1024,1024,1024,260.3,0,98,3.984,4.036,3.977,3.996,4.02,4.019,6,GPS_Atti,
49.6133698358662,14.932857472759,1893.7915195908,73.490816,0,0.55647311492,23000,2016-08-21 11:56:07,14,24.063,1893.7915195908,73.490816,0.7158208,1.58624348908,259.7,0,0,1024,1024,1024,1024,260.3,0,98,3.984,4.036,3.977,3.996,4.02,4.019,6,GPS_Atti,
49.6133697710336,14.9328572028042,1893.4634355908,73.162732,0,0.4993274438,23100,2016-08-21 11:56:08,14,24.063,1893.7915195908,73.490816,0.7158208,1.58624348908,259.7,0,0,1024,1024,1024,1024,260.3,0,98,3.984,4.036,3.977,3.996,4.02,4.019,6,GPS_Atti,
49.6133698242412,14.9328572696306,1893.4634355908,73.162732,0.223694,0.5102198326,23200,2016-08-21 11:56:08,14,24.063,1893.7915195908,73.490816,0.7158208,1.58624348908,259.6,0,0,1024,1024,1024,1024,260.3,0,98,3.984,4.036,3.977,3.996,4.02,4.019,6,GPS_Atti,
49.613369981444,14.9328572088653,1893.4634355908,73.162732,0.223694,0.48708662976,23400,2016-08-21 11:56:08,14,24.063,1893.7915195908,73.490816,0.7158208,1.58624348908,259.8,0,0,1024,1024,1024,1024,260.3,0,98,3.984,4.036,3.977,3.996,4.02,4.019,6,GPS_Atti,
49.6133703854038,14.9328569008434,1893.4634355908,73.162732,0.447388,0.42329069596,23600,2016-08-21 11:56:08,14,24.063,1893.7915195908,73.490816,0.7158208,1.58624348908,259.8,0,0,1024,1024,1024,1024,260.3,0,98,3.984,4.036,3.977,3.996,4.02,4.019,6,GPS_Atti,
49.6133705746328,14.9328568591449,1893.4634355908,73.162732,0.447388,0.43527560448,23700,2016-08-21 11:56:08,14,24.063,1893.7915195908,73.490816,0.7158208,1.58624348908,259.8,0,0,1024,1024,1024,1024,260.3,0,98,3.984,4.036,3.977,3.996,4.02,4.019,6,GPS_Atti,
49.6133707807794,14.9328567799022,1893.1353515908,72.834648,0.447388,0.45338256044,23800,2016-08-21 11:56:08,14,24.063,1893.7915195908,73.490816,0.7158208,1.58624348908,259.9,0,0,1024,1024,1024,1024,260.3,0,98,3.984,4.036,3.977,3.996,4.02,4.019,6,GPS_Atti,
49.613370804015,14.93285691768,1893.1353515908,72.834648,0.223694,0.4855479158,23900,2016-08-21 11:56:08,14,24.063,1893.7915195908,73.490816,0.7158208,1.58624348908,259.9,0,0,1024,1024,1024,1024,260.3,0,98,3.984,4.036,3.977,3.996,4.02,4.019,6,GPS_Atti,
49.6133709311467,14.9328569715217,1893.4634355908,73.162732,0.223694,0.52145999044,24000,2016-08-21 11:56:09,14,24.063,1893.7915195908,73.490816,0.7158208,1.58624348908,260,0,0,1024,1024,1024,1024,260.3,0,98,3.997,4.034,3.98,4.007,4.042,4.022,6,GPS_Atti,
49.6133710586434,14.9328570227807,1893.1353515908,72.834648,0.223694,0.558809073,24200,2016-08-21 11:56:09,14,24.063,1893.7915195908,73.490816,0.7158208,1.58624348908,259.8,0,0,1024,1024,1024,1024,260.3,0,98,3.997,4.034,3.98,4.007,4.042,4.022,6,GPS_Atti,
49.6133710128369,14.9328571598396,1893.1353515908,72.834648,0.223694,0.57502954596,24300,2016-08-21 11:56:09,14,24.063,1893.7915195908,73.490816,0.7158208,1.58624348908,259.7,0,0,1024,1024,1024,1024,260.3,0,98,3.997,4.034,3.98,4.007,4.042,4.022,6,GPS_Atti,
49.6133711317997,14.9328570595894,1893.1353515908,72.834648,0.223694,0.5822998874,24400,2016-08-21 11:56:09,14,24.063,1893.7915195908,73.490816,0.7158208,1.58624348908,259.6,0,0,1024,1024,1024,1024,260.3,-0.3,98,3.997,4.034,3.98,4.007,4.042,4.022,6,GPS_Atti,
49.613371112477,14.9328569922146,1893.1353515908,72.834648,0.223694,0.56554463752,24500,2016-08-21 11:56:09,14,24.063,1893.7915195908,73.490816,0.7158208,1.58624348908,259.6,0,0,1024,1024,1024,1024,260.3,-1,98,3.997,4.034,3.98,4.007,4.042,4.022,6,GPS_Atti,
49.6133712558234,14.9328568703131,1893.1353515908,72.834648,0.223694,0.58002954612,24600,2016-08-21 11:56:09,14,24.063,1893.7915195908,73.490816,0.7158208,1.58624348908,259.7,0,0,1024,1024,1024,1024,260.3,-1.8,98,3.997,4.034,3.98,4.007,4.042,4.022,6,GPS_Atti,
49.6133712791153,14.9328568924882,1893.1353515908,72.834648,0.223694,0.5897802026,24700,2016-08-21 11:56:09,14,24.063,1893.7915195908,73.490816,0.7158208,1.58624348908,259.7,0,0,1024,1024,1024,1024,260.3,-3.6,98,3.997,4.034,3.98,4.007,4.042,4.022,6,GPS_Atti,
49.6133715372534,14.9328567656813,1893.1353515908,72.834648,0.223694,0.6426017266,25000,2016-08-21 11:56:09,14,24.063,1893.7915195908,73.490816,0.7158208,1.58624348908,259.6,0,0,1024,1024,1024,1024,260.3,-5.4,98,3.997,4.034,3.98,4.007,4.042,4.022,6,GPS_Atti,
49.6133715402521,14.9328567513893,1893.1353515908,72.834648,0.223694,0.64149608352,25100,2016-08-21 11:56:10,14,24.063,1893.7915195908,73.490816,0.7158208,1.58624348908,259.7,0,0,1024,1024,1024,1024,260.3,-6.3,98,3.997,4.034,3.98,4.007,4.042,4.022,6,GPS_Atti,
49.6133716785699,14.9328567256847,1893.1353515908,72.834648,0.223694,0.67967193776,25200,2016-08-21 11:56:10,14,24.063,1893.7915195908,73.490816,0.7158208,1.58624348908,259.7,0,0,1024,1024,1024,1024,260.3,-6.7,98,3.997,4.034,3.98,4.007,4.042,4.022,6,GPS_Atti,
49.6133714980998,14.9328566553879,1893.1353515908,72.834648,0,0.6157972638,25300,2016-08-21 11:56:10,14,24.068,1893.7915195908,73.490816,0.7158208,1.58624348908,259.9,0,0,1024,1024,1024,1024,260.3,-6.6,98,3.999,4.038,3.985,4.003,4.039,4.018,6,GPS_Atti,
49.6133715891222,14.9328565293819,1893.1353515908,72.834648,0,0.62737534816,25400,2016-08-21 11:56:10,14,24.068,1893.7915195908,73.490816,0.7158208,1.58624348908,260,0,0,1024,1024,1024,1024,260.3,-6.7,98,3.999,4.038,3.985,4.003,4.039,4.018,6,GPS_Atti,
49.6133713935491,14.9328567286595,1893.1353515908,72.834648,0,0.59561681696,25500,2016-08-21 11:56:10,14,24.068,1893.7915195908,73.490816,0.7158208,1.58624348908,259.9,0,0,1024,1024,1024,1024,260.3,-6.7,98,3.999,4.038,3.985,4.003,4.039,4.018,6,GPS_Atti,
49.6133714587024,14.9328566274494,1893.1353515908,72.834648,0,0.60024280136,25600,2016-08-21 11:56:10,14,24.068,1893.7915195908,73.490816,0.7158208,1.58624348908,259.9,0,0,1024,1024,1024,1024,260.3,-6.7,98,3.999,4.038,3.985,4.003,4.039,4.018,6,GPS_Atti,
49.6133713456536,14.9328566216442,1893.1353515908,72.834648,0,0.5662565798,25700,2016-08-21 11:56:10,14,24.068,1893.7915195908,73.490816,0.7158208,1.58624348908,259.9,0,0,1024,1024,1024,1024,260.3,-6.7,98,3.999,4.038,3.985,4.003,4.039,4.018,6,GPS_Atti,
49.6133712010911,14.9328568659665,1893.1353515908,72.834648,0,0.5651574984,25900,2016-08-21 11:56:10,14,24.068,1893.7915195908,73.490816,0.7158208,1.58624348908,259.8,0,0,1024,1024,1024,1024,260.3,-7.6,98,3.999,4.038,3.985,4.003,4.039,4.018,6,GPS_Atti,
49.6133711994815,14.9328568795914,1893.1353515908,72.834648,0,0.56705382392,26000,2016-08-21 11:56:10,14,24.068,1893.7915195908,73.490816,0.7158208,1.58624348908,259.7,0,0,1024,1024,1024,1024,260.3,-9.3,98,3.999,4.038,3.985,4.003,4.039,4.018,6,GPS_Atti,
49.6133711163936,14.9328568933727,1893.1353515908,72.834648,0,0.54879266848,26100,2016-08-21 11:56:11,14,24.068,1893.7915195908,73.490816,0.7158208,1.58624348908,259.7,0,0,1024,1024,1024,1024,260.3,-12.2,98,3.999,4.038,3.985,4.003,4.039,4.018,6,GPS_Atti,
49.6133710876224,14.9328569976655,1893.1353515908,72.834648,0,0.56075789196,26200,2016-08-21 11:56:11,14,24.068,1893.7915195908,73.490816,0.7158208,1.58624348908,259.7,0,0,1024,1024,1024,1024,260.3,-12.2,98,3.999,4.038,3.985,4.003,4.039,4.018,6,GPS_Atti,
49.6133709784697,14.9328569621835,1893.1353515908,72.834648,0,0.52971458388,26300,2016-08-21 11:56:11,14,24.068,1893.7915195908,73.490816,0.7158208,1.58624348908,259.6,0,0,1024,1024,1024,1024,260.3,-14.2,98,3.999,4.038,3.985,4.003,4.039,4.018,6,GPS_Atti,
49.6133709477136,14.9328569133672,1893.1353515908,72.834648,0,0.51376970148,26400,2016-08-21 11:56:11,14,24.056,1893.7915195908,73.490816,0.7158208,1.58624348908,259.5,0,0,1024,1024,1024,1024,260.3,-14.2,98,3.977,4.023,4.001,4.016,4.022,4.022,6,GPS_Atti,
49.6133708988682,14.9328567265441,1893.1353515908,72.834648,0,0.46774607796,26600,2016-08-21 11:56:11,14,24.056,1893.7915195908,73.490816,0.7158208,1.58624348908,259.7,0,0,1024,1024,1024,1024,260.3,-14.2,98,3.977,4.023,4.001,4.016,4.022,4.022,6,GPS_Atti,
49.6133707956569,14.9328565266524,1893.1353515908,72.834648,0,0.4073326902,26700,2016-08-21 11:56:11,14,24.056,1893.7915195908,73.490816,0.7158208,1.58624348908,259.7,0,0,1024,1024,1024,1024,260.3,-14.3,98,3.977,4.023,4.001,4.016,4.022,4.022,6,GPS_Atti,
49.6133707861941,14.9328564651111,1893.1353515908,72.834648,0,0.39373032756,26800,2016-08-21 11:56:11,14,24.056,1893.7915195908,73.490816,0.7158208,1.58624348908,259.7,0,0,1024,1024,1024,1024,260.3,-14.2,98,3.977,4.023,4.001,4.016,4.022,4.022,6,GPS_Atti,
49.6133706637627,14.9328563942806,1893.1353515908,72.834648,0,0.3537401688,26900,2016-08-21 11:56:11,14,24.056,1893.7915195908,73.490816,0.7158208,1.58624348908,259.8,0,0,1024,1024,1024,1024,260.3,-14.3,98,3.977,4.023,4.001,4.016,4.022,4.022,6,GPS_Atti,
49.6133706580692,14.9328564258933,1893.1353515908,72.834648,0,0.35878610072,27000,2016-08-21 11:56:11,14,24.056,1893.7915195908,73.490816,0.7158208,1.58624348908,259.9,0,0,1024,1024,1024,1024,260.3,-14.2,98,3.977,4.023,4.001,4.016,4.022,4.022,6,GPS_Atti,
49.6133704689258,14.9328562667263,1893.1353515908,72.834648,0,0.29171916944,27100,2016-08-21 11:56:12,14,24.056,1893.7915195908,73.490816,0.7158208,1.58624348908,260,0,0,1024,1024,1024,1024,260.3,-14.2,98,3.977,4.023,4.001,4.016,4.022,4.022,6,GPS_Atti,
49.6133704986895,14.9328562477029,1892.8072675908,72.506564,0,0.292703093356,27300,2016-08-21 11:56:12,14,24.056,1893.7915195908,73.490816,0.7158208,1.58624348908,260.1,0,0,1024,1024,1024,1024,260.3,-14.3,98,3.977,4.023,4.001,4.016,4.022,4.022,6,GPS_Atti,
49.6133705569309,14.9328562760193,1892.8072675908,72.506564,0,0.309099091256,27400,2016-08-21 11:56:12,14,24.056,1893.7915195908,73.490816,0.7158208,1.58624348908,260.1,0,0,1024,1024,1024,1024,260.3,-14.3,98,3.977,4.023,4.001,4.016,4.022,4.022,6,GPS_Atti,
49.6133706133858,14.9328561944194,1892.8072675908,72.506564,0.223694,0.30458170266,27500,2016-08-21 11:56:12,14,24.056,1893.7915195908,73.490816,0.7158208,1.58624348908,260,0,0,1024,1024,1024,1024,260.3,-14.2,98,3.977,4.023,4.001,4.016,4.022,4.022,6,GPS_Atti,
49.6133706506197,14.9328562164327,1893.1353515908,72.834648,0.223694,0.316944892032,27600,2016-08-21 11:56:12,14,24.061,1893.7915195908,73.490816,0.7158208,1.58624348908,259.9,0,0,1024,1024,1024,1024,260.3,-14.2,98,3.992,4.037,3.993,4.009,4.036,4.002,6,GPS_Atti,
