latitude,longitude,altitude(feet),ascent(feet),speed(mph),distance(feet),time(millisecond),datetime(utc),satellites,voltage(v),max_altitude(feet),max_ascent(feet),max_speed(mph),max_distance(feet),compass_heading(degrees),isPhoto,isVideo,rc_elevator,rc_aileron,rc_throttle,rc_rudder,gimbal_heading(degrees),gimbal_pitch(degrees),battery_percent,voltageCell1,voltageCell2,voltageCell3,voltageCell4,voltageCell5,voltageCell6,flycStateRaw,flycState,message
49.6209556586354,16.1247969873662,2257.2077074012,0,0,0,0,2016-08-15 18:34:53,18,0,2257.2077074012,0,0,0,159.2,0,0,1024,1024,1024,1024,159.7,0,98,4.268,4.269,4.213,4.246,4.27,4.266,6,GPS_Atti,
49.6209557435988,16.1247970075808,2257.2077074012,0,0,0.0313649288252,100,2016-08-15 18:34:53,18,0,2257.2077074012,0,0,0.0313649288252,159.2,0,0,1024,1024,1024,1024,159.7,0,98,4.268,4.269,4.213,4.246,4.27,4.266,6,GPS_Atti,
49.6209557476172,16.1247970226005,2257.2077074012,0,0,0.033516077188,200,2016-08-15 18:34:53,18,0,2257.2077074012,0,0,0.033516077188,159.2,0,0,1024,1024,1024,1024,159.7,0,98,4.268,4.269,4.213,4.246,4.27,4.266,6,GPS_Atti,
49.6209558517813,16.1247971338615,2257.2077074012,0,0,0.078516734796,300,2016-08-15 18:34:53,18,0,2257.2077074012,0,0,0.078516734796,159.2,0,0,1024,1024,1024,1024,159.7,0,98,4.268,4.269,4.213,4.246,4.27,4.266,6,GPS_Atti,
49.6209558382131,16.1247971348366,2257.2077074012,0,0,0.074213913136,400,2016-08-15 18:34:54,18,0,2257.2077074012,0,0,0.078516734796,159.2,0,0,1024,1024,1024,1024,159.7,0,98,4.268,4.269,4.213,4.246,4.27,4.266,6,GPS_Atti,
49.6209558377957,16.124797146384,2257.2077074012,0,0,0.075402233384,500,2016-08-15 18:34:54,18,0,2257.2077074012,0,0,0.078516734796,159.2,0,0,1024,1024,1024,1024,159.7,0,98,4.268,4.269,4.213,4.246,4.27,4.266,6,GPS_Atti,
49.6209558312436,16.1247971547957,2257.2077074012,0,0,0.07437828322,600,2016-08-15 18:34:54,18,0,2257.2077074012,0,0,0.078516734796,159.1,0,0,1024,1024,1024,1024,159.7,0,98,4.268,4.269,4.213,4.246,4.27,4.266,6,GPS_Atti,
49.6209558982777,16.1247971261805,2257.2077074012,0,0,0.093387142096,700,2016-08-15 18:34:54,18,0,2257.2077074012,0,0,0.093387142096,159.1,0,0,1024,1024,1024,1024,159.7,0,98,4.268,4.269,4.213,4.246,4.27,4.266,6,GPS_Atti,
49.6209558898544,16.1247971353445,2257.2077074012,0,0,0.091323493736,800,2016-08-15 18:34:54,18,0,2257.2077074012,0,0,0.093387142096,159,0,0,1024,1024,1024,1024,159.7,0,98,4.268,4.269,4.213,4.246,4.27,4.266,6,GPS_Atti,
49.6209558898544,16.1247971353445,2257.2077074012,0,0,0.091323493736,800,2016-08-15 18:34:54,18,25.533,2257.2077074012,0,0,0.093387142096,159,0,0,1024,1024,1024,1024,159.7,0,98,4.268,4.269,4.213,4.246,4.27,4.266,6,GPS_Atti,
49.6209558798129,16.1247972314568,2257.2077074012,0,0,0.09919947824,1000,2016-08-15 18:34:54,18,25.533,2257.2077074012,0,0,0.09919947824,159,0,0,1024,1024,1024,1024,159.7,0,98,4.268,4.269,4.213,4.246,4.27,4.266,6,GPS_Atti,
49.6209559743724,16.1247973352283,2257.2077074012,0,0,0.141529860172,1100,2016-08-15 18:34:54,18,25.533,2257.2077074012,0,0,0.141529860172,159,0,0,1024,1024,1024,1024,159.7,0,98,4.268,4.269,4.213,4.246,4.27,4.266,6,GPS_Atti,
49.6209559683973,16.1247973321158,2257.2077074012,0,0,0.139329728868,1200,2016-08-15 18:34:54,18,25.533,2257.2077074012,0,0,0.141529860172,158.9,0,0,1024,1024,1024,1024,159.7,0,98,4.268,4.269,4.213,4.246,4.27,4.266,6,GPS_Atti,
49.6209559942848,16.1247973016861,2257.2077074012,0,0,0.143235568888,1300,2016-08-15 18:34:54,18,25.533,2257.2077074012,0,0,0.143235568888,158.9,0,0,1024,1024,1024,1024,159.7,0,98,4.268,4.269,4.213,4.246,4.27,4.266,6,GPS_Atti,
49.6209559998952,16.1247973120272,2257.2077074012,0,0,0.146256894444,1400,2016-08-15 18:34:55,18,25.533,2257.2077074012,0,0,0.146256894444,158.9,0,0,1024,1024,1024,1024,159.7,0,98,4.268,4.269,4.213,4.246,4.27,4.266,6,GPS_Atti,
49.6209560038678,16.1247973178434,2257.2077074012,0,0,0.148212931252,1500,2016-08-15 18:34:55,18,25.533,2257.2077074012,0,0,0.148212931252,158.9,0,0,1024,1024,1024,1024,159.7,0,98,4.268,4.269,4.213,4.246,4.27,4.266,6,GPS_Atti,
49.6209560076176,16.1247973249293,2257.2077074012,0,0,0.150259847328,1600,2016-08-15 18:34:55,18,25.533,2257.2077074012,0,0,0.150259847328,158.8,0,0,1024,1024,1024,1024,159.7,0,98,4.268,4.269,4.213,4.246,4.27,4.266,6,GPS_Atti,
49.6209561077244,16.124797355418,2257.2077074012,0,0,0.185512145044,1700,2016-08-15 18:34:55,18,25.533,2257.2077074012,0,0,0.185512145044,158.7,0,0,1024,1024,1024,1024,159.7,0,98,4.268,4.269,4.213,4.246,4.27,4.266,6,GPS_Atti,
49.6209561063889,16.124797355076,2257.2077074012,0,0,0.185043969176,1800,2016-08-15 18:34:55,18,25.533,2257.2077074012,0,0,0.185512145044,158.7,0,0,1024,1024,1024,1024,159.6,0,98,4.268,4.269,4.213,4.246,4.27,4.266,6,GPS_Atti,
49.6209561017256,16.1247973555256,2257.2077074012,0,0,0.18359416598,1900,2016-08-15 18:34:55,18,25.533,2257.2077074012,0,0,0.185512145044,158.6,0,0,1024,1024,1024,1024,159.6,0,98,4.268,4.269,4.213,4.246,4.27,4.266,6,GPS_Atti,Taking off
49.62095608609,16.1247973381557,2257.2077074012,0,0,0.17662730224,2000,2016-08-15 18:34:55,18,25.533,2257.2077074012,0,0,0.185512145044,158.6,0,0,1024,1024,1024,1024,159.6,0,98,4.268,4.269,4.213,4.246,4.27,4.266,11,AutoTakeoff,
49.6209560862719,16.1247973618997,2257.2077074012,0,0,0.1793881291,2100,2016-08-15 18:34:55,18,25.533,2257.2077074012,0,0,0.185512145044,158.5,0,0,1024,1024,1024,1024,159.6,0,98,4.268,4.269,4.213,4.246,4.27,4.266,11,AutoTakeoff,
49.6209560866775,16.124797387895,2257.2077074012,0,0,0.182625005844,2200,2016-08-15 18:34:55,18,25.533,2257.2077074012,0,0,0.185512145044,158.4,0,0,1024,1024,1024,1024,159.6,0,98,4.268,4.269,4.213,4.246,4.27,4.266,11,AutoTakeoff,Return-to-Home Altitude:20M
49.6209561857875,16.1247974871301,2257.2077074012,0,0,0.22571030906,2300,2016-08-15 18:34:56,18,25.533,2257.2077074012,0,0,0.22571030906,158.4,0,0,1024,1024,1024,1024,159.6,0,98,4.268,4.269,4.213,4.246,4.27,4.266,11,AutoTakeoff,
49.6209562528236,16.1247975675456,2257.2077074012,0,0,0.256521333668,2600,2016-08-15 18:34:56,18,25.533,2257.2077074012,0,0,0.256521333668,158.3,0,0,1024,1024,1024,1024,159.5,0,98,4.268,4.269,4.213,4.246,4.27,4.266,11,AutoTakeoff,
49.6209562538219,16.1247975625642,2257.2077074012,0,0,0.25620243602,2700,2016-08-15 18:34:56,18,25.533,2257.2077074012,0,0,0.256521333668,158.2,0,0,1024,1024,1024,1024,159.5,0,98,4.268,4.269,4.213,4.246,4.27,4.266,11,AutoTakeoff,
49.6209562317516,16.1247975641242,2257.2077074012,0,0,0.249615493552,2800,2016-08-15 18:34:56,18,25.533,2257.2077074012,0,0,0.256521333668,158,0,0,1024,1024,1024,1024,159.5,0,98,4.268,4.269,4.213,4.246,4.27,4.266,11,AutoTakeoff,
49.6209562946892,16.1247976335078,2257.2077074012,0,0,0.277810376344,2900,2016-08-15 18:34:56,18,25.533,2257.2077074012,0,0,0.277810376344,157.7,0,0,1024,1024,1024,1024,159.5,0,98,4.268,4.269,4.213,4.246,4.27,4.266,11,AutoTakeoff,
49.6209562458606,16.1247976996068,2257.2077074012,0,0,0.27247704284,3000,2016-08-15 18:34:56,18,25.533,2257.2077074012,0,0,0.277810376344,157.3,0,0,1024,1024,1024,1024,159.4,0,98,4.268,4.269,4.213,4.246,4.27,4.266,11,AutoTakeoff,
49.6209560773823,16.1247976523476,2257.5357914012,0.328084,0.223694,0.219195216988,3200,2016-08-15 18:34:56,18,25.533,2257.5357914012,0.328084,0.223694,0.277810376344,157.2,0,0,1024,1024,1024,1024,159.4,0,98,4.267,4.269,4.206,4.238,4.269,4.261,11,AutoTakeoff,
49.6209558745237,16.1247978657311,2257.5357914012,0.328084,0.223694,0.22205381288,3300,2016-08-15 18:34:56,18,25.533,2257.5357914012,0.328084,0.223694,0.277810376344,157.1,0,0,1024,1024,1024,1024,159.3,0,98,4.267,4.269,4.206,4.238,4.269,4.261,11,AutoTakeoff,
49.6209557312145,16.1247979351166,2257.8638754012,0.656168,0.447388,0.2255741542,3400,2016-08-15 18:34:57,18,25.533,2257.8638754012,0.656168,0.447388,0.277810376344,157.1,0,0,1024,1024,1024,1024,159.3,0,98,4.267,4.269,4.206,4.238,4.269,4.261,11,AutoTakeoff,
49.6209553512183,16.1247981753504,2257.8638754012,0.656168,0.447388,0.302369432248,3500,2016-08-15 18:34:57,18,25.533,2257.8638754012,0.656168,0.447388,0.302369432248,157.1,0,0,1024,1024,1024,1024,159.2,0,98,4.267,4.269,4.206,4.238,4.269,4.261,11,AutoTakeoff,
49.6209551080001,16.1247982779937,2258.1919594012,0.984252,0.447388,0.36526904056,3600,2016-08-15 18:34:57,18,25.533,2258.1919594012,0.984252,0.447388,0.36526904056,157.1,0,0,1024,1024,1024,1024,159.2,0,98,4.267,4.269,4.206,4.238,4.269,4.261,11,AutoTakeoff,
49.6209548443447,16.1247982123644,2258.1919594012,0.984252,0.447388,0.41485237548,3700,2016-08-15 18:34:57,18,25.533,2258.1919594012,0.984252,0.447388,0.41485237548,157,0,0,1024,1024,1024,1024,159.2,0,98,4.267,4.269,4.206,4.238,4.269,4.261,11,AutoTakeoff,
49.6209544227658,16.1247983058514,2258.5200434012,1.312336,0.223694,0.54812337712,3900,2016-08-15 18:34:57,18,25.533,2258.5200434012,1.312336,0.447388,0.54812337712,157,0,0,1024,1024,1024,1024,159.1,0,98,4.267,4.269,4.206,4.238,4.269,4.261,11,AutoTakeoff,
49.6209542831047,16.1247982039777,2258.5200434012,1.312336,0.223694,0.57840881116,4000,2016-08-15 18:34:57,18,25.533,2258.5200434012,1.312336,0.447388,0.57840881116,157,0,0,1024,1024,1024,1024,159.1,0,98,4.267,4.269,4.206,4.238,4.269,4.261,11,AutoTakeoff,
49.6209542472127,16.1247979302117,2258.5200434012,1.312336,0.223694,0.56110894184,4100,2016-08-15 18:34:57,17,25.533,2258.5200434012,1.312336,0.447388,0.57840881116,157,0,0,1024,1024,1024,1024,159.1,0,98,4.267,4.269,4.206,4.238,4.269,4.261,11,AutoTakeoff,
49.6209541873944,16.1247977507971,2258.5200434012,1.312336,0.223694,0.56629923072,4200,2016-08-15 18:34:57,17,25.533,2258.5200434012,1.312336,0.447388,0.57840881116,156.9,0,0,1024,1024,1024,1024,159.1,0,98,4.267,4.269,4.206,4.238,4.269,4.261,11,AutoTakeoff,
49.6209543933212,16.1247975199863,2258.8481274012,1.64042,0.223694,0.47850723316,4300,2016-08-15 18:34:57,18,25.476,2258.8481274012,1.64042,0.447388,0.57840881116,156.9,0,0,1024,1024,1024,1024,159,0,97,4.207,4.229,4.195,4.235,4.259,4.243,11,AutoTakeoff,
49.6209544400957,16.1247972864137,2258.8481274012,1.64042,0.223694,0.45016733724,4400,2016-08-15 18:34:58,18,25.476,2258.8481274012,1.64042,0.447388,0.57840881116,156.9,0,0,1024,1024,1024,1024,159,0,97,4.207,4.229,4.195,4.235,4.259,4.243,11,AutoTakeoff,
49.6209543649591,16.1247971442959,2259.1762114012,1.968504,0.223694,0.47345145872,4500,2016-08-15 18:34:58,18,25.476,2259.1762114012,1.968504,0.447388,0.57840881116,156.8,0,0,1024,1024,1024,1024,159,0,97,4.207,4.229,4.195,4.235,4.259,4.243,11,AutoTakeoff,
49.6209545095092,16.1247967217543,2259.1762114012,1.968504,0.223694,0.4239337406,4700,2016-08-15 18:34:58,18,25.476,2259.1762114012,1.968504,0.447388,0.57840881116,157.1,0,0,1024,1024,1024,1024,159,0,97,4.207,4.229,4.195,4.235,4.259,4.243,11,AutoTakeoff,
49.6209544629781,16.1247965567212,2259.5042954012,2.296588,0.223694,0.44795277024,4800,2016-08-15 18:34:58,18,25.476,2259.5042954012,2.296588,0.447388,0.57840881116,157.2,0,0,1024,1024,1024,1024,158.9,0,97,4.207,4.229,4.195,4.235,4.259,4.243,11,AutoTakeoff,
49.6209544652922,16.1247964044393,2259.8323794012,2.624672,0.223694,0.45667324296,4900,2016-08-15 18:34:58,18,25.476,2259.8323794012,2.624672,0.447388,0.57840881116,157.4,0,0,1024,1024,1024,1024,158.9,0,97,4.207,4.229,4.195,4.235,4.259,4.243,11,AutoTakeoff,
49.6209544723446,16.1247961987418,2259.8323794012,2.624672,0.223694,0.47125001508,5000,2016-08-15 18:34:58,18,25.476,2259.8323794012,2.624672,0.447388,0.57840881116,157.5,0,0,1024,1024,1024,1024,158.9,0,97,4.207,4.229,4.195,4.235,4.259,4.243,11,AutoTakeoff,
49.6209544214851,16.1247958543465,2260.1604634012,2.952756,0.223694,0.52483925564,5100,2016-08-15 18:34:58,18,25.476,2260.1604634012,2.952756,0.447388,0.57840881116,157.6,0,0,1024,1024,1024,1024,158.9,0,97,4.207,4.229,4.195,4.235,4.259,4.243,6,GPS_Atti,
49.6209544214851,16.1247958543465,2260.1604634012,2.952756,0.223694,0.52483925564,5100,2016-08-15 18:34:58,18,25.476,2260.1604634012,2.952756,0.447388,0.57840881116,157.6,0,0,1024,1024,1024,1024,158.9,0,97,4.207,4.229,4.195,4.235,4.259,4.243,6,GPS_Atti,
49.6209544096377,16.1247956584474,2260.1604634012,2.952756,0.223694,0.55346458464,5200,2016-08-15 18:34:58,18,25.476,2260.1604634012,2.952756,0.447388,0.57840881116,157.6,0,0,1024,1024,1024,1024,158.8,0,97,4.207,4.229,4.195,4.235,4.259,4.243,6,GPS_Atti,Landing Gear Raising
49.6209541925272,16.1247956442889,2260.4885474012,3.28084,0,0.62201773644,5400,2016-08-15 18:34:59,18,23.729,2260.4885474012,3.28084,0.447388,0.62201773644,157.5,0,0,1024,1024,1024,1024,158.8,0,97,3.958,3.984,3.9,3.92,3.969,3.977,6,GPS_Atti,
49.6209542307342,16.1247957041508,2260.4885474012,3.28084,0,0.60282810328,5500,2016-08-15 18:34:59,17,23.729,2260.4885474012,3.28084,0.447388,0.62201773644,157.5,0,0,1024,1024,1024,1024,158.8,0,97,3.958,3.984,3.9,3.92,3.969,3.977,6,GPS_Atti,
49.6209542228598,16.1247956845612,2260.4885474012,3.28084,0,0.60764765724,5600,2016-08-15 18:34:59,17,23.729,2260.4885474012,3.28084,0.447388,0.62201773644,157.5,0,0,1024,1024,1024,1024,158.8,0,97,3.958,3.984,3.9,3.92,3.969,3.977,6,GPS_Atti,
49.6209541194455,16.1247957074261,2260.4885474012,3.28084,0,0.637877317,5700,2016-08-15 18:34:59,17,23.729,2260.4885474012,3.28084,0.447388,0.637877317,157.5,0,0,1024,1024,1024,1024,158.8,0,97,3.958,3.984,3.9,3.92,3.969,3.977,6,GPS_Atti,
49.6209541394057,16.1247957280976,2260.4885474012,3.28084,0,0.6291502826,5800,2016-08-15 18:34:59,17,23.729,2260.4885474012,3.28084,0.447388,0.637877317,157.4,0,0,1024,1024,1024,1024,158.7,0,97,3.958,3.984,3.9,3.92,3.969,3.977,6,GPS_Atti,
49.6209540787847,16.1247954570708,2260.4885474012,3.28084,0,0.68049870944,5900,2016-08-15 18:34:59,18,23.729,2260.4885474012,3.28084,0.447388,0.68049870944,157.4,0,0,1024,1024,1024,1024,158.7,0,97,3.958,3.984,3.9,3.92,3.969,3.977,6,GPS_Atti,
49.6209540622171,16.1247954468376,2260.4885474012,3.28084,0,0.68690618996,6000,2016-08-15 18:34:59,18,23.729,2260.4885474012,3.28084,0.447388,0.68690618996,157.3,0,0,1024,1024,1024,1024,158.7,0,97,3.958,3.984,3.9,3.92,3.969,3.977,6,GPS_Atti,
49.6209541308522,16.1247954050959,2260.4885474012,3.28084,0,0.67125002148,6100,2016-08-15 18:34:59,18,23.729,2260.4885474012,3.28084,0.447388,0.68690618996,157.3,0,0,1024,1024,1024,1024,158.7,0,97,3.958,3.984,3.9,3.92,3.969,3.977,6,GPS_Atti,
49.620954188684,16.1247954806274,2260.4885474012,3.28084,0,0.64378939068,6200,2016-08-15 18:34:59,18,23.729,2260.4885474012,3.28084,0.447388,0.68690618996,157.3,0,0,1024,1024,1024,1024,158.7,0,97,3.958,3.984,3.9,3.92,3.969,3.977,6,GPS_Atti,
49.6209543064832,16.1247954815609,2260.4885474012,3.28084,0,0.60832022944,6400,2016-08-15 18:35:00,18,23.729,2260.4885474012,3.28084,0.447388,0.68690618996,157.3,0,0,1024,1024,1024,1024,158.7,0,97,3.958,3.984,3.9,3.92,3.969,3.977,6,GPS_Atti,
49.6209544625912,16.1247954875096,2260.8166314012,3.608924,0.223694,0.56223098912,6500,2016-08-15 18:35:00,18,23.649,2260.8166314012,3.608924,0.447388,0.68690618996,157.3,0,0,1024,1024,1024,1024,158.6,0,97,3.959,3.965,3.886,3.904,3.969,3.966,6,GPS_Atti,
49.6209544783488,16.1247955452106,2260.8166314012,3.608924,0.223694,0.549212616,6600,2016-08-15 18:35:00,18,23.649,2260.8166314012,3.608924,0.447388,0.68690618996,157.3,0,0,1024,1024,1024,1024,158.6,0,97,3.959,3.965,3.886,3.904,3.969,3.966,6,GPS_Atti,
49.6209546124886,16.1247956136428,2260.4885474012,3.28084,0.223694,0.50111222076,6700,2016-08-15 18:35:00,18,23.649,2260.8166314012,3.608924,0.447388,0.68690618996,157.3,0,0,1024,1024,1024,1024,158.6,0,97,3.959,3.965,3.886,3.904,3.969,3.966,6,GPS_Atti,
49.6209546501698,16.1247956601753,2260.4885474012,3.28084,0.223694,0.483513795,6800,2016-08-15 18:35:00,18,23.649,2260.8166314012,3.608924,0.447388,0.68690618996,157.3,0,0,1024,1024,1024,1024,158.6,0,97,3.959,3.965,3.886,3.904,3.969,3.966,6,GPS_Atti,
49.6209548476394,16.1247957917694,2260.4885474012,3.28084,0.223694,0.40916011808,6900,2016-08-15 18:35:00,18,23.649,2260.8166314012,3.608924,0.447388,0.68690618996,157.3,0,0,1024,1024,1024,1024,158.6,0,97,3.959,3.965,3.886,3.904,3.969,3.966,6,GPS_Atti,
49.620954947633,16.1247958979341,2260.4885474012,3.28084,0.223694,0.36551510356,7000,2016-08-15 18:35:00,18,23.649,2260.8166314012,3.608924,0.447388,0.68690618996,157.3,0,0,1024,1024,1024,1024,158.6,0,97,3.959,3.965,3.886,3.904,3.969,3.966,6,GPS_Atti,
49.6209550924733,16.1247959914767,2260.4885474012,3.28084,0,0.313174878788,7100,2016-08-15 18:35:00,18,23.649,2260.8166314012,3.608924,0.447388,0.68690618996,157.4,0,0,1024,1024,1024,1024,158.5,0,97,3.959,3.965,3.886,3.904,3.969,3.966,6,GPS_Atti,
49.6209552016783,16.1247960175509,2260.4885474012,3.28084,0,0.283446859464,7300,2016-08-15 18:35:00,18,23.649,2260.8166314012,3.608924,0.447388,0.68690618996,157.5,0,0,1024,1024,1024,1024,158.5,0,97,3.959,3.965,3.886,3.904,3.969,3.966,6,GPS_Atti,
49.620955225104,16.1247960271257,2260.4885474012,3.28084,0,0.276645678144,7400,2016-08-15 18:35:01,18,23.649,2260.8166314012,3.608924,0.447388,0.68690618996,157.5,0,0,1024,1024,1024,1024,158.5,0,97,3.959,3.965,3.886,3.904,3.969,3.966,6,GPS_Atti,
49.62095511511,16.1247958738214,2260.4885474012,3.28084,0,0.32954725464,7500,2016-08-15 18:35:01,18,23.649,2260.8166314012,3.608924,0.447388,0.68690618996,157.4,0,0,1024,1024,1024,1024,158.5,0,97,3.959,3.965,3.886,3.904,3.969,3.966,6,GPS_Atti,
49.6209550990503,16.1247958497245,2260.4885474012,3.28084,0,0.33762140188,7600,2016-08-15 18:35:01,18,23.609,2260.8166314012,3.608924,0.447388,0.68690618996,157.4,0,0,1024,1024,1024,1024,158.5,0,97,3.941,3.961,3.881,3.883,3.97,3.975,6,GPS_Atti,
49.6209552926174,16.124795931289,2260.4885474012,3.28084,0,0.2830954815,7700,2016-08-15 18:35:01,18,23.609,2260.8166314012,3.608924,0.447388,0.68690618996,157.3,0,0,1024,1024,1024,1024,158.5,0,97,3.941,3.961,3.881,3.883,3.97,3.975,6,GPS_Atti,
49.6209552745527,16.1247959158414,2260.4885474012,3.28084,0,0.289452765168,7800,2016-08-15 18:35:01,18,23.609,2260.8166314012,3.608924,0.447388,0.68690618996,157.3,0,0,1024,1024,1024,1024,158.5,0,97,3.941,3.961,3.881,3.883,3.97,3.975,6,GPS_Atti,
49.6209553554714,16.1247960400262,2260.4885474012,3.28084,0,0.249746727152,8000,2016-08-15 18:35:01,18,23.609,2260.8166314012,3.608924,0.447388,0.68690618996,157.3,0,0,1024,1024,1024,1024,158.5,0,97,3.941,3.961,3.881,3.883,3.97,3.975,6,GPS_Atti,
49.6209555336502,16.1247961571592,2260.4885474012,3.28084,0,0.201460308284,8100,2016-08-15 18:35:01,18,23.609,2260.8166314012,3.608924,0.447388,0.68690618996,157.2,0,0,1024,1024,1024,1024,158.5,0,97,3.941,3.961,3.881,3.883,3.97,3.975,6,GPS_Atti,
49.6209555825359,16.1247962097927,2260.4885474012,3.28084,0,0.1858759902,8200,2016-08-15 18:35:01,18,23.609,2260.8166314012,3.608924,0.447388,0.68690618996,157.2,0,0,1024,1024,1024,1024,158.5,0,97,3.941,3.961,3.881,3.883,3.97,3.975,6,GPS_Atti,
49.6209556544205,16.1247963087226,2260.4885474012,3.28084,0,0.160414703296,8300,2016-08-15 18:35:02,18,23.609,2260.8166314012,3.608924,0.447388,0.68690618996,157.3,0,0,1024,1024,1024,1024,158.5,0,97,3.941,3.961,3.881,3.883,3.97,3.975,6,GPS_Atti,
49.6209556260228,16.1247962831079,2260.4885474012,3.28084,0,0.16688648828,8400,2016-08-15 18:35:02,18,23.609,2260.8166314012,3.608924,0.447388,0.68690618996,157.4,0,0,1024,1024,1024,1024,158.5,0,97,3.941,3.961,3.881,3.883,3.97,3.975,6,GPS_Atti,
49.6209558677076,16.1247966098822,2260.4885474012,3.28084,0,0.117386158612,8500,2016-08-15 18:35:02,18,23.609,2260.8166314012,3.608924,0.447388,0.68690618996,157.5,0,0,1024,1024,1024,1024,158.5,0,97,3.941,3.961,3.881,3.883,3.97,3.975,6,GPS_Atti,
49.6209560339157,16.1247967312281,2260.4885474012,3.28084,0,0.149708666208,8700,2016-08-15 18:35:02,18,23.609,2260.8166314012,3.608924,0.447388,0.68690618996,157.6,0,0,1024,1024,1024,1024,158.5,0,97,3.941,3.961,3.881,3.883,3.97,3.975,6,GPS_Atti,
49.6209561162975,16.124796821161,2260.4885474012,3.28084,0,0.171536750896,8800,2016-08-15 18:35:02,18,23.509,2260.8166314012,3.608924,0.447388,0.68690618996,157.6,0,0,1024,1024,1024,1024,158.5,0,97,3.933,3.939,3.866,3.875,3.941,3.947,6,GPS_Atti,
49.6209563411508,16.1247971639517,2260.4885474012,3.28084,0,0.252489181308,8900,2016-08-15 18:35:02,18,23.509,2260.8166314012,3.608924,0.447388,0.68690618996,157.6,0,0,1024,1024,1024,1024,158.5,0,97,3.933,3.939,3.866,3.875,3.941,3.947,6,GPS_Atti,
49.6209563258073,16.1247971708219,2260.4885474012,3.28084,0,0.247249351744,9000,2016-08-15 18:35:02,18,23.509,2260.8166314012,3.608924,0.447388,0.68690618996,157.6,0,0,1024,1024,1024,1024,158.5,0,97,3.933,3.939,3.866,3.875,3.941,3.947,6,GPS_Atti,
49.6209566173482,16.1247974936794,2260.4885474012,3.28084,0,0.36969161288,9100,2016-08-15 18:35:02,18,23.509,2260.8166314012,3.608924,0.447388,0.68690618996,157.6,0,0,1024,1024,1024,1024,158.5,0,97,3.933,3.939,3.866,3.875,3.941,3.947,6,GPS_Atti,
49.6209566718483,16.1247975773304,2260.4885474012,3.28084,0,0.395095157,9200,2016-08-15 18:35:02,18,23.509,2260.8166314012,3.608924,0.447388,0.68690618996,157.6,0,0,1024,1024,1024,1024,158.5,0,97,3.933,3.939,3.866,3.875,3.941,3.947,6,GPS_Atti,
49.620956818231,16.1247976546012,2260.4885474012,3.28084,0,0.45151576248,9400,2016-08-15 18:35:03,18,23.509,2260.8166314012,3.608924,0.447388,0.68690618996,157.6,0,0,1024,1024,1024,1024,158.5,0,97,3.933,3.939,3.866,3.875,3.941,3.947,6,GPS_Atti,
49.6209567622655,16.1247976482158,2260.8166314012,3.608924,0,0.43189305844,9500,2016-08-15 18:35:03,18,23.509,2260.8166314012,3.608924,0.447388,0.68690618996,157.5,0,0,1024,1024,1024,1024,158.5,0,97,3.933,3.939,3.866,3.875,3.941,3.947,6,GPS_Atti,
49.6209567035208,16.1247975587158,2260.8166314012,3.608924,0,0.40443898932,9600,2016-08-15 18:35:03,18,23.509,2260.8166314012,3.608924,0.447388,0.68690618996,157.5,0,0,1024,1024,1024,1024,158.5,0,97,3.933,3.939,3.866,3.875,3.941,3.947,6,GPS_Atti,
49.6209566249713,16.1247974576737,2260.8166314012,3.608924,0,0.36967848952,9700,2016-08-15 18:35:03,18,23.509,2260.8166314012,3.608924,0.447388,0.68690618996,157.5,0,0,1024,1024,1024,1024,158.5,0,97,3.933,3.939,3.866,3.875,3.941,3.947,6,GPS_Atti,
49.6209565856211,16.1247974307738,2260.8166314012,3.608924,0,0.35407809532,9800,2016-08-15 18:35:03,18,23.509,2260.8166314012,3.608924,0.447388,0.68690618996,157.5,0,0,1024,1024,1024,1024,158.5,0,97,3.933,3.939,3.866,3.875,3.941,3.947,6,GPS_Atti,
49.6209565535921,16.1247974193758,2260.4885474012,3.28084,0,0.34211943352,9900,2016-08-15 18:35:03,18,23.491,2260.8166314012,3.608924,0.447388,0.68690618996,157.6,0,0,1024,1024,1024,1024,158.5,0,97,3.924,3.941,3.864,3.868,3.944,3.943,6,GPS_Atti,
49.6209565241645,16.1247973934296,2260.4885474012,3.28084,0,0.330052504,10000,2016-08-15 18:35:03,18,23.491,2260.8166314012,3.608924,0.447388,0.68690618996,157.6,0,0,1024,1024,1024,1024,158.5,0,97,3.924,3.941,3.864,3.868,3.944,3.943,6,GPS_Atti,
49.6209563997267,16.124797218876,2260.8166314012,3.608924,0,0.275868447148,10200,2016-08-15 18:35:03,18,23.491,2260.8166314012,3.608924,0.447388,0.68690618996,157.6,0,0,1024,1024,1024,1024,158.5,0,97,3.924,3.941,3.864,3.868,3.944,3.943,6,GPS_Atti,
49.6209563267491,16.1247971260437,2260.8166314012,3.608924,0,0.24595473228,10300,2016-08-15 18:35:03,18,23.491,2260.8166314012,3.608924,0.447388,0.68690618996,157.6,0,0,1024,1024,1024,1024,158.5,0,97,3.924,3.941,3.864,3.868,3.944,3.943,6,GPS_Atti,
49.6209563283445,16.1247971058879,2260.8166314012,3.608924,0,0.245943577424,10400,2016-08-15 18:35:04,18,23.491,2260.8166314012,3.608924,0.447388,0.68690618996,157.6,0,0,1024,1024,1024,1024,158.5,0,97,3.924,3.941,3.864,3.868,3.944,3.943,6,GPS_Atti,
49.6209562359209,16.1247969024505,2260.8166314012,3.608924,0,0.21157645034,10500,2016-08-15 18:35:04,18,23.491,2260.8166314012,3.608924,0.447388,0.68690618996,157.6,0,0,1024,1024,1024,1024,158.5,0,97,3.924,3.941,3.864,3.868,3.944,3.943,6,GPS_Atti,
49.6209562736556,16.12479690598,2260.8166314012,3.608924,0,0.225212933716,10600,2016-08-15 18:35:04,18,23.491,2260.8166314012,3.608924,0.447388,0.68690618996,157.6,0,0,1024,1024,1024,1024,158.5,0,97,3.924,3.941,3.864,3.868,3.944,3.943,6,GPS_Atti,
49.6209562914872,16.1247969161147,2260.8166314012,3.608924,0,0.231508865676,10700,2016-08-15 18:35:04,18,23.491,2260.8166314012,3.608924,0.447388,0.68690618996,157.5,0,0,1024,1024,1024,1024,158.5,0,97,3.924,3.941,3.864,3.868,3.944,3.943,6,GPS_Atti,
49.6209562205226,16.1247968500849,2260.8166314012,3.608924,0,0.207556437088,10900,2016-08-15 18:35:04,18,23.491,2260.8166314012,3.608924,0.447388,0.68690618996,157.4,0,0,1024,1024,1024,1024,158.5,0,97,3.924,3.941,3.864,3.868,3.944,3.943,6,GPS_Atti,
49.6209562512772,16.1247969001427,2260.8166314012,3.608924,0,0.217205715612,11000,2016-08-15 18:35:04,18,23.491,2260.8166314012,3.608924,0.447388,0.68690618996,157.4,0,0,1024,1024,1024,1024,158.5,0,97,3.924,3.941,3.864,3.868,3.944,3.943,6,GPS_Atti,
49.6209562441864,16.1247967804613,2260.8166314012,3.608924,0,0.219164049008,11100,2016-08-15 18:35:04,18,23.472,2260.8166314012,3.608924,0.447388,0.68690618996,157.4,0,0,1024,1024,1024,1024,158.5,0,97,3.926,3.932,3.865,3.864,3.934,3.947,6,GPS_Atti,
49.6209562446144,16.1247967668719,2260.8166314012,3.608924,0,0.220054797068,11200,2016-08-15 18:35:04,18,23.472,2260.8166314012,3.608924,0.447388,0.68690618996,157.4,0,0,1024,1024,1024,1024,158.5,0,97,3.926,3.932,3.865,3.864,3.934,3.947,6,GPS_Atti,
49.6209562433607,16.1247967142938,2260.4885474012,3.28084,0,0.222886818156,11300,2016-08-15 18:35:05,17,23.472,2260.8166314012,3.608924,0.447388,0.68690618996,157.4,0,0,1024,1024,1024,1024,158.5,0,97,3.926,3.932,3.865,3.864,3.934,3.947,6,GPS_Atti,
49.6209561284985,16.1247967609827,2260.4885474012,3.28084,0,0.179586291836,11500,2016-08-15 18:35:05,17,23.472,2260.8166314012,3.608924,0.447388,0.68690618996,157.4,0,0,1024,1024,1024,1024,158.5,0,97,3.926,3.932,3.865,3.864,3.934,3.947,6,GPS_Atti,Landing Gear Raised
49.6209561049666,16.12479682558,2260.4885474012,3.28084,0,0.167273299316,11600,2016-08-15 18:35:05,17,23.472,2260.8166314012,3.608924,0.447388,0.68690618996,157.5,0,0,1024,1024,1024,1024,158.5,0,97,3.926,3.932,3.865,3.864,3.934,3.947,6,GPS_Atti,
49.620956105351,16.1247968302681,2260.4885474012,3.28084,0,0.16716043842,11700,2016-08-15 18:35:05,17,23.472,2260.8166314012,3.608924,0.447388,0.68690618996,157.4,0,0,1024,1024,1024,1024,158.5,0,97,3.926,3.932,3.865,3.864,3.934,3.947,6,GPS_Atti,
49.6209561079098,16.1247968289493,2260.4885474012,3.28084,0,0.16813976916,11800,2016-08-15 18:35:05,17,23.472,2260.8166314012,3.608924,0.447388,0.68690618996,157.4,0,0,1024,1024,1024,1024,158.5,0,97,3.926,3.932,3.865,3.864,3.934,3.947,6,GPS_Atti,
49.6209560010541,16.1247968729071,2260.4885474012,3.28084,0,0.127827103828,11900,2016-08-15 18:35:05,17,23.472,2260.8166314012,3.608924,0.447388,0.68690618996,157.4,0,0,1024,1024,1024,1024,158.5,0,97,3.926,3.932,3.865,3.864,3.934,3.947,6,GPS_Atti,
49.6209559979568,16.1247968717353,2260.8166314012,3.608924,0,0.126782156288,12000,2016-08-15 18:35:05,17,23.472,2260.8166314012,3.608924,0.447388,0.68690618996,157.4,0,0,1024,1024,1024,1024,158.5,0,97,3.926,3.932,3.865,3.864,3.934,3.947,6,GPS_Atti,
49.6209559987533,16.1247969756017,2260.8166314012,3.608924,0,0.124123035468,12100,2016-08-15 18:35:05,17,23.472,2260.8166314012,3.608924,0.447388,0.68690618996,157.4,0,0,1024,1024,1024,1024,158.5,0,97,3.926,3.932,3.865,3.864,3.934,3.947,6,GPS_Atti,
49.6209559098242,16.1247969665201,2260.8166314012,3.608924,0,0.091778546244,12300,2016-08-15 18:35:05,17,23.43,2260.8166314012,3.608924,0.447388,0.68690618996,157.5,0,0,1024,1024,1024,1024,158.5,0,97,3.915,3.922,3.847,3.864,3.921,3.932,6,GPS_Atti,
49.6209559324981,16.1247969613326,2260.8166314012,3.608924,0,0.100107942836,12400,2016-08-15 18:35:06,17,23.43,2260.8166314012,3.608924,0.447388,0.68690618996,157.4,0,0,1024,1024,1024,1024,158.5,0,97,3.915,3.922,3.847,3.864,3.921,3.932,6,GPS_Atti,
49.6209558296709,16.1247969655058,2260.8166314012,3.608924,0,0.062615815652,12500,2016-08-15 18:35:06,18,23.43,2260.8166314012,3.608924,0.447388,0.68690618996,157.5,0,0,1024,1024,1024,1024,158.5,0,97,3.915,3.922,3.847,3.864,3.921,3.932,6,GPS_Atti,
49.6209558395723,16.1247969654107,2260.8166314012,3.608924,0,0.066218506056,12600,2016-08-15 18:35:06,18,23.43,2260.8166314012,3.608924,0.447388,0.68690618996,157.5,0,0,1024,1024,1024,1024,158.5,0,97,3.915,3.922,3.847,3.864,3.921,3.932,6,GPS_Atti,
49.620955850529,16.1247969551608,2260.8166314012,3.608924,0,0.07042487102,12700,2016-08-15 18:35:06,18,23.43,2260.8166314012,3.608924,0.447388,0.68690618996,157.5,0,0,1024,1024,1024,1024,158.5,0,97,3.915,3.922,3.847,3.864,3.921,3.932,6,GPS_Atti,
49.6209558565091,16.1247968193279,2260.8166314012,3.608924,0,0.082398624684,12900,2016-08-15 18:35:06,18,23.43,2260.8166314012,3.608924,0.447388,0.68690618996,157.5,0,0,1024,1024,1024,1024,158.5,0,97,3.915,3.922,3.847,3.864,3.921,3.932,6,GPS_Atti,
49.6209558747476,16.1247968278898,2260.8166314012,3.608924,0,0.087395344004,13000,2016-08-15 18:35:06,18,23.43,2260.8166314012,3.608924,0.447388,0.68690618996,157.5,0,0,1024,1024,1024,1024,158.5,0,97,3.915,3.922,3.847,3.864,3.921,3.932,6,GPS_Atti,
49.6209557863397,16.1247968067989,2260.8166314012,3.608924,0,0.06318569756,13100,2016-08-15 18:35:06,18,23.43,2260.8166314012,3.608924,0.447388,0.68690618996,157.5,0,0,1024,1024,1024,1024,158.5,0,97,3.915,3.922,3.847,3.864,3.921,3.932,6,GPS_Atti,
49.6209558003482,16.1247968137947,2260.8166314012,3.608924,0,0.066003282952,13200,2016-08-15 18:35:06,18,23.43,2260.8166314012,3.608924,0.447388,0.68690618996,157.5,0,0,1024,1024,1024,1024,158.5,0,97,3.915,3.922,3.847,3.864,3.921,3.932,6,GPS_Atti,
49.6209558087944,16.1247968062822,2260.4885474012,3.28084,0,0.069522968104,13300,2016-08-15 18:35:06,18,23.43,2260.8166314012,3.608924,0.447388,0.68690618996,157.5,0,0,1024,1024,1024,1024,158.5,0,97,3.915,3.922,3.847,3.864,3.921,3.932,6,GPS_Atti,
49.6209557696732,16.1247967817522,2260.8166314012,3.608924,0,0.063270671316,13400,2016-08-15 18:35:07,18,23.429,2260.8166314012,3.608924,0.447388,0.68690618996,157.5,0,0,1024,1024,1024,1024,158.5,0,97,3.914,3.92,3.843,3.859,3.931,3.933,6,GPS_Atti,
49.6209557778539,16.124796784136,2260.8166314012,3.608924,0,0.06480315168,13500,2016-08-15 18:35:07,17,23.429,2260.8166314012,3.608924,0.447388,0.68690618996,157.5,0,0,1024,1024,1024,1024,158.5,0,97,3.914,3.92,3.843,3.859,3.931,3.933,6,GPS_Atti,
49.6209557778539,16.124796784136,2260.8166314012,3.608924,0,0.06480315168,13500,2016-08-15 18:35:07,17,23.429,2260.8166314012,3.608924,0.447388,0.68690618996,157.5,0,0,1024,1024,1024,1024,158.5,0,97,3.914,3.92,3.843,3.859,3.931,3.933,6,GPS_Atti,
49.6209556540735,16.1247968448835,2260.8166314012,3.608924,0,0.0337188331,13700,2016-08-15 18:35:07,17,23.429,2260.8166314012,3.608924,0.447388,0.68690618996,157.4,0,0,1024,1024,1024,1024,158.5,0,97,3.914,3.92,3.843,3.859,3.931,3.933,6,GPS_Atti,
49.6209556625723,16.1247968545563,2260.8166314012,3.608924,0,0.0314244104544,13800,2016-08-15 18:35:07,17,23.429,2260.8166314012,3.608924,0.447388,0.68690618996,157.4,0,0,1024,1024,1024,1024,158.5,0,97,3.914,3.92,3.843,3.859,3.931,3.933,6,GPS_Atti,
49.6209556673004,16.1247969496056,2260.4885474012,3.28084,0,0.0094686354736,13900,2016-08-15 18:35:07,17,23.429,2260.8166314012,3.608924,0.447388,0.68690618996,157.4,0,0,1024,1024,1024,1024,158.5,0,97,3.914,3.92,3.843,3.859,3.931,3.933,6,GPS_Atti,
49.6209556777217,16.1247969273269,2260.4885474012,3.28084,0,0.0158076448628,14000,2016-08-15 18:35:07,17,23.429,2260.8166314012,3.608924,0.447388,0.68690618996,157.4,0,0,1024,1024,1024,1024,158.5,0,97,3.914,3.92,3.843,3.859,3.931,3.933,6,GPS_Atti,
49.6209556400748,16.1247969640381,2260.4885474012,3.28084,0,0.0087327430616,14100,2016-08-15 18:35:07,17,23.429,2260.8166314012,3.608924,0.447388,0.68690618996,157.4,0,0,1024,1024,1024,1024,158.5,0,97,3.914,3.92,3.843,3.859,3.931,3.933,6,GPS_Atti,
49.620955656529,16.124796971871,2260.4885474012,3.28084,0,0.003742290146,14200,2016-08-15 18:35:07,17,23.429,2260.8166314012,3.608924,0.447388,0.68690618996,157.5,0,0,1024,1024,1024,1024,158.5,0,97,3.914,3.92,3.843,3.859,3.931,3.933,6,GPS_Atti,
49.6209556785504,16.1247970893864,2260.4885474012,3.28084,0,0.025184876134,14300,2016-08-15 18:35:08,19,23.429,2260.8166314012,3.608924,0.447388,0.68690618996,157.5,0,0,1024,1024,1043,1024,158.5,0,97,3.914,3.92,3.843,3.859,3.931,3.933,6,GPS_Atti,
49.6209556052706,16.1247972319436,2260.4885474012,3.28084,0,0.061000001952,14500,2016-08-15 18:35:08,19,23.439,2260.8166314012,3.608924,0.447388,0.68690618996,157.5,0,0,1024,1024,1179,1024,158.5,0,97,3.923,3.934,3.851,3.872,3.926,3.934,6,GPS_Atti,
49.6209556335721,16.1247972257896,2260.4885474012,3.28084,0,0.057091865344,14600,2016-08-15 18:35:08,19,23.439,2260.8166314012,3.608924,0.447388,0.68690618996,157.5,0,0,1024,1024,1329,1024,158.5,0,97,3.923,3.934,3.851,3.872,3.926,3.934,6,GPS_Atti,
49.6209557538118,16.1247972385991,2260.4885474012,3.28084,0,0.068790356532,14700,2016-08-15 18:35:09,19,23.439,2260.8166314012,3.608924,0.447388,0.68690618996,157.4,0,0,1024,1024,1384,1024,158.5,0,97,3.923,3.934,3.851,3.872,3.926,3.934,6,GPS_Atti,
49.6209557593999,16.1247971992212,2260.8166314012,3.608924,0,0.062121721148,14800,2016-08-15 18:35:09,19,23.439,2260.8166314012,3.608924,0.447388,0.68690618996,157.4,0,0,1024,1024,1355,1024,158.5,0,97,3.923,3.934,3.851,3.872,3.926,3.934,6,GPS_Atti,
49.6209557654621,16.1247972293981,2261.1447154012,3.937008,0,0.069223099328,14900,2016-08-15 18:35:09,19,23.439,2261.1447154012,3.937008,0.447388,0.68690618996,157.3,0,0,1024,1024,1322,1024,158.5,0,97,3.923,3.934,3.851,3.872,3.926,3.934,6,GPS_Atti,
49.6209557398278,16.1247971323206,2261.4727994012,4.265092,0,0.045292652368,15000,2016-08-15 18:35:09,19,23.439,2261.4727994012,4.265092,0.447388,0.68690618996,157.2,0,0,1024,1024,1322,1024,158.5,0,97,3.923,3.934,3.851,3.872,3.926,3.934,6,GPS_Atti,
49.620955744153,16.1247970767042,2261.8008834012,4.593176,0,0.037674869972,15100,2016-08-15 18:35:09,19,23.439,2261.8008834012,4.593176,0.447388,0.68690618996,157.2,0,0,1024,1024,1317,1024,158.5,0,97,3.923,3.934,3.851,3.872,3.926,3.934,6,GPS_Atti,
49.6209557442783,16.1247970635032,2262.1289674012,4.92126,0,0.036058728188,15200,2016-08-15 18:35:09,19,23.439,2262.1289674012,4.92126,0.447388,0.68690618996,157.3,0,0,1024,1024,1321,1024,158.5,0,97,3.923,3.934,3.851,3.872,3.926,3.934,6,GPS_Atti,
49.6209556073453,16.1247970974004,2263.1132194012,5.905512,0,0.0320407162484,15400,2016-08-15 18:35:09,19,23.439,2263.1132194012,5.905512,0.447388,0.68690618996,157.4,0,0,1024,1024,1324,1024,158.5,0,97,3.923,3.934,3.851,3.872,3.926,3.934,6,GPS_Atti,
49.620955643426,16.1247971550428,2263.4413034012,6.233596,0,0.040019358236,15500,2016-08-15 18:35:09,18,23.439,2263.4413034012,6.233596,0.447388,0.68690618996,157.4,0,0,1024,1024,1321,1024,158.5,0,97,3.923,3.934,3.851,3.872,3.926,3.934,6,GPS_Atti,
49.6209555516879,16.124797359484,2264.0974714012,6.889764,0,0.09622211594,15600,2016-08-15 18:35:09,18,23.413,2264.0974714012,6.889764,0.447388,0.68690618996,157.4,0,0,1024,1024,1316,1024,158.5,0,96,3.917,3.925,3.831,3.861,3.922,3.932,6,GPS_Atti,
49.6209555016142,16.1247975840331,2264.4255554012,7.217848,0,0.1522227739,15700,2016-08-15 18:35:09,19,23.413,2264.4255554012,7.217848,0.447388,0.68690618996,157.4,0,0,1024,1024,1316,1024,158.5,0,96,3.917,3.925,3.831,3.861,3.922,3.932,6,GPS_Atti,
49.6209555558337,16.124797595682,2264.7536394012,7.545932,0,0.14859580528,15800,2016-08-15 18:35:10,19,23.413,2264.7536394012,7.545932,0.447388,0.68690618996,157.4,0,0,1024,1024,1316,1024,158.5,0,96,3.917,3.925,3.831,3.861,3.922,3.932,6,GPS_Atti,
49.6209556584726,16.1247978649679,2265.4098074012,8.2021,0,0.207434061756,15900,2016-08-15 18:35:10,19,23.413,2265.4098074012,8.2021,0.447388,0.68690618996,157.4,0,0,1024,1024,1317,1024,158.5,0,96,3.917,3.925,3.831,3.861,3.922,3.932,6,GPS_Atti,
49.6209557009904,16.1247978442092,2265.7378914012,8.530184,0,0.203116148232,16000,2016-08-15 18:35:10,19,23.413,2265.7378914012,8.530184,0.447388,0.68690618996,157.4,0,0,1024,1024,1308,1024,158.5,0,96,3.917,3.925,3.831,3.861,3.922,3.932,6,GPS_Atti,
49.6209556406577,16.1247979007179,2266.3940594012,9.186352,0,0.215983602712,16100,2016-08-15 18:35:10,19,23.413,2266.3940594012,9.186352,0.447388,0.68690618996,157.4,0,0,1024,1024,1301,1024,158.5,0,96,3.917,3.925,3.831,3.861,3.922,3.932,6,GPS_Atti,
49.6209556228039,16.124797786779,2266.7221434012,9.514436,0,0.18940453362,16200,2016-08-15 18:35:10,19,23.413,2266.7221434012,9.514436,0.447388,0.68690618996,157.3,0,0,1024,1024,1299,1024,158.5,0,96,3.917,3.925,3.831,3.861,3.922,3.932,6,GPS_Atti,
49.6209557556662,16.1247979327647,2267.0502274012,9.84252,0,0.226245414064,16300,2016-08-15 18:35:10,19,23.413,2267.0502274012,9.84252,0.447388,0.68690618996,157.4,0,0,1024,1024,1292,1024,158.5,0,96,3.917,3.925,3.831,3.861,3.922,3.932,6,GPS_Atti,
49.6209557779293,16.1247978970745,2267.7063954012,10.498688,0,0.219383537204,16400,2016-08-15 18:35:10,19,23.413,2267.7063954012,10.498688,0.447388,0.68690618996,157.4,0,0,1024,1024,1294,1024,158.5,0,96,3.917,3.925,3.831,3.861,3.922,3.932,6,GPS_Atti,
49.6209558637664,16.1247980736929,2268.3625634012,11.154856,0,0.2674540768,16500,2016-08-15 18:35:10,19,23.413,2268.3625634012,11.154856,0.447388,0.68690618996,157.4,0,0,1024,1024,1289,1024,158.5,0,96,3.917,3.925,3.831,3.861,3.922,3.932,6,GPS_Atti,
49.6209559776229,16.1247981867891,2269.3468154012,12.139108,0,0.30645998356,16700,2016-08-15 18:35:10,19,23.369,2269.3468154012,12.139108,0.447388,0.68690618996,157.4,0,0,1024,1024,1286,1024,158.5,0,96,3.842,3.857,3.841,3.844,3.914,3.931,6,GPS_Atti,
49.6209560524485,16.1247983899226,2270.0029834012,12.795276,0,0.36131234752,16900,2016-08-15 18:35:11,19,23.369,2270.0029834012,12.795276,0.447388,0.68690618996,157.5,0,0,1024,1024,1024,1024,158.5,0,96,3.842,3.857,3.841,3.844,3.914,3.931,6,GPS_Atti,
49.620956062439,16.1247983901278,2270.3310674012,13.12336,0,0.36282153392,17000,2016-08-15 18:35:11,19,23.369,2270.3310674012,13.12336,0.447388,0.68690618996,157.5,0,0,1024,1024,952,1015,158.5,0,96,3.842,3.857,3.841,3.844,3.914,3.931,6,GPS_Atti,
49.6209562676456,16.1247984786749,2270.3310674012,13.12336,0,0.41667980336,17100,2016-08-15 18:35:11,19,23.369,2270.3310674012,13.12336,0.447388,0.68690618996,157.5,0,0,1024,1024,826,898,158.4,0,96,3.842,3.857,3.841,3.844,3.914,3.931,6,GPS_Atti,
49.6209562714803,16.1247984491061,2270.6591514012,13.451444,0,0.41154200792,17200,2016-08-15 18:35:11,19,23.369,2270.6591514012,13.451444,0.447388,0.68690618996,157.1,0,0,1024,1024,649,923,157.8,0,96,3.842,3.857,3.841,3.844,3.914,3.931,6,GPS_Atti,
49.6209564599131,16.1247988751503,2270.6591514012,13.451444,0,0.53344489896,17400,2016-08-15 18:35:11,19,23.369,2270.6591514012,13.451444,0.447388,0.68690618996,154.8,0,0,1024,1024,516,817,156.4,0,96,3.842,3.857,3.841,3.844,3.914,3.931,6,GPS_Atti,
49.6209566818743,16.1247989983438,2270.6591514012,13.451444,0,0.60440618732,17500,2016-08-15 18:35:11,19,23.369,2270.6591514012,13.451444,0.447388,0.68690618996,153.2,0,0,1024,1024,510,857,156.4,0,96,3.842,3.857,3.841,3.844,3.914,3.931,6,GPS_Atti,
49.6209566818743,16.1247989983438,2270.6591514012,13.451444,0,0.60440618732,17500,2016-08-15 18:35:11,19,23.369,2270.6591514012,13.451444,0.447388,0.68690618996,153.2,0,0,1024,1024,510,857,155.1,0,96,3.842,3.857,3.841,3.844,3.914,3.931,6,GPS_Atti,
49.620956683828,16.1247989722455,2270.6591514012,13.451444,0,0.60000986172,17600,2016-08-15 18:35:11,19,23.369,2270.6591514012,13.451444,0.447388,0.68690618996,151.2,0,0,1024,1024,561,894,153.9,0,96,3.842,3.857,3.841,3.844,3.914,3.931,6,GPS_Atti,
49.6209568741968,16.124799036844,2270.0029834012,12.795276,0,0.65677823624,17700,2016-08-15 18:35:12,19,23.369,2270.6591514012,13.451444,0.447388,0.68690618996,149.1,0,0,1024,1024,547,830,152.8,0,96,3.842,3.857,3.841,3.844,3.914,3.931,6,GPS_Atti,
49.6209568650751,16.1247989285164,2269.6748994012,12.467192,0,0.63581694948,17800,2016-08-15 18:35:12,19,23.154,2270.6591514012,13.451444,0.447388,0.68690618996,147.1,0,0,1024,1024,822,1021,151.5,0,96,3.882,3.894,3.813,3.822,3.899,3.842,6,GPS_Atti,
49.6209570129702,16.1247990947178,2268.6906474012,11.48294,0,0.70162075736,18000,2016-08-15 18:35:12,19,23.154,2270.6591514012,13.451444,0.447388,0.70162075736,145.1,0,0,1024,1024,1106,1024,150.2,0,96,3.882,3.894,3.813,3.822,3.899,3.842,6,GPS_Atti,
49.6209572231754,16.1247989137657,2268.0344794012,10.826772,0.223694,0.73018046956,18100,2016-08-15 18:35:12,19,23.154,2270.6591514012,13.451444,0.447388,0.73018046956,144.8,0,0,1024,1024,1126,1024,149.7,0,96,3.882,3.894,3.813,3.822,3.899,3.842,6,GPS_Atti,
49.6209571711367,16.1247987769825,2267.7063954012,10.498688,0.223694,0.6953084212,18200,2016-08-15 18:35:12,19,23.154,2270.6591514012,13.451444,0.447388,0.73018046956,144.6,0,0,1024,1024,1125,1024,149.3,0,96,3.882,3.894,3.813,3.822,3.899,3.842,6,GPS_Atti,
49.620957143612,16.1247988960777,2267.7063954012,10.498688,0,0.7050361118,18300,2016-08-15 18:35:12,19,23.154,2270.6591514012,13.451444,0.447388,0.73018046956,144.5,0,0,1024,1024,1100,1024,148.9,0,96,3.882,3.894,3.813,3.822,3.899,3.842,6,GPS_Atti,
49.6209570590283,16.1247988327603,2267.3783114012,10.170604,0,0.67179464092,18400,2016-08-15 18:35:12,19,23.154,2270.6591514012,13.451444,0.447388,0.73018046956,144.5,0,0,1024,1024,1024,1024,148.7,0,96,3.882,3.894,3.813,3.822,3.899,3.842,6,GPS_Atti,
49.6209568890937,16.1247987416402,2267.3783114012,10.170604,0.223694,0.61112534764,18500,2016-08-15 18:35:12,19,23.154,2270.6591514012,13.451444,0.447388,0.73018046956,144.5,0,0,1024,1024,1024,1024,148.5,0,96,3.882,3.894,3.813,3.822,3.899,3.842,6,GPS_Atti,
49.6209566504336,16.1247986647493,2267.3783114012,10.170604,0,0.5367782324,18700,2016-08-15 18:35:12,19,23.154,2270.6591514012,13.451444,0.447388,0.73018046956,144.6,0,0,1024,1024,1024,1348,148.3,0,96,3.882,3.894,3.813,3.822,3.899,3.842,6,GPS_Atti,
49.6209565658469,16.1247986010989,2267.3783114012,10.170604,0,0.5050197012,18800,2016-08-15 18:35:13,19,23.154,2270.6591514012,13.451444,0.447388,0.73018046956,146.6,0,0,1024,1024,1024,1318,149.9,0,96,3.882,3.894,3.813,3.822,3.899,3.842,6,GPS_Atti,
49.6209564948898,16.1247986907416,2267.3783114012,10.170604,0,0.50516405816,18900,2016-08-15 18:35:13,19,23.154,2270.6591514012,13.451444,0.447388,0.73018046956,150.5,0,0,1024,1024,1024,1327,151.6,0,96,3.882,3.894,3.813,3.822,3.899,3.842,6,GPS_Atti,
49.620956381958,16.1247987819232,2267.3783114012,10.170604,0,0.49956366428,19000,2016-08-15 18:35:13,19,23.706,2270.6591514012,13.451444,0.447388,0.73018046956,155,0,0,1024,1024,1024,1283,153.5,0,96,3.964,3.967,3.969,3.891,4.003,3.963,6,GPS_Atti,
49.6209563390589,16.1247986970852,2267.3783114012,10.170604,0,0.4742782304,19100,2016-08-15 18:35:13,18,23.706,2270.6591514012,13.451444,0.447388,0.73018046956,159.6,0,0,1024,1024,1024,1320,155.6,0,96,3.964,3.967,3.969,3.891,4.003,3.963,6,GPS_Atti,
49.6209563537515,16.1247986777104,2267.3783114012,10.170604,0,0.47323164244,19200,2016-08-15 18:35:13,18,23.706,2270.6591514012,13.451444,0.447388,0.73018046956,164.1,0,0,1024,1024,1024,1350,158.3,0,96,3.964,3.967,3.969,3.891,4.003,3.963,6,GPS_Atti,
49.6209562563683,16.1247986327579,2267.3783114012,10.170604,0,0.4458825602,19400,2016-08-15 18:35:13,18,23.706,2270.6591514012,13.451444,0.447388,0.73018046956,174.6,0,0,1024,1024,1024,1328,166.6,0,96,3.964,3.967,3.969,3.891,4.003,3.963,6,GPS_Atti,
49.620956190762,16.1247985243151,2267.3783114012,10.170604,0,0.41190290032,19500,2016-08-15 18:35:13,19,23.706,2270.6591514012,13.451444,0.447388,0.73018046956,180.4,0,0,1024,1024,1024,1340,171.5,0,96,3.964,3.967,3.969,3.891,4.003,3.963,6,GPS_Atti,
49.6209561693371,16.1247985620884,2267.3783114012,10.170604,0,0.41624345164,19600,2016-08-15 18:35:13,19,23.706,2270.6591514012,13.451444,0.447388,0.73018046956,185.6,0,0,1024,1024,1024,1341,176.6,0,96,3.964,3.967,3.969,3.891,4.003,3.963,6,GPS_Atti,
49.6209560930404,16.1247984626091,2267.3783114012,10.170604,0,0.38302494664,19700,2016-08-15 18:35:13,19,23.706,2270.6591514012,13.451444,0.447388,0.73018046956,191,0,0,1024,1024,1024,1324,181.9,0,96,3.964,3.967,3.969,3.891,4.003,3.963,6,GPS_Atti,
49.6209561135442,16.1247984557846,2267.3783114012,10.170604,0,0.38472442176,19800,2016-08-15 18:35:14,19,23.706,2270.6591514012,13.451444,0.447388,0.73018046956,196.2,0,0,1024,1024,1024,1315,187,0,96,3.964,3.967,3.969,3.891,4.003,3.963,6,GPS_Atti,
49.6209560975059,16.1247984732564,2267.3783114012,10.170604,0,0.385990826,19900,2016-08-15 18:35:14,19,23.706,2270.6591514012,13.451444,0.447388,0.73018046956,201.2,0,0,1024,1024,1024,1317,192,0,96,3.964,3.967,3.969,3.891,4.003,3.963,6,GPS_Atti,
49.6209559790324,16.1247984001479,2267.3783114012,10.170604,0,0.35380250476,20100,2016-08-15 18:35:14,19,23.706,2270.6591514012,13.451444,0.447388,0.73018046956,210.8,0,0,1024,1024,1024,1299,197,0,96,3.964,3.967,3.969,3.891,4.003,3.963,6,GPS_Atti,
49.620955971222,16.1247983779962,2267.3783114012,10.170604,0,0.34791995864,20200,2016-08-15 18:35:14,19,22.904,2270.6591514012,13.451444,0.447388,0.73018046956,215.3,0,0,1024,1024,1024,1304,206.3,0,96,3.847,3.824,3.809,3.745,3.867,3.827,6,GPS_Atti,
49.620956066643,16.1247984389914,2267.3783114012,10.170604,0,0.37401247916,20300,2016-08-15 18:35:14,19,22.904,2270.6591514012,13.451444,0.447388,0.73018046956,219.7,0,0,1024,1024,1024,1301,210.9,0,96,3.847,3.824,3.809,3.745,3.867,3.827,6,GPS_Atti,
49.6209560641827,16.1247984153308,2267.7063954012,10.498688,0,0.36852691468,20400,2016-08-15 18:35:14,19,22.904,2270.6591514012,13.451444,0.447388,0.73018046956,224.1,0,0,1024,1024,1024,1300,215.4,0,96,3.847,3.824,3.809,3.745,3.867,3.827,6,GPS_Atti,
49.6209560659038,16.1247984942149,2267.7063954012,10.498688,0,0.38591864752,20500,2016-08-15 18:35:14,19,22.904,2270.6591514012,13.451444,0.447388,0.73018046956,228.6,0,0,1024,1024,1024,1301,219.8,0,96,3.847,3.824,3.809,3.745,3.867,3.827,6,GPS_Atti,
49.6209562220333,16.1247985490769,2267.7063954012,10.498688,0,0.4225065752,20700,2016-08-15 18:35:14,19,22.904,2270.6591514012,13.451444,0.447388,0.73018046956,237.5,0,0,1024,1024,1024,1306,224.3,0,96,3.847,3.824,3.809,3.745,3.867,3.827,6,GPS_Atti,
49.6209561976438,16.124798504773,2267.7063954012,10.498688,0,0.409038727,20800,2016-08-15 18:35:15,19,22.904,2270.6591514012,13.451444,0.447388,0.73018046956,241.9,0,0,1024,1024,1024,1281,233,0,96,3.847,3.824,3.809,3.745,3.867,3.827,6,GPS_Atti,
49.6209563345219,16.1247986347106,2267.3783114012,10.170604,0,0.4608924032,20900,2016-08-15 18:35:15,19,22.904,2270.6591514012,13.451444,0.447388,0.73018046956,246,0,0,1024,1024,1024,1256,237.3,0,96,3.847,3.824,3.809,3.745,3.867,3.827,6,GPS_Atti,
49.6209563010861,16.124798594219,2267.3783114012,10.170604,0,0.4463090694,21000,2016-08-15 18:35:15,19,22.904,2270.6591514012,13.451444,0.447388,0.73018046956,250,0,0,1024,1024,1024,1024,241.2,0,96,3.847,3.824,3.809,3.745,3.867,3.827,6,GPS_Atti,
49.6209563644822,16.1247986404077,2267.3783114012,10.170604,0,0.46795605172,21100,2016-08-15 18:35:15,19,22.904,2270.6591514012,13.451444,0.447388,0.73018046956,252.9,0,0,1024,1024,1024,1024,243.9,0,96,3.847,3.824,3.809,3.745,3.867,3.827,6,GPS_Atti,
49.6209564059734,16.1247986453969,2267.3783114012,10.170604,0,0.47742127512,21200,2016-08-15 18:35:15,19,22.904,2270.6591514012,13.451444,0.447388,0.73018046956,254,0,0,1024,1024,1024,1024,246,0,96,3.847,3.824,3.809,3.745,3.867,3.827,6,GPS_Atti,
49.6209565291732,16.124798605341,2267.3783114012,10.170604,0,0.49712600016,21400,2016-08-15 18:35:15,19,23.262,2270.6591514012,13.451444,0.447388,0.73018046956,254.5,0,0,1024,1024,1024,1024,248.6,0,96,3.889,3.908,3.825,3.832,3.91,3.914,6,GPS_Atti,
49.620956704606,16.1247989365738,2267.3783114012,10.170604,0,0.59824805064,21500,2016-08-15 18:35:15,19,23.262,2270.6591514012,13.451444,0.447388,0.73018046956,254.6,0,0,1024,1024,1024,1024,249.2,0,96,3.889,3.908,3.825,3.832,3.91,3.914,6,GPS_Atti,
49.6209566841584,16.1247988808938,2267.3783114012,10.170604,0,0.58335959872,21600,2016-08-15 18:35:15,19,23.262,2270.6591514012,13.451444,0.447388,0.73018046956,254.5,0,0,1024,1024,1024,1024,249.7,0,96,3.889,3.908,3.825,3.832,3.91,3.914,6,GPS_Atti,
49.6209567672809,16.1247989204446,2267.3783114012,10.170604,0,0.61022967832,21700,2016-08-15 18:35:15,19,23.262,2270.6591514012,13.451444,0.447388,0.73018046956,254.4,0,0,1024,1024,1024,1024,250.1,0,96,3.889,3.908,3.825,3.832,3.91,3.914,6,GPS_Atti,
49.6209568509371,16.1247991056045,2267.7063954012,10.498688,0,0.66325789524,21800,2016-08-15 18:35:16,19,23.262,2270.6591514012,13.451444,0.447388,0.73018046956,254.3,0,0,1024,1024,1024,1022,250.4,0,96,3.889,3.908,3.825,3.832,3.91,3.914,6,GPS_Atti,
49.6209569093813,16.1247991609512,2267.7063954012,10.498688,0,0.68715881464,22000,2016-08-15 18:35:16,19,23.262,2270.6591514012,13.451444,0.447388,0.73018046956,254.2,0,0,1024,1024,1024,1024,250.6,0,96,3.889,3.908,3.825,3.832,3.91,3.914,6,GPS_Atti,
49.6209570620306,16.1247995085683,2267.7063954012,10.498688,0,0.78568243984,22100,2016-08-15 18:35:16,19,23.262,2270.6591514012,13.451444,0.447388,0.78568243984,254.2,0,0,1024,1024,1024,1024,250.6,0,96,3.889,3.908,3.825,3.832,3.91,3.914,6,GPS_Atti,
49.6209570338575,16.1247994303855,2267.7063954012,10.498688,0,0.76498033944,22200,2016-08-15 18:35:16,19,23.262,2270.6591514012,13.451444,0.447388,0.78568243984,254.1,0,0,1024,1024,1024,1024,250.9,0.2,96,3.889,3.908,3.825,3.832,3.91,3.914,6,GPS_Atti,
49.6209571145263,16.1247994528121,2267.7063954012,10.498688,0,0.78850724308,22300,2016-08-15 18:35:16,19,23.262,2270.6591514012,13.451444,0.447388,0.78850724308,254.1,0,0,1024,1024,1024,1024,251,0.1,96,3.889,3.908,3.825,3.832,3.91,3.914,6,GPS_Atti,
49.6209571601815,16.1247996217082,2267.3783114012,10.170604,0,0.82936026276,22400,2016-08-15 18:35:16,19,23.262,2270.6591514012,13.451444,0.447388,0.82936026276,254.1,0,0,1024,1024,1024,1024,251.1,-0.4,96,3.889,3.908,3.825,3.832,3.91,3.914,6,GPS_Atti,
49.6209572241339,16.1247997308947,2267.3783114012,10.170604,0,0.86415029012,22500,2016-08-15 18:35:16,19,23.203,2270.6591514012,13.451444,0.447388,0.86415029012,254.2,0,0,1024,1024,1024,1024,251.2,-2.3,96,3.88,3.885,3.816,3.823,3.902,3.898,6,GPS_Atti,
49.6209573427851,16.124799960328,2267.3783114012,10.170604,0,0.9334645968,22700,2016-08-15 18:35:16,19,23.203,2270.6591514012,13.451444,0.447388,0.9334645968,254.3,0,0,1024,1024,1024,1024,251.3,-5.5,96,3.88,3.885,3.816,3.823,3.902,3.898,6,GPS_Atti,
49.6209573103286,16.124799843591,2267.3783114012,10.170604,0,0.90494425468,22800,2016-08-15 18:35:17,19,23.203,2270.6591514012,13.451444,0.447388,0.9334645968,254.2,0,0,1024,1024,1024,1024,251.5,-16.1,96,3.88,3.885,3.816,3.823,3.902,3.898,6,GPS_Atti,
49.6209572852175,16.124799937691,2267.3783114012,10.170604,0,0.91569228652,22900,2016-08-15 18:35:17,19,23.203,2270.6591514012,13.451444,0.447388,0.9334645968,254.3,0,0,1024,1024,1024,1024,251.6,-23.4,96,3.88,3.885,3.816,3.823,3.902,3.898,6,GPS_Atti,
49.6209573400142,16.1248000668028,2267.3783114012,10.170604,0.223694,0.95189963676,23000,2016-08-15 18:35:17,19,23.203,2270.6591514012,13.451444,0.447388,0.95189963676,254.3,0,0,1024,1024,1024,1024,251.6,-32.1,96,3.88,3.885,3.816,3.823,3.902,3.898,6,GPS_Atti,
49.6209574325733,16.1247999694313,2267.3783114012,10.170604,0,0.95692916448,23100,2016-08-15 18:35:17,19,23.203,2270.6591514012,13.451444,0.447388,0.95692916448,254.3,0,0,1024,1024,1024,1024,251.7,-40.3,96,3.88,3.885,3.816,3.823,3.902,3.898,6,GPS_Atti,
49.6209574198183,16.1247998820262,2267.3783114012,10.170604,0.223694,0.93862207728,23200,2016-08-15 18:35:17,19,23.203,2270.6591514012,13.451444,0.447388,0.95692916448,254.3,0,0,1024,1024,1024,1024,251.8,-47.1,96,3.88,3.885,3.816,3.823,3.902,3.898,6,GPS_Atti,
49.6209573990333,16.1247998058328,2267.3783114012,10.170604,0,0.92032811344,23300,2016-08-15 18:35:17,19,23.203,2270.6591514012,13.451444,0.447388,0.95692916448,254.3,0,0,1024,1024,1024,1024,251.8,-52.5,96,3.88,3.885,3.816,3.823,3.902,3.898,6,GPS_Atti,
49.6209574381998,16.1247999756054,2267.3783114012,10.170604,0,0.95939307532,23400,2016-08-15 18:35:17,19,23.203,2270.6591514012,13.451444,0.447388,0.95939307532,254.3,0,0,1024,1024,1024,1024,251.9,-56.5,96,3.88,3.885,3.816,3.823,3.902,3.898,6,GPS_Atti,
49.6209574430439,16.1247998617081,2267.3783114012,10.170604,0,0.94097115872,23600,2016-08-15 18:35:17,19,23.203,2270.6591514012,13.451444,0.447388,0.95939307532,254.1,0,0,1024,1024,1024,1024,251.9,-59.1,96,3.88,3.885,3.816,3.823,3.902,3.898,6,GPS_Atti,
49.6209574410152,16.1247999861893,2267.3783114012,10.170604,0,0.96192916464,23700,2016-08-15 18:35:18,19,23.246,2270.6591514012,13.451444,0.447388,0.96192916464,254.2,0,0,1024,1024,1024,1024,252.1,-60.4,96,3.88,3.885,3.816,3.823,3.902,3.898,6,GPS_Atti,
49.62095741118,16.1247999310084,2267.3783114012,10.170604,0.223694,0.94496066016,23800,2016-08-15 18:35:18,19,23.246,2270.6591514012,13.451444,0.447388,0.96192916464,254.2,0,0,1024,1024,1024,1024,252.1,-60,96,3.88,3.885,3.816,3.823,3.902,3.898,6,GPS_Atti,
49.6209572909993,16.1247997765351,2267.3783114012,10.170604,0,0.88843834864,23900,2016-08-15 18:35:18,19,23.246,2270.6591514012,13.451444,0.447388,0.96192916464,254.3,0,0,1024,1024,1024,1024,252.1,-58.1,96,3.88,3.885,3.816,3.823,3.902,3.898,6,GPS_Atti,
49.6209573226524,16.1247998846042,2267.3783114012,10.170604,0,0.91517719464,24000,2016-08-15 18:35:18,19,23.246,2270.6591514012,13.451444,0.447388,0.96192916464,254.3,0,0,1024,1024,1024,1024,252.2,-54.9,96,3.88,3.885,3.816,3.823,3.902,3.898,6,GPS_Atti,
49.6209573227082,16.1247997286548,2267.3783114012,10.170604,0,0.8879429418,24100,2016-08-15 18:35:18,19,23.246,2270.6591514012,13.451444,0.447388,0.96192916464,254.3,0,0,1024,1024,1024,1024,252.2,-50.5,96,3.88,3.885,3.816,3.823,3.902,3.898,6,GPS_Atti,
49.6209573222254,16.1247996670103,2267.3783114012,10.170604,0.223694,0.8772474034,24200,2016-08-15 18:35:18,19,23.246,2270.6591514012,13.451444,0.447388,0.96192916464,254.3,0,0,1024,1024,1024,1024,252.3,-46.4,96,3.88,3.885,3.816,3.823,3.902,3.898,6,GPS_Atti,
49.6209573610545,16.124799595571,2267.3783114012,10.170604,0.223694,0.8751312616,24400,2016-08-15 18:35:18,19,23.246,2270.6591514012,13.451444,0.447388,0.96192916464,254.3,0,0,1024,1024,1024,1024,252.4,-39.4,96,3.88,3.885,3.816,3.823,3.902,3.898,6,GPS_Atti,
49.6209572449419,16.1247993545863,2267.3783114012,10.170604,0.223694,0.80500658744,24500,2016-08-15 18:35:18,19,23.246,2270.6591514012,13.451444,0.447388,0.96192916464,254.2,0,0,1024,1024,1024,1024,252.4,-37.8,96,3.88,3.885,3.816,3.823,3.902,3.898,6,GPS_Atti,
49.6209572506259,16.1247994356621,2267.3783114012,10.170604,0.223694,0.81991144356,24600,2016-08-15 18:35:18,19,23.246,2270.6591514012,13.451444,0.447388,0.96192916464,254.1,0,0,1024,1024,1024,1024,252.4,-37.5,96,3.88,3.885,3.816,3.823,3.902,3.898,6,GPS_Atti,
49.6209572338936,16.1247993170981,2267.3783114012,10.170604,0,0.79595803072,24700,2016-08-15 18:35:19,19,23.246,2270.6591514012,13.451444,0.447388,0.96192916464,254.1,0,0,1024,1024,1024,1024,252.5,-37.5,96,3.88,3.885,3.816,3.823,3.902,3.898,6,GPS_Atti,
49.6209572204235,16.1247992949938,2267.3783114012,10.170604,0,0.788795957,24800,2016-08-15 18:35:19,19,23.246,2270.6591514012,13.451444,0.447388,0.96192916464,254.2,0,0,1024,1024,1024,1024,252.5,-36.3,95,3.892,3.893,3.825,3.825,3.898,3.901,6,GPS_Atti,
49.6209571242085,16.124799304261,2267.3783114012,10.170604,0,0.7653871636,24900,2016-08-15 18:35:19,19,23.246,2270.6591514012,13.451444,0.447388,0.96192916464,254.2,0,0,1024,1024,1024,1024,252.5,-33.9,95,3.892,3.893,3.825,3.825,3.898,3.901,6,GPS_Atti,
49.6209570258123,16.1247990497275,2267.3783114012,10.170604,0,0.69745409056,25100,2016-08-15 18:35:19,19,23.246,2270.6591514012,13.451444,0.447388,0.96192916464,254.2,0,0,1024,1024,1024,1024,252.5,-32.1,95,3.892,3.893,3.825,3.825,3.898,3.901,6,GPS_Atti,
49.6209570300508,16.1247991249165,2267.3783114012,10.170604,0.223694,0.71107613824,25200,2016-08-15 18:35:19,19,23.246,2270.6591514012,13.451444,0.447388,0.96192916464,254.2,0,0,1024,1024,1024,1024,252.6,-31.6,95,3.892,3.893,3.825,3.825,3.898,3.901,6,GPS_Atti,
49.6209569075472,16.1247988408198,2267.3783114012,10.170604,0.223694,0.6321030386,25300,2016-08-15 18:35:19,19,23.246,2270.6591514012,13.451444,0.447388,0.96192916464,254.1,0,0,1024,1024,1024,1024,252.6,-31.6,95,3.892,3.893,3.825,3.825,3.898,3.901,6,GPS_Atti,
49.6209568530779,16.1247987063307,2267.3783114012,10.170604,0.223694,0.59581366736,25400,2016-08-15 18:35:19,19,23.246,2270.6591514012,13.451444,0.447388,0.96192916464,254.1,0,0,1024,1024,1024,1024,252.7,-31.6,95,3.892,3.893,3.825,3.825,3.898,3.901,6,GPS_Atti,
49.62095675497,16.1247985719709,2267.3783114012,10.170604,0.223694,0.54797902016,25500,2016-08-15 18:35:19,19,23.246,2270.6591514012,13.451444,0.447388,0.96192916464,254.2,0,0,1024,1024,1024,1024,252.7,-31.6,95,3.892,3.893,3.825,3.825,3.898,3.901,6,GPS_Atti,
49.6209566892081,16.1247984358076,2267.3783114012,10.170604,0,0.50851707664,25600,2016-08-15 18:35:19,19,23.246,2270.6591514012,13.451444,0.447388,0.96192916464,254.3,0,0,1024,1024,1024,1024,252.7,-31.6,95,3.892,3.893,3.825,3.825,3.898,3.901,6,GPS_Atti,
49.6209566685029,16.1247983399558,2267.3783114012,10.170604,0,0.48781825708,25700,2016-08-15 18:35:20,19,23.246,2270.6591514012,13.451444,0.447388,0.96192916464,254.3,0,0,1024,1024,1024,1024,252.7,-31.6,95,3.892,3.893,3.825,3.825,3.898,3.901,6,GPS_Atti,
49.6209566058248,16.1247982411385,2267.3783114012,10.170604,0,0.45524607756,25900,2016-08-15 18:35:20,19,23.246,2270.6591514012,13.451444,0.447388,0.96192916464,254.2,0,0,1024,1024,1024,1024,252.8,-31.6,95,3.892,3.893,3.825,3.825,3.898,3.901,6,GPS_Atti,
49.6209566180142,16.1247982199758,2267.3783114012,10.170604,0,0.4554134004,26000,2016-08-15 18:35:20,19,23.222,2270.6591514012,13.451444,0.447388,0.96192916464,254.2,0,0,1024,1024,1024,1024,252.8,-31.6,95,3.885,3.891,3.825,3.821,3.905,3.899,6,GPS_Atti,
49.6209566219646,16.124798318326,2267.3783114012,10.170604,0,0.47169949016,26100,2016-08-15 18:35:20,19,23.222,2270.6591514012,13.451444,0.447388,0.96192916464,254.3,0,0,1024,1024,1024,1024,252.8,-31.6,95,3.885,3.891,3.825,3.821,3.905,3.899,6,GPS_Atti,
49.620956651881,16.1247983272331,2267.3783114012,10.170604,0,0.48126970044,26200,2016-08-15 18:35:20,19,23.222,2270.6591514012,13.451444,0.447388,0.96192916464,254.4,0,0,1024,1024,1024,1024,252.8,-31.6,95,3.885,3.891,3.825,3.821,3.905,3.899,6,GPS_Atti,
49.6209565808661,16.1247981388082,2267.3783114012,10.170604,0,0.43276576188,26300,2016-08-15 18:35:20,18,23.222,2270.6591514012,13.451444,0.447388,0.96192916464,254.4,0,0,1024,1024,1024,1024,252.8,-31.6,95,3.885,3.891,3.825,3.821,3.905,3.899,6,GPS_Atti,
49.6209566216988,16.1247981650498,2267.3783114012,10.170604,0,0.44827429256,26500,2016-08-15 18:35:20,18,23.222,2270.6591514012,13.451444,0.447388,0.96192916464,254.3,0,0,1024,1024,1024,1024,252.9,-31.6,95,3.885,3.891,3.825,3.821,3.905,3.899,6,GPS_Atti,
49.6209566198101,16.1247981379252,2267.3783114012,10.170604,0,0.44377626092,26600,2016-08-15 18:35:20,18,23.222,2270.6591514012,13.451444,0.447388,0.96192916464,254.3,0,0,1024,1024,1024,1024,252.9,-31.6,95,3.885,3.891,3.825,3.821,3.905,3.899,6,GPS_Atti,
49.6209566071671,16.1247979262771,2267.3783114012,10.170604,0,0.41111549872,26700,2016-08-15 18:35:20,19,23.222,2270.6591514012,13.451444,0.447388,0.96192916464,254.4,0,0,1024,1024,1024,1024,252.9,-31.6,95,3.885,3.891,3.825,3.821,3.905,3.899,6,GPS_Atti,
49.6209565851939,16.1247979728864,2267.3783114012,10.170604,0,0.41053807088,26800,2016-08-15 18:35:21,19,23.222,2270.6591514012,13.451444,0.447388,0.96192916464,254.4,0,0,1024,1024,1024,1024,252.9,-31.6,95,3.885,3.891,3.825,3.821,3.905,3.899,6,GPS_Atti,
49.6209565800955,16.1247978701955,2267.3783114012,10.170604,0,0.39568898904,26900,2016-08-15 18:35:21,19,23.222,2270.6591514012,13.451444,0.447388,0.96192916464,254.3,0,0,1024,1024,1024,1024,253,-31.6,95,3.885,3.891,3.825,3.821,3.905,3.899,6,GPS_Atti,
49.6209565802923,16.1247978759418,2267.3783114012,10.170604,0,0.39646654812,27000,2016-08-15 18:35:21,19,23.222,2270.6591514012,13.451444,0.447388,0.96192916464,254.2,0,0,1024,1024,1024,1024,253,-31.6,95,3.885,3.891,3.825,3.821,3.905,3.899,6,GPS_Atti,
49.620956566125,16.1247978208238,2267.3783114012,10.170604,0,0.38527232204,27100,2016-08-15 18:35:21,19,23.214,2270.6591514012,13.451444,0.447388,0.96192916464,254.2,0,0,1024,1024,1024,1024,253,-31.6,95,3.885,3.89,3.811,3.822,3.897,3.897,6,GPS_Atti,
