latitude,longitude,altitude(feet),ascent(feet),speed(mph),distance(feet),time(millisecond),datetime(utc),satellites,voltage(v),max_altitude(feet),max_ascent(feet),max_speed(mph),max_distance(feet),compass_heading(degrees),isPhoto,isVideo,rc_elevator,rc_aileron,rc_throttle,rc_rudder,gimbal_heading(degrees),gimbal_pitch(degrees),battery_percent,voltageCell1,voltageCell2,voltageCell3,voltageCell4,voltageCell5,voltageCell6,flycStateRaw,flycState,message
49.6210248804978,16.1247252201458,2255.9479560486,0,0,0,0,2016-08-18 17:44:24,18,0,2255.9479560486,0,0,0,248.8,0,0,364,1684,364,364,242.8,0,98,4.299,4.303,4.25,4.283,4.302,4.298,6,GPS_Atti,
49.6210248771803,16.1247252004321,2255.9479560486,0,0,0.0048142718076,100,2016-08-18 17:44:24,18,0,2255.9479560486,0,0,0.0048142718076,248.8,0,0,364,1684,364,364,242.8,0,98,4.299,4.303,4.25,4.283,4.302,4.298,6,GPS_Atti,
49.6210248771803,16.1247252004321,2255.9479560486,0,0,0.0048142718076,100,2016-08-18 17:44:24,18,0,2255.9479560486,0,0,0.0048142718076,248.8,0,0,364,1684,364,364,242.8,0,98,4.299,4.303,4.25,4.283,4.302,4.298,6,GPS_Atti,
49.6210248725395,16.124725177876,2255.9479560486,0,0,0.0104044294668,300,2016-08-18 17:44:24,18,0,2255.9479560486,0,0,0.0104044294668,248.9,0,0,364,1684,364,364,242.8,0,98,4.299,4.303,4.25,4.283,4.302,4.298,6,GPS_Atti,
49.6210248883038,16.1247251803254,2255.9479560486,0,0,0.0098335961152,400,2016-08-18 17:44:24,18,0,2255.9479560486,0,0,0.0104044294668,248.9,0,0,364,1684,364,364,242.9,0,98,4.299,4.303,4.25,4.283,4.302,4.298,6,GPS_Atti,
49.621024891836,16.1247251777303,2255.9479560486,0,0,0.0108454399796,500,2016-08-18 17:44:24,18,0,2255.9479560486,0,0,0.0108454399796,248.8,0,0,364,1646,497,560,242.8,0,98,4.299,4.303,4.25,4.283,4.302,4.298,6,GPS_Atti,
49.6210248908371,16.1247251806325,2255.9479560486,0,0,0.0100726053092,600,2016-08-18 17:44:24,18,0,2255.9479560486,0,0,0.0108454399796,248.7,0,0,876,1343,1024,1024,243.6,0,98,4.299,4.303,4.25,4.283,4.302,4.298,6,GPS_Atti,
49.6210247910822,16.1247252083028,2255.9479560486,0,0,0.0327430784756,700,2016-08-18 17:44:25,18,0,2255.9479560486,0,0,0.0327430784756,248.5,0,0,1024,1024,1024,1024,245.5,0,98,4.299,4.303,4.25,4.283,4.302,4.298,6,GPS_Atti,
49.6210247602795,16.1247251961682,2255.9479560486,0,0,0.044226051284,900,2016-08-18 17:44:25,18,0,2255.9479560486,0,0,0.044226051284,248.4,0,0,1024,1024,1024,1024,246.3,0,98,4.299,4.303,4.25,4.283,4.302,4.298,6,GPS_Atti,
49.621024754581,16.1247251886072,2255.9479560486,0,0,0.046541668156,1000,2016-08-18 17:44:25,18,25.735,2255.9479560486,0,0,0.046541668156,248.4,0,0,1024,1024,1024,1024,247,0,98,4.299,4.303,4.25,4.283,4.302,4.298,6,GPS_Atti,
49.6210247521228,16.1247252789172,2255.9479560486,0,0,0.048854004188,1100,2016-08-18 17:44:25,18,25.735,2255.9479560486,0,0,0.048854004188,248.4,0,0,1024,1024,1024,1024,247.2,0,98,4.299,4.303,4.25,4.283,4.302,4.298,6,GPS_Atti,
49.6210247511696,16.1247252700244,2255.9479560486,0,0,0.048635828328,1200,2016-08-18 17:44:25,18,25.735,2255.9479560486,0,0,0.048854004188,248.4,0,0,1024,1024,1024,1024,247.3,0,98,4.299,4.303,4.25,4.283,4.302,4.298,6,GPS_Atti,
49.6210246718286,16.1247252897429,2255.9479560486,0,0,0.077889766272,1300,2016-08-18 17:44:25,18,25.735,2255.9479560486,0,0,0.077889766272,248.5,0,0,1024,1024,1024,1024,247.4,0,98,4.299,4.303,4.25,4.283,4.302,4.298,6,GPS_Atti,
49.6210246717027,16.1247252843546,2255.9479560486,0,0,0.077675855504,1400,2016-08-18 17:44:25,18,25.735,2255.9479560486,0,0,0.077889766272,248.5,0,0,1024,1024,1024,1024,247.5,0,98,4.299,4.303,4.25,4.283,4.302,4.298,6,GPS_Atti,
49.6210246803424,16.1247253528927,2255.9479560486,0,0,0.079481957924,1600,2016-08-18 17:44:25,18,25.735,2255.9479560486,0,0,0.079481957924,248.5,0,0,1024,1024,1024,1024,247.6,0,98,4.299,4.303,4.25,4.283,4.302,4.298,6,GPS_Atti,
49.6210246703843,16.1247253695989,2255.9479560486,0,0,0.084407483016,1700,2016-08-18 17:44:26,18,25.735,2255.9479560486,0,0,0.084407483016,248.4,0,0,1024,1024,1024,1024,247.7,0,98,4.299,4.303,4.25,4.283,4.302,4.298,6,GPS_Atti,
49.6210246720819,16.124725368104,2255.9479560486,0,0,0.083696853072,1800,2016-08-18 17:44:26,18,25.735,2255.9479560486,0,0,0.084407483016,248.4,0,0,1024,1024,1024,1024,247.8,0,98,4.299,4.303,4.25,4.283,4.302,4.298,6,GPS_Atti,
49.6210246930794,16.1247254670984,2255.9479560486,0,0,0.08990485852,1900,2016-08-18 17:44:26,18,25.735,2255.9479560486,0,0,0.08990485852,248.4,0,0,1024,1024,1024,1024,247.8,0,98,4.299,4.303,4.25,4.283,4.302,4.298,6,GPS_Atti,
49.6210246894166,16.1247254660297,2255.9479560486,0,0,0.090763454348,2000,2016-08-18 17:44:26,18,25.735,2255.9479560486,0,0,0.090763454348,248.4,0,0,1024,1024,1024,1024,247.8,0,98,4.299,4.303,4.25,4.283,4.302,4.298,10,AssitedTakeoff,
49.6210245872056,16.1247254745325,2255.9479560486,0,0,0.122743442248,2100,2016-08-18 17:44:26,18,25.723,2255.9479560486,0,0,0.122743442248,248.5,0,0,1024,1024,1024,1024,247.8,0,98,4.293,4.299,4.243,4.274,4.298,4.292,10,AssitedTakeoff,Return-to-Home Altitude:20M
49.6210245824362,16.1247254813428,2255.9479560486,0,0,0.125050200852,2200,2016-08-18 17:44:26,18,25.723,2255.9479560486,0,0,0.125050200852,248.5,0,0,1024,1024,1024,1024,247.9,0,98,4.293,4.299,4.243,4.274,4.298,4.292,10,AssitedTakeoff,
49.6210245827796,16.1247254732712,2255.9479560486,0,0,0.124009846488,2400,2016-08-18 17:44:26,18,25.723,2255.9479560486,0,0,0.125050200852,248.3,0,0,1024,1024,1024,1024,247.9,0,98,4.293,4.299,4.243,4.274,4.298,4.292,10,AssitedTakeoff,
49.6210245739519,16.1247255596619,2255.9479560486,0,0,0.137654860048,2500,2016-08-18 17:44:26,18,25.723,2255.9479560486,0,0,0.137654860048,248.3,0,0,1024,1024,1024,1024,247.9,0,98,4.293,4.299,4.243,4.274,4.298,4.292,10,AssitedTakeoff,
49.6210245871311,16.1247255362727,2255.9479560486,0,0,0.130536093416,2600,2016-08-18 17:44:27,18,25.723,2255.9479560486,0,0,0.137654860048,248.2,0,0,1024,1024,1024,1024,247.9,0,98,4.293,4.299,4.243,4.274,4.298,4.292,10,AssitedTakeoff,
49.6210245766469,16.1247255225755,2255.9479560486,0,0,0.131908140704,2700,2016-08-18 17:44:27,18,25.723,2255.9479560486,0,0,0.137654860048,248.1,0,0,1024,1024,1024,1024,247.9,0,98,4.293,4.299,4.243,4.274,4.298,4.292,10,AssitedTakeoff,
49.621024563049,16.1247255151062,2255.9479560486,0,0,0.13518537178,2800,2016-08-18 17:44:27,18,25.723,2255.9479560486,0,0,0.137654860048,248.1,0,0,1024,1024,1024,1024,247.9,0,98,4.293,4.299,4.243,4.274,4.298,4.292,10,AssitedTakeoff,
49.6210245494036,16.1247254995607,2255.9479560486,0,0,0.137674545088,2900,2016-08-18 17:44:27,18,25.723,2255.9479560486,0,0,0.137674545088,248.1,0,0,1024,1024,1024,1024,247.9,0,98,4.293,4.299,4.243,4.274,4.298,4.292,10,AssitedTakeoff,
49.6210245325147,16.1247255018514,2255.9479560486,0,0,0.143362537396,3000,2016-08-18 17:44:27,18,25.723,2255.9479560486,0,0,0.143362537396,248.1,0,0,1024,1024,1024,1024,247.9,0,98,4.293,4.299,4.243,4.274,4.298,4.292,10,AssitedTakeoff,
49.6210244238708,16.1247256050574,2255.9479560486,0,0,0.189823168804,3100,2016-08-18 17:44:27,18,25.723,2255.9479560486,0,0,0.189823168804,248,0,0,1024,1024,1024,1024,247.9,0,98,4.293,4.299,4.243,4.274,4.298,4.292,10,AssitedTakeoff,
49.6210244400266,16.1247256394435,2255.9479560486,0,0,0.188808076908,3200,2016-08-18 17:44:27,18,25.683,2255.9479560486,0,0,0.189823168804,248.1,0,0,1024,1024,1024,1024,247.9,0,98,4.29,4.286,4.228,4.272,4.293,4.271,10,AssitedTakeoff,
49.6210244374818,16.1247256394911,2255.9479560486,0,0,0.189604992944,3300,2016-08-18 17:44:27,18,25.683,2255.9479560486,0,0,0.189823168804,248.1,0,0,1024,1024,1024,1024,247.9,0,98,4.29,4.286,4.228,4.272,4.293,4.271,10,AssitedTakeoff,
49.6210244373692,16.1247256361139,2255.9479560486,0,0,0.189223759336,3400,2016-08-18 17:44:27,18,25.683,2255.9479560486,0,0,0.189823168804,248.1,0,0,1024,1024,1024,1024,247.9,0,98,4.29,4.286,4.228,4.272,4.293,4.271,10,AssitedTakeoff,
49.621024472735,16.124725643596,2255.9479560486,0,0,0.179306436184,3500,2016-08-18 17:44:27,18,25.683,2255.9479560486,0,0,0.189823168804,248.1,0,0,1024,1024,1024,1024,247.9,0,98,4.29,4.286,4.228,4.272,4.293,4.271,10,AssitedTakeoff,
49.6210244696545,16.1247256408427,2255.9479560486,0,0,0.179879598932,3600,2016-08-18 17:44:28,18,25.683,2255.9479560486,0,0,0.189823168804,248.1,0,0,1024,1024,1024,1024,247.9,0,98,4.29,4.286,4.228,4.272,4.293,4.271,10,AssitedTakeoff,
49.6210243780093,16.1247256298531,2255.9479560486,0,0,0.20733760506,3800,2016-08-18 17:44:28,18,25.683,2255.9479560486,0,0,0.20733760506,248.1,0,0,1024,1024,1024,1024,247.9,0,98,4.29,4.286,4.228,4.272,4.293,4.271,10,AssitedTakeoff,
49.6210243752369,16.1247257257278,2255.9479560486,0,0,0.219689311492,3900,2016-08-18 17:44:28,18,25.683,2255.9479560486,0,0,0.219689311492,248.1,0,0,1024,1024,1024,1024,247.9,0,98,4.29,4.286,4.228,4.272,4.293,4.271,10,AssitedTakeoff,
49.6210243710337,16.1247257241371,2255.9479560486,0,0,0.220774613364,4000,2016-08-18 17:44:28,18,25.683,2255.9479560486,0,0,0.220774613364,248.1,0,0,1024,1024,1024,1024,247.9,0,98,4.29,4.286,4.228,4.272,4.293,4.271,10,AssitedTakeoff,
49.6210243765104,16.1247257571797,2255.9479560486,0,0,0.223437343108,4100,2016-08-18 17:44:28,18,25.683,2255.9479560486,0,0,0.223437343108,248.1,0,0,1024,1024,1024,1024,247.9,0,98,4.29,4.286,4.228,4.272,4.293,4.271,10,AssitedTakeoff,
49.6210243723,16.1247257651323,2255.9479560486,0,0,0.225770676516,4200,2016-08-18 17:44:28,18,25.683,2255.9479560486,0,0,0.225770676516,248.1,0,0,1024,1024,1024,1024,247.9,0,98,4.29,4.286,4.228,4.272,4.293,4.271,10,AssitedTakeoff,
49.6210242698086,16.1247258681888,2255.9479560486,0,0,0.270381898416,4300,2016-08-18 17:44:28,18,25.576,2255.9479560486,0,0,0.270381898416,248,0,0,1024,1024,1024,1024,247.9,0,98,4.272,4.279,4.226,4.252,4.279,4.274,10,AssitedTakeoff,
49.6210242928503,16.1247258461311,2255.9479560486,0,0,0.260501320672,4500,2016-08-18 17:44:28,18,25.576,2255.9479560486,0,0,0.270381898416,248,0,0,1024,1024,1024,1024,247.9,0,98,4.272,4.279,4.226,4.252,4.279,4.274,10,AssitedTakeoff,
49.6210242975975,16.1247258530208,2255.9479560486,0,0,0.260011163176,4600,2016-08-18 17:44:28,18,25.576,2255.9479560486,0,0,0.270381898416,248.1,0,0,1024,1024,1024,1024,247.9,0,98,4.272,4.279,4.226,4.252,4.279,4.274,10,AssitedTakeoff,
49.6210243028452,16.1247258768273,2255.9479560486,0,0,0.261744430948,4700,2016-08-18 17:44:29,18,25.576,2255.9479560486,0,0,0.270381898416,248.1,0,0,1024,1024,1024,1024,247.9,0,98,4.272,4.279,4.226,4.252,4.279,4.274,10,AssitedTakeoff,
49.621024297706,16.1247258714492,2255.9479560486,0,0,0.262509194752,4800,2016-08-18 17:44:29,18,25.576,2255.9479560486,0,0,0.270381898416,248.2,0,0,1024,1024,1024,1024,247.9,0,98,4.272,4.279,4.226,4.252,4.279,4.274,10,AssitedTakeoff,
49.621024292272,16.1247259540712,2255.9479560486,0,0,0.275957029828,4900,2016-08-18 17:44:29,18,25.576,2255.9479560486,0,0,0.275957029828,248.2,0,0,1024,1024,1024,1024,247.9,0,98,4.272,4.279,4.226,4.252,4.279,4.274,10,AssitedTakeoff,
49.6210242983457,16.1247259143142,2255.9479560486,0,0,0.268391412788,5000,2016-08-18 17:44:29,18,25.576,2255.9479560486,0,0,0.275957029828,248.2,0,0,1024,1024,1024,1024,247.9,0,98,4.272,4.279,4.226,4.252,4.279,4.274,10,AssitedTakeoff,
49.621024199325,16.1247258902802,2255.9479560486,0,0,0.294710311268,5100,2016-08-18 17:44:29,18,25.576,2255.9479560486,0,0,0.294710311268,248.2,0,0,1024,1024,1024,1024,247.9,0,98,4.272,4.279,4.226,4.252,4.279,4.274,10,AssitedTakeoff,
49.6210242000527,16.1247258680521,2255.9479560486,0,0,0.291694235056,5200,2016-08-18 17:44:29,18,25.576,2255.9479560486,0,0,0.294710311268,248.2,0,0,1024,1024,1024,1024,247.9,0,98,4.272,4.279,4.226,4.252,4.279,4.274,10,AssitedTakeoff,
49.6210242004218,16.1247259615823,2255.9479560486,0,0,0.303773631768,5300,2016-08-18 17:44:29,18,25.576,2255.9479560486,0,0,0.303773631768,248.2,0,0,1024,1024,1024,1024,247.9,0,98,4.272,4.279,4.226,4.252,4.279,4.274,10,AssitedTakeoff,
49.6210242204377,16.1247259760622,2255.9479560486,0,0,0.299865167076,5500,2016-08-18 17:44:29,18,25.581,2255.9479560486,0,0,0.303773631768,248.3,0,0,1024,1024,1024,1024,247.9,0,98,4.273,4.278,4.225,4.254,4.278,4.274,10,AssitedTakeoff,
49.6210242225738,16.1247259750749,2255.9479560486,0,0,0.299100075188,5600,2016-08-18 17:44:29,18,25.581,2255.9479560486,0,0,0.303773631768,248.3,0,0,1024,1024,1024,1024,247.9,0,98,4.273,4.278,4.225,4.254,4.278,4.274,10,AssitedTakeoff,
49.621024118384,16.1247260297835,2255.9479560486,0,0,0.33754594256,5700,2016-08-18 17:44:30,18,25.581,2255.9479560486,0,0,0.33754594256,248.4,0,0,1024,1024,1024,1024,247.9,0,98,4.273,4.278,4.225,4.254,4.278,4.274,10,AssitedTakeoff,
49.6210241102058,16.1247260235705,2255.9479560486,0,0,0.33918308172,5800,2016-08-18 17:44:30,18,25.581,2255.9479560486,0,0,0.33918308172,248.4,0,0,1024,1024,1024,1024,247.9,0,98,4.273,4.278,4.225,4.254,4.278,4.274,10,AssitedTakeoff,
49.6210241065681,16.1247261290103,2255.9479560486,0,0,0.35479659928,5900,2016-08-18 17:44:30,18,25.581,2255.9479560486,0,0,0.35479659928,248.4,0,0,1024,1024,1024,1024,247.9,0,98,4.273,4.278,4.225,4.254,4.278,4.274,10,AssitedTakeoff,
49.6210241000185,16.1247261383324,2255.9479560486,0,0,0.35803150752,6000,2016-08-18 17:44:30,18,25.581,2255.9479560486,0,0,0.35803150752,248.3,0,0,1024,1024,1024,1024,247.9,0,98,4.273,4.278,4.225,4.254,4.278,4.274,10,AssitedTakeoff,
49.6210241054767,16.1247261500198,2255.9479560486,0,0,0.35813977524,6100,2016-08-18 17:44:30,18,25.581,2255.9479560486,0,0,0.35813977524,248.3,0,0,1024,1024,1024,1024,247.9,0,98,4.273,4.278,4.225,4.254,4.278,4.274,10,AssitedTakeoff,
49.6210240288147,16.1247262767813,2255.9479560486,0,0,0.39866471092,6300,2016-08-18 17:44:30,18,25.581,2255.9479560486,0,0,0.39866471092,248.2,0,0,1024,1024,1024,1024,247.9,0,98,4.273,4.278,4.225,4.254,4.278,4.274,10,AssitedTakeoff,
49.6210240318959,16.1247262748722,2255.9479560486,0,0,0.39750329356,6400,2016-08-18 17:44:30,18,25.581,2255.9479560486,0,0,0.39866471092,248.2,0,0,1024,1024,1024,1024,247.9,0,98,4.273,4.278,4.225,4.254,4.278,4.274,10,AssitedTakeoff,
49.6210240350581,16.1247262726394,2255.9479560486,0,0,0.3962762594,6500,2016-08-18 17:44:30,18,25.581,2255.9479560486,0,0,0.39866471092,248.3,0,0,1024,1024,1024,1024,247.9,0,98,4.273,4.278,4.225,4.254,4.278,4.274,10,AssitedTakeoff,
49.6210240345114,16.1247262600878,2255.9479560486,0,0,0.39457678428,6600,2016-08-18 17:44:31,18,25.577,2255.9479560486,0,0,0.39866471092,248.3,0,0,1024,1024,1024,1024,247.9,0,98,4.273,4.278,4.225,4.254,4.278,4.274,10,AssitedTakeoff,
49.6210240477469,16.1247263557043,2255.9479560486,0,0,0.40540355628,6700,2016-08-18 17:44:31,18,25.577,2255.9479560486,0,0,0.40540355628,248.3,0,0,1024,1024,1024,1024,247.9,0,98,4.273,4.278,4.225,4.254,4.278,4.274,10,AssitedTakeoff,
49.6210239474926,16.1247262954218,2255.9479560486,0,0,0.4248195674,6900,2016-08-18 17:44:31,18,25.577,2255.9479560486,0,0,0.4248195674,248.4,0,0,1024,1024,1024,1024,247.9,0,98,4.273,4.278,4.225,4.254,4.278,4.274,10,AssitedTakeoff,
49.6210239544185,16.1247262811557,2255.9479560486,0,0,0.42078085336,7000,2016-08-18 17:44:31,18,25.577,2255.9479560486,0,0,0.4248195674,248.4,0,0,1024,1024,1024,1024,247.9,0,98,4.273,4.278,4.225,4.254,4.278,4.274,10,AssitedTakeoff,
49.6210239616481,16.1247263737367,2255.9479560486,0,0,0.43212927892,7100,2016-08-18 17:44:31,18,25.577,2255.9479560486,0,0,0.43212927892,248.5,0,0,1024,1024,1024,1024,247.9,0,98,4.273,4.278,4.225,4.254,4.278,4.274,10,AssitedTakeoff,
49.621023960949,16.1247263906051,2255.9479560486,0,0,0.43485237612,7200,2016-08-18 17:44:31,18,25.577,2255.9479560486,0,0,0.43485237612,248.5,0,0,1024,1024,1024,1024,247.9,0,98,4.273,4.278,4.225,4.254,4.278,4.274,10,AssitedTakeoff,
49.6210238685332,16.1247264948968,2255.9479560486,0,0,0.47655513336,7300,2016-08-18 17:44:31,18,25.577,2255.9479560486,0,0,0.47655513336,248.5,0,0,1024,1024,1024,1024,247.9,0,98,4.273,4.278,4.225,4.254,4.278,4.274,10,AssitedTakeoff,
49.6210238552364,16.1247265392982,2255.9479560486,0,0,0.4869750812,7500,2016-08-18 17:44:31,18,25.577,2255.9479560486,0,0,0.4869750812,248.5,0,0,1024,1024,1024,1024,247.9,0,98,4.273,4.278,4.225,4.254,4.278,4.274,10,AssitedTakeoff,
49.6210238661223,16.1247265404902,2255.9479560486,0,0,0.48411418872,7600,2016-08-18 17:44:31,18,25.577,2255.9479560486,0,0,0.4869750812,248.5,0,0,1024,1024,1024,1024,247.9,0,98,4.273,4.278,4.225,4.254,4.278,4.274,10,AssitedTakeoff,
49.6210237844742,16.1247266435515,2255.9479560486,0,0,0.5225885994,7700,2016-08-18 17:44:32,18,25.577,2255.9479560486,0,0,0.5225885994,248.5,0,0,1024,1024,1024,1024,247.9,0,98,4.273,4.278,4.225,4.254,4.278,4.274,10,AssitedTakeoff,
49.6210237776912,16.1247266593848,2255.9479560486,0,0,0.52689306148,7800,2016-08-18 17:44:32,18,25.577,2255.9479560486,0,0,0.52689306148,248.5,0,0,1024,1024,1024,1024,247.9,0,98,4.273,4.278,4.224,4.254,4.276,4.272,10,AssitedTakeoff,
49.621023702604,16.1247266563603,2255.9479560486,0,0,0.54765749784,8000,2016-08-18 17:44:32,18,25.577,2255.9479560486,0,0,0.54765749784,248.4,0,0,1024,1024,1024,1024,247.9,0,98,4.273,4.278,4.224,4.254,4.276,4.272,10,AssitedTakeoff,
49.6210236815847,16.1247267504335,2255.9479560486,0,0,0.56759844336,8100,2016-08-18 17:44:32,18,25.577,2255.9479560486,0,0,0.56759844336,248.3,0,0,1024,1024,1024,1024,247.9,0,98,4.273,4.278,4.224,4.254,4.276,4.272,10,AssitedTakeoff,
49.6210236877046,16.1247267440388,2255.9479560486,0,0,0.56491471624,8200,2016-08-18 17:44:32,18,25.577,2255.9479560486,0,0,0.56759844336,248.3,0,0,1024,1024,1024,1024,247.9,0,98,4.273,4.278,4.224,4.254,4.276,4.272,10,AssitedTakeoff,
49.6210235923222,16.1247267412684,2255.9479560486,0,0,0.59174214492,8300,2016-08-18 17:44:32,18,25.577,2255.9479560486,0,0,0.59174214492,248.2,0,0,1024,1024,1024,1024,247.9,0,98,4.273,4.278,4.224,4.254,4.276,4.272,10,AssitedTakeoff,
49.6210235503613,16.1247267558811,2255.9479560486,0,0,0.6060367648,8400,2016-08-18 17:44:32,18,25.577,2255.9479560486,0,0,0.6060367648,248.2,0,0,1024,1024,1024,1024,247.9,0,98,4.273,4.278,4.224,4.254,4.276,4.272,10,AssitedTakeoff,
49.6210234573177,16.1247267554627,2255.9479560486,0,0,0.63349083392,8500,2016-08-18 17:44:32,18,25.577,2255.9479560486,0,0,0.63349083392,248.1,0,0,1024,1024,1024,1024,247.9,0,98,4.273,4.278,4.224,4.254,4.276,4.272,10,AssitedTakeoff,
49.6210234624253,16.1247268220906,2255.9479560486,0,0,0.64113519112,8700,2016-08-18 17:44:33,18,25.577,2255.9479560486,0,0,0.64113519112,248.1,0,0,1024,1024,1024,1024,247.9,0,98,4.273,4.278,4.224,4.254,4.276,4.272,10,AssitedTakeoff,
49.6210234363608,16.1247268052823,2255.9479560486,0,0,0.6465223304,8800,2016-08-18 17:44:33,18,25.577,2255.9479560486,0,0,0.6465223304,248.2,0,0,1024,1024,1024,1024,247.9,0,98,4.273,4.278,4.224,4.254,4.276,4.272,10,AssitedTakeoff,
49.6210233488918,16.1247267964879,2255.9479560486,0,0,0.67163059892,8900,2016-08-18 17:44:33,18,25.577,2255.9479560486,0,0,0.67163059892,248.2,0,0,1024,1024,1024,1024,247.9,0,98,4.273,4.278,4.224,4.254,4.276,4.272,10,AssitedTakeoff,
49.6210233573848,16.124726783226,2255.9479560486,0,0,0.66731301348,9000,2016-08-18 17:44:33,18,25.575,2255.9479560486,0,0,0.67163059892,248.3,0,0,1024,1024,1024,1024,247.9,0,98,4.273,4.277,4.223,4.253,4.276,4.272,10,AssitedTakeoff,
49.6210233442908,16.1247267825329,2255.9479560486,0,0,0.67120737056,9100,2016-08-18 17:44:33,18,25.575,2255.9479560486,0,0,0.67163059892,248.3,0,0,1024,1024,1024,1024,247.9,0,98,4.273,4.277,4.223,4.253,4.276,4.272,10,AssitedTakeoff,
49.6210233514911,16.1247267876525,2255.9479560486,0,0,0.6696850608,9200,2016-08-18 17:44:33,18,25.575,2255.9479560486,0,0,0.67163059892,248.4,0,0,1024,1024,1024,1024,247.9,0,98,4.273,4.277,4.223,4.253,4.276,4.272,10,AssitedTakeoff,
49.6210232678819,16.1247269347765,2255.9479560486,0,0,0.7144357184,9400,2016-08-18 17:44:33,18,25.575,2255.9479560486,0,0,0.7144357184,248.5,0,0,1024,1024,1024,1024,247.9,0,98,4.273,4.277,4.223,4.253,4.276,4.272,10,AssitedTakeoff,
49.6210232771987,16.1247269282397,2255.9479560486,0,0,0.7107611776,9500,2016-08-18 17:44:33,18,25.575,2255.9479560486,0,0,0.7144357184,248.5,0,0,1024,1024,1024,1024,247.9,0,98,4.273,4.277,4.223,4.253,4.276,4.272,10,AssitedTakeoff,
49.6210232704607,16.1247269290942,2255.9479560486,0,0,0.71290028528,9600,2016-08-18 17:44:34,18,25.575,2255.9479560486,0,0,0.7144357184,248.5,0,0,1024,1024,1024,1024,247.9,0,98,4.273,4.277,4.223,4.253,4.276,4.272,10,AssitedTakeoff,
49.6210231448842,16.1247270651942,2255.9479560486,0,0,0.7688812582,9700,2016-08-18 17:44:34,18,25.575,2255.9479560486,0,0,0.7688812582,248.5,0,0,1024,1024,1024,1024,247.9,0,98,4.273,4.277,4.223,4.253,4.276,4.272,10,AssitedTakeoff,
49.6210231388053,16.1247270698859,2255.9479560486,0,0,0.77133532652,9800,2016-08-18 17:44:34,18,25.575,2255.9479560486,0,0,0.77133532652,248.5,0,0,1024,1024,1024,1024,247.9,0,98,4.273,4.277,4.223,4.253,4.276,4.272,10,AssitedTakeoff,
49.621023111063,16.1247270570184,2255.9479560486,0,0,0.77799543172,10000,2016-08-18 17:44:34,18,25.575,2255.9479560486,0,0,0.77799543172,248.6,0,0,1024,1024,1024,1024,247.9,0,98,4.273,4.277,4.223,4.253,4.276,4.272,10,AssitedTakeoff,
49.6210230174884,16.1247270465367,2255.9479560486,0,0,0.8052165612,10100,2016-08-18 17:44:34,18,25.575,2255.9479560486,0,0,0.8052165612,248.6,0,0,1024,1024,1024,1024,247.9,0,98,4.273,4.277,4.223,4.253,4.276,4.272,10,AssitedTakeoff,
49.6210230264532,16.1247270415586,2255.9479560486,0,0,0.80182745348,10200,2016-08-18 17:44:34,18,25.57,2255.9479560486,0,0,0.8052165612,248.6,0,0,1024,1024,1024,1024,247.9,0,98,4.272,4.276,4.223,4.253,4.275,4.27,10,AssitedTakeoff,
49.6210230343997,16.124727019397,2255.9479560486,0,0,0.7965715478,10300,2016-08-18 17:44:34,18,25.57,2255.9479560486,0,0,0.8052165612,248.6,0,0,1024,1024,1024,1024,247.9,0,98,4.272,4.276,4.223,4.253,4.275,4.27,10,AssitedTakeoff,
49.621023036952,16.1247270271088,2255.9479560486,0,0,0.79676183652,10400,2016-08-18 17:44:34,18,25.57,2255.9479560486,0,0,0.8052165612,248.6,0,0,1024,1024,1024,1024,247.9,0,98,4.272,4.276,4.223,4.253,4.275,4.27,10,AssitedTakeoff,
49.6210229305861,16.1247270338051,2255.9479560486,0,0,0.83059713944,10500,2016-08-18 17:44:34,18,25.57,2255.9479560486,0,0,0.83059713944,248.5,0,0,1024,1024,1024,1024,247.9,0,98,4.272,4.276,4.223,4.253,4.275,4.27,10,AssitedTakeoff,
49.6210229083825,16.124727063154,2255.9479560486,0,0,0.84111879332,10600,2016-08-18 17:44:35,18,25.57,2255.9479560486,0,0,0.84111879332,248.4,0,0,1024,1024,1024,1024,247.9,0,98,4.272,4.276,4.223,4.253,4.275,4.27,10,AssitedTakeoff,
49.6210227830617,16.1247270788023,2255.9479560486,0,0,0.88238847968,10800,2016-08-18 17:44:35,18,25.57,2255.9479560486,0,0,0.88238847968,248.3,0,0,1024,1024,1024,1024,247.9,0,98,4.272,4.276,4.223,4.253,4.275,4.27,10,AssitedTakeoff,
49.6210227560957,16.1247270852624,2255.9479560486,0,0,0.89168638024,10900,2016-08-18 17:44:35,18,25.57,2255.9479560486,0,0,0.89168638024,248.3,0,0,1024,1024,1024,1024,247.9,0,98,4.272,4.276,4.223,4.253,4.275,4.27,10,AssitedTakeoff,
49.6210227571627,16.1247270852421,2255.9479560486,0,0,0.89134517288,11000,2016-08-18 17:44:35,18,25.57,2255.9479560486,0,0,0.89168638024,248.3,0,0,1024,1024,1024,1024,247.9,0,98,4.272,4.276,4.223,4.253,4.275,4.27,10,AssitedTakeoff,
49.6210226566071,16.1247270821559,2255.9479560486,0,0,0.923064334,11100,2016-08-18 17:44:35,18,25.57,2255.9479560486,0,0,0.923064334,248.4,0,0,1024,1024,1024,1024,247.9,0,98,4.272,4.276,4.223,4.253,4.275,4.27,10,AssitedTakeoff,
49.621022687569,16.1247270683315,2255.9479560486,0,0,0.91157811316,11200,2016-08-18 17:44:35,18,25.57,2255.9479560486,0,0,0.923064334,248.4,0,0,1024,1024,1024,1024,247.9,0,98,4.272,4.276,4.223,4.253,4.275,4.27,10,AssitedTakeoff,
49.62102268899,16.1247270716115,2255.9479560486,0,0,0.91149609216,11300,2016-08-18 17:44:35,18,25.566,2255.9479560486,0,0,0.923064334,248.4,0,0,1024,1024,1024,1024,247.9,0,98,4.271,4.274,4.222,4.251,4.275,4.27,10,AssitedTakeoff,
49.6210226961047,16.1247270806568,2255.9479560486,0,0,0.91024937296,11400,2016-08-18 17:44:35,18,25.566,2255.9479560486,0,0,0.923064334,248.3,0,0,1024,1024,1024,1024,247.9,0,98,4.271,4.274,4.222,4.251,4.275,4.27,10,AssitedTakeoff,
49.621022608794,16.1247270713775,2255.9479560486,0,0,0.93724084364,11500,2016-08-18 17:44:35,18,25.566,2255.9479560486,0,0,0.93724084364,248.3,0,0,1024,1024,1024,1024,247.9,0,98,4.271,4.274,4.222,4.251,4.275,4.27,10,AssitedTakeoff,
49.62102261453,16.1247270665597,2255.9479560486,0,0,0.9348589538,11600,2016-08-18 17:44:36,18,25.566,2255.9479560486,0,0,0.93724084364,248.2,0,0,1024,1024,1024,1024,247.9,0,98,4.271,4.274,4.222,4.251,4.275,4.27,10,AssitedTakeoff,
49.6210226083759,16.1247269497172,2255.9479560486,0,0,0.92430449152,11800,2016-08-18 17:44:36,18,25.566,2255.9479560486,0,0,0.93724084364,248.3,0,0,1024,1024,1024,1024,247.9,0,98,4.271,4.274,4.222,4.251,4.275,4.27,10,AssitedTakeoff,
49.6210226081133,16.1247269373733,2255.9479560486,0,0,0.92310370408,11900,2016-08-18 17:44:36,18,25.566,2255.9479560486,0,0,0.93724084364,248.3,0,0,1024,1024,1024,1024,247.9,0,98,4.271,4.274,4.222,4.251,4.275,4.27,10,AssitedTakeoff,
49.6210225989329,16.1247269372154,2255.9479560486,0,0,0.92609583016,12000,2016-08-18 17:44:36,18,25.566,2255.9479560486,0,0,0.93724084364,248.3,0,0,1024,1024,1024,1024,247.9,0,98,4.271,4.274,4.222,4.251,4.275,4.27,10,AssitedTakeoff,
49.6210224872811,16.1247269401787,2255.9479560486,0,0,0.963172603,12100,2016-08-18 17:44:36,18,25.566,2255.9479560486,0,0,0.963172603,248.3,0,0,1024,1024,1024,1024,247.9,0,98,4.271,4.274,4.222,4.251,4.275,4.27,10,AssitedTakeoff,
49.6210224632644,16.1247269425428,2255.9479560486,0,0,0.9713582988,12200,2016-08-18 17:44:36,18,25.566,2255.9479560486,0,0,0.9713582988,248.3,0,0,1024,1024,1024,1024,247.9,0,98,4.271,4.274,4.222,4.251,4.275,4.27,10,AssitedTakeoff,
49.6210224535863,16.1247268377779,2255.9479560486,0,0,0.96448165816,12400,2016-08-18 17:44:36,18,25.566,2255.9479560486,0,0,0.9713582988,248.3,0,0,1024,1024,1024,1024,247.9,0,98,4.271,4.274,4.222,4.251,4.275,4.27,10,AssitedTakeoff,
49.6210223601675,16.1247268411502,2255.9479560486,0,0,0.99617129172,12500,2016-08-18 17:44:36,18,25.562,2255.9479560486,0,0,0.99617129172,248.4,0,0,1024,1024,1024,1024,247.9,0,98,4.271,4.274,4.222,4.251,4.275,4.27,10,AssitedTakeoff,
49.6210223498457,16.1247268584622,2255.9479560486,0,0,1.00122378532,12600,2016-08-18 17:44:36,18,25.562,2255.9479560486,0,0,1.00122378532,248.4,0,0,1024,1024,1024,1024,247.9,0,98,4.271,4.274,4.222,4.251,4.275,4.27,10,AssitedTakeoff,
49.6210223403334,16.1247268711604,2255.9479560486,0,0,1.00558730252,12700,2016-08-18 17:44:37,18,25.562,2255.9479560486,0,0,1.00558730252,248.4,0,0,1024,1024,1024,1024,247.9,0,98,4.271,4.274,4.222,4.251,4.275,4.27,10,AssitedTakeoff,
49.6210223626586,16.1247268819026,2255.9479560486,0,0,0.9990813968,12800,2016-08-18 17:44:37,18,25.562,2255.9479560486,0,0,1.00558730252,248.4,0,0,1024,1024,1024,1024,247.9,0,98,4.271,4.274,4.222,4.251,4.275,4.27,10,AssitedTakeoff,
49.6210223704031,16.1247267863274,2255.9479560486,0,0,0.9877953072,12900,2016-08-18 17:44:37,18,25.562,2255.9479560486,0,0,1.00558730252,248.4,0,0,1024,1024,1024,1024,247.9,0,98,4.271,4.274,4.222,4.251,4.275,4.27,10,AssitedTakeoff,
49.6210223783981,16.1247267907603,2255.9479560486,0,0,0.98548559584,13000,2016-08-18 17:44:37,18,25.562,2255.9479560486,0,0,1.00558730252,248.4,0,0,1024,1024,1024,1024,247.9,0,98,4.271,4.274,4.222,4.251,4.275,4.27,10,AssitedTakeoff,
49.6210222984755,16.1247267729028,2255.9479560486,0,0,1.01101709272,13200,2016-08-18 17:44:37,18,25.562,2255.9479560486,0,0,1.01101709272,248.3,0,0,1024,1024,1024,1024,247.9,0,98,4.271,4.274,4.222,4.251,4.275,4.27,10,AssitedTakeoff,
49.6210222896304,16.1247266711245,2255.9479560486,0,0,1.00556761748,13300,2016-08-18 17:44:37,18,25.562,2255.9479560486,0,0,1.01101709272,248.2,0,0,1024,1024,1024,1024,247.9,0,98,4.271,4.274,4.222,4.251,4.275,4.27,10,AssitedTakeoff,
49.6210222928993,16.1247266538052,2255.9479560486,0,0,1.00305777488,13400,2016-08-18 17:44:37,18,25.562,2255.9479560486,0,0,1.01101709272,248.2,0,0,1024,1024,1024,1024,247.9,0,98,4.271,4.274,4.222,4.251,4.275,4.27,10,AssitedTakeoff,
49.6210221977132,16.1247266464457,2255.9479560486,0,0,1.03524281528,13500,2016-08-18 17:44:37,18,25.562,2255.9479560486,0,0,1.03524281528,248.3,0,0,1024,1024,1024,1024,247.9,0,98,4.271,4.274,4.222,4.251,4.275,4.27,10,AssitedTakeoff,
49.6210222055694,16.1247266351085,2255.9479560486,0,0,1.031660138,13600,2016-08-18 17:44:37,18,25.559,2255.9479560486,0,0,1.03524281528,248.3,0,0,1024,1024,1024,1024,247.9,0,98,4.269,4.275,4.221,4.251,4.274,4.269,10,AssitedTakeoff,
49.6210222137017,16.1247265106759,2255.9479560486,0,0,1.01967522948,13700,2016-08-18 17:44:38,18,25.559,2255.9479560486,0,0,1.03524281528,248.2,0,0,1024,1024,1024,1024,247.9,0,98,4.269,4.275,4.221,4.251,4.274,4.269,10,AssitedTakeoff,
49.6210222137017,16.1247265106759,2255.9479560486,0,0,1.01967522948,13700,2016-08-18 17:44:38,18,25.559,2255.9479560486,0,0,1.03524281528,248.2,0,0,1024,1024,1024,1024,247.9,0,98,4.269,4.275,4.221,4.251,4.274,4.269,10,AssitedTakeoff,
49.6210221990654,16.1247264650057,2255.9479560486,0,0,1.02160764424,13900,2016-08-18 17:44:38,18,25.559,2255.9479560486,0,0,1.03524281528,248.1,0,0,1024,1024,1024,1024,247.9,0,98,4.269,4.275,4.221,4.251,4.274,4.269,10,AssitedTakeoff,
49.6210221977126,16.1247264460233,2255.9479560486,0,0,1.0208005576,14000,2016-08-18 17:44:38,18,25.559,2255.9479560486,0,0,1.03524281528,248.1,0,0,1024,1024,1024,1024,247.9,0,98,4.269,4.275,4.221,4.251,4.274,4.269,10,AssitedTakeoff,
49.6210220849616,16.1247263437321,2255.9479560486,0,0,1.05395672664,14100,2016-08-18 17:44:38,18,25.559,2255.9479560486,0,0,1.05395672664,248,0,0,1024,1024,1024,1024,247.9,0,98,4.269,4.275,4.221,4.251,4.274,4.269,10,AssitedTakeoff,
49.6210220759277,16.1247263509544,2255.9479560486,0,0,1.057578774,14200,2016-08-18 17:44:38,18,25.559,2255.9479560486,0,0,1.057578774,247.9,0,0,1024,1024,1024,1024,247.9,0,98,4.269,4.275,4.221,4.251,4.274,4.269,10,AssitedTakeoff,
49.6210220599318,16.1247264067095,2255.9479560486,0,0,1.06661420736,14300,2016-08-18 17:44:38,18,25.559,2255.9479560486,0,0,1.06661420736,247.9,0,0,1024,1024,1024,1024,247.9,0,98,4.269,4.275,4.221,4.251,4.274,4.269,10,AssitedTakeoff,
49.6210220561863,16.1247264050715,2255.9479560486,0,0,1.067831399,14400,2016-08-18 17:44:38,18,25.559,2255.9479560486,0,0,1.067831399,248,0,0,1024,1024,1024,1024,247.9,0,98,4.269,4.275,4.221,4.251,4.274,4.269,10,AssitedTakeoff,
49.6210220683279,16.1247264277118,2255.9479560486,0,0,1.06498034904,14600,2016-08-18 17:44:38,18,25.559,2255.9479560486,0,0,1.067831399,248.1,0,0,1024,1024,1024,1024,247.9,0,98,4.269,4.275,4.221,4.251,4.274,4.269,10,AssitedTakeoff,
49.6210220660202,16.1247263220195,2255.9479560486,0,0,1.05937339348,14700,2016-08-18 17:44:39,18,25.557,2255.9479560486,0,0,1.067831399,248.2,0,0,1024,1024,1024,1024,247.9,0,98,4.269,4.274,4.22,4.251,4.274,4.268,10,AssitedTakeoff,
49.6210220620942,16.1247263267119,2255.9479560486,0,0,1.06103677936,14800,2016-08-18 17:44:39,18,25.557,2255.9479560486,0,0,1.067831399,248.2,0,0,1024,1024,1024,1024,247.9,0,98,4.269,4.274,4.22,4.251,4.274,4.268,10,AssitedTakeoff,
49.6210219605511,16.1247263402449,2255.9479560486,0,0,1.09774609812,14900,2016-08-18 17:44:39,18,25.557,2255.9479560486,0,0,1.09774609812,248.1,0,0,1024,1024,1024,1024,247.9,0,98,4.269,4.274,4.22,4.251,4.274,4.268,10,AssitedTakeoff,
49.621021991689,16.1247263507656,2255.9479560486,0,0,1.08733271196,15000,2016-08-18 17:44:39,18,25.557,2255.9479560486,0,0,1.09774609812,248.1,0,0,1024,1024,1024,1024,247.9,0,98,4.269,4.274,4.22,4.251,4.274,4.268,10,AssitedTakeoff,
49.6210219940654,16.1247262481551,2255.9479560486,0,0,1.08078087448,15100,2016-08-18 17:44:39,18,25.557,2255.9479560486,0,0,1.09774609812,248,0,0,1024,1024,1024,1024,247.9,0,98,4.269,4.274,4.22,4.251,4.274,4.268,10,AssitedTakeoff,
49.621021994543,16.1247262407136,2255.9479560486,0,0,1.08021657,15200,2016-08-18 17:44:39,18,25.557,2255.9479560486,0,0,1.09774609812,248,0,0,1024,1024,1024,1024,247.9,0,98,4.269,4.274,4.22,4.251,4.274,4.268,10,AssitedTakeoff,
49.6210220017218,16.1247262374854,2255.9479560486,0,0,1.0774934728,15300,2016-08-18 17:44:39,18,25.557,2255.9479560486,0,0,1.09774609812,248,0,0,1024,1024,1024,1024,247.9,0,98,4.269,4.274,4.22,4.251,4.274,4.268,10,AssitedTakeoff,
49.6210219948615,16.1247262355077,2255.9479560486,0,0,1.07982943088,15400,2016-08-18 17:44:39,18,25.557,2255.9479560486,0,0,1.09774609812,248,0,0,1024,1024,1024,1024,247.9,0,98,4.269,4.274,4.22,4.251,4.274,4.268,10,AssitedTakeoff,
49.6210219869095,16.1247262285752,2255.9479560486,0,0,1.08229662256,15500,2016-08-18 17:44:39,18,25.557,2255.9479560486,0,0,1.09774609812,248.1,0,0,1024,1024,1024,1024,247.9,0,98,4.269,4.274,4.22,4.251,4.274,4.268,10,AssitedTakeoff,
49.621021981812,16.1247262362272,2255.9479560486,0,0,1.08451118956,15600,2016-08-18 17:44:39,18,25.557,2255.9479560486,0,0,1.09774609812,248.2,0,0,1024,1024,1024,1024,247.9,0,98,4.269,4.274,4.22,4.251,4.274,4.268,10,AssitedTakeoff,
49.6210219785862,16.124726130369,2255.9479560486,0,0,1.0803970162,15700,2016-08-18 17:44:40,18,25.551,2255.9479560486,0,0,1.09774609812,248.3,0,0,1024,1024,1024,1024,247.9,0,98,4.269,4.273,4.22,4.25,4.273,4.268,10,AssitedTakeoff,
49.6210219764601,16.1247261278291,2255.9479560486,0,0,1.08104006084,15800,2016-08-18 17:44:40,18,25.551,2255.9479560486,0,0,1.09774609812,248.4,0,0,1024,1024,1024,1024,247.9,0,98,4.269,4.273,4.22,4.25,4.273,4.268,10,AssitedTakeoff,
49.6210219744249,16.1247261231141,2255.9479560486,0,0,1.0815453102,15900,2016-08-18 17:44:40,18,25.551,2255.9479560486,0,0,1.09774609812,248.4,0,0,1024,1024,1024,1024,247.9,0,98,4.269,4.273,4.22,4.25,4.273,4.268,10,AssitedTakeoff,
49.6210219667833,16.1247261230891,2255.9479560486,0,0,1.08427824992,16000,2016-08-18 17:44:40,18,25.551,2255.9479560486,0,0,1.09774609812,248.3,0,0,1024,1024,1024,1024,247.9,0,98,4.269,4.273,4.22,4.25,4.273,4.268,10,AssitedTakeoff,
49.6210219634343,16.124726117146,2255.9479560486,0,0,1.08520016596,16100,2016-08-18 17:44:40,18,25.551,2255.9479560486,0,0,1.09774609812,248.3,0,0,1024,1024,1024,1024,247.9,0,98,4.269,4.273,4.22,4.25,4.273,4.268,10,AssitedTakeoff,
49.6210219843313,16.1247260079983,2255.9479560486,0,0,1.0729495094,16300,2016-08-18 17:44:40,18,25.551,2255.9479560486,0,0,1.09774609812,248.2,0,0,1024,1024,1024,1024,247.9,0,98,4.269,4.273,4.22,4.25,4.273,4.268,10,AssitedTakeoff,
49.6210219843313,16.1247260079983,2255.9479560486,0,0,1.0729495094,16300,2016-08-18 17:44:40,18,25.551,2255.9479560486,0,0,1.09774609812,248.2,0,0,1024,1024,1024,1024,247.9,0,98,4.269,4.273,4.22,4.25,4.273,4.268,10,AssitedTakeoff,
49.6210219911441,16.1247259987939,2255.9479560486,0,0,1.07012470616,16400,2016-08-18 17:44:40,18,25.551,2255.9479560486,0,0,1.09774609812,248.2,0,0,1024,1024,1024,1024,247.9,0,98,4.269,4.273,4.22,4.25,4.273,4.268,10,AssitedTakeoff,
49.6210220165617,16.1247260026615,2255.9479560486,0,0,1.06114832792,16500,2016-08-18 17:44:40,18,25.551,2255.9479560486,0,0,1.09774609812,248.3,0,0,1024,1024,1024,1024,247.9,0,98,4.269,4.273,4.22,4.25,4.273,4.268,10,AssitedTakeoff,
49.6210220179826,16.124725991011,2255.9479560486,0,0,1.06016079508,16600,2016-08-18 17:44:41,18,25.551,2255.9479560486,0,0,1.09774609812,248.2,0,0,1024,1024,1024,1024,247.9,0,98,4.269,4.273,4.22,4.25,4.273,4.268,10,AssitedTakeoff,
49.6210219220893,16.1247259840908,2255.9479560486,0,0,1.0943733946,16700,2016-08-18 17:44:41,18,25.553,2255.9479560486,0,0,1.09774609812,248.2,0,0,1024,1024,1024,1024,247.9,0,98,4.269,4.273,4.22,4.25,4.273,4.268,10,AssitedTakeoff,
49.6210219396841,16.1247259827693,2255.9479560486,0,0,1.08798887996,16800,2016-08-18 17:44:41,18,25.553,2255.9479560486,0,0,1.09774609812,248.1,0,0,1024,1024,1024,1024,247.9,0,98,4.269,4.273,4.22,4.25,4.273,4.268,10,AssitedTakeoff,
49.6210219493662,16.1247258834236,2255.9479560486,0,0,1.08085305296,17000,2016-08-18 17:44:41,18,25.553,2255.9479560486,0,0,1.09774609812,248.2,0,0,1024,1024,1024,1024,247.9,0,98,4.269,4.273,4.22,4.25,4.273,4.268,10,AssitedTakeoff,
49.6210219340854,16.1247259109943,2255.9479560486,0,0,1.08732943112,17100,2016-08-18 17:44:41,18,25.553,2255.9479560486,0,0,1.09774609812,248.2,0,0,1024,1024,1053,1024,247.9,0,98,4.269,4.273,4.22,4.25,4.273,4.268,10,AssitedTakeoff,
49.6210219298506,16.1247259025441,2255.9479560486,0,0,1.08855646528,17200,2016-08-18 17:44:41,18,25.553,2255.9479560486,0,0,1.09774609812,248.3,0,0,1024,1024,1164,1024,247.9,0,98,4.269,4.273,4.22,4.25,4.273,4.268,10,AssitedTakeoff,
49.6210219233511,16.124725890863,2255.9479560486,0,0,1.09049872256,17300,2016-08-18 17:44:41,18,25.553,2255.9479560486,0,0,1.09774609812,248.3,0,0,1024,1024,1265,1024,247.9,0,98,4.269,4.273,4.22,4.25,4.273,4.268,10,AssitedTakeoff,
49.6210218917397,16.1247259093724,2255.9479560486,0,0,1.10254924788,17400,2016-08-18 17:44:41,18,25.553,2255.9479560486,0,0,1.10254924788,248.2,0,0,1024,1024,1326,1024,247.9,0,98,4.269,4.273,4.22,4.25,4.273,4.268,10,AssitedTakeoff,
49.6210218870517,16.1247259131139,2255.9479560486,0,0,1.10437011408,17500,2016-08-18 17:44:41,18,25.553,2255.9479560486,0,0,1.10437011408,248.2,0,0,1024,1024,1372,1024,247.9,0,98,4.269,4.273,4.22,4.25,4.273,4.268,10,AssitedTakeoff,
49.6210218787419,16.1247259251042,2255.9479560486,0,0,1.1077920302,17600,2016-08-18 17:44:42,18,25.553,2255.9479560486,0,0,1.1077920302,248.2,0,0,1024,1024,1376,1024,247.9,0,98,4.269,4.273,4.22,4.25,4.273,4.268,10,AssitedTakeoff,
49.6210217055461,16.1247254065199,2255.9479560486,0,0.4921268,1.15921591636,18000,2016-08-18 17:44:42,18,25.553,2255.9479560486,0,0.4921268,1.15921591636,247.6,0,0,1024,1024,1371,1024,247.9,0,98,4.269,4.273,4.22,4.25,4.273,4.268,10,AssitedTakeoff,
49.6210216052809,16.1247249943721,2255.9479560486,0,0.4921268,1.19615161308,18100,2016-08-18 17:44:42,18,25.553,2255.9479560486,0,0.4921268,1.19615161308,247.4,0,0,1024,1024,1354,1024,247.9,0,98,4.269,4.273,4.22,4.25,4.273,4.268,6,GPS_Atti,
49.6210214520055,16.1247245825745,2255.9479560486,0,0.8052984,1.25992786184,18200,2016-08-18 17:44:42,18,25.553,2255.9479560486,0,0.8052984,1.25992786184,247.3,0,0,1024,1024,1337,1024,247.9,0,98,4.269,4.273,4.22,4.25,4.273,4.268,6,GPS_Atti,
49.6210212442626,16.1247237011198,2256.2760400486,0.328084,0.8052984,1.37440293112,18300,2016-08-18 17:44:42,18,25.553,2256.2760400486,0.328084,0.8052984,1.37440293112,247.3,0,0,1024,1024,1194,1024,247.9,0,98,4.269,4.273,4.22,4.25,4.273,4.268,6,GPS_Atti,
49.6210210615481,16.1247231422154,2256.2760400486,0.328084,0.8052984,1.47737209452,18400,2016-08-18 17:44:42,18,25.553,2256.2760400486,0.328084,0.8052984,1.47737209452,247.3,0,0,1024,1024,1024,1024,247.9,0,98,4.269,4.273,4.22,4.25,4.273,4.268,6,GPS_Atti,
49.6210207787988,16.1247224132501,2256.6041240486,0.656168,0.8052984,1.636975118,18500,2016-08-18 17:44:42,18,25.553,2256.6041240486,0.656168,0.8052984,1.636975118,247.3,0,0,1024,1024,1024,1024,247.9,0,98,4.269,4.273,4.22,4.25,4.273,4.268,6,GPS_Atti,
49.621020561966,16.1247218731937,2256.9322080486,0.984252,0.8052984,1.76306436088,18600,2016-08-18 17:44:43,18,25.553,2256.9322080486,0.984252,0.8052984,1.76306436088,247.4,0,0,1024,1024,1024,1024,247.9,0,98,4.269,4.273,4.22,4.25,4.273,4.268,6,GPS_Atti,
49.6210202544217,16.1247206901697,2257.2602920486,1.312336,0.8052984,1.99879599572,18800,2016-08-18 17:44:43,18,25.553,2257.2602920486,1.312336,0.8052984,1.99879599572,247.3,0,0,1024,1024,1024,1024,247.9,0,98,4.269,4.273,4.22,4.25,4.273,4.268,6,GPS_Atti,
49.6210199708218,16.1247202962316,2257.2602920486,1.312336,0.6263432,2.13617460904,18900,2016-08-18 17:44:43,18,25.553,2257.2602920486,1.312336,0.8052984,2.13617460904,247.3,0,0,1024,1024,1024,1024,247.9,0,98,4.269,4.273,4.22,4.25,4.273,4.268,6,GPS_Atti,
49.6210198097264,16.1247199115094,2257.2602920486,1.312336,0.3131716,2.23544298492,19000,2016-08-18 17:44:43,18,25.553,2257.2602920486,1.312336,0.8052984,2.23544298492,247.4,0,0,1024,1024,1029,1024,247.9,0,98,4.269,4.273,4.22,4.25,4.273,4.268,6,GPS_Atti,
49.6210198106628,16.1247196039183,2257.2602920486,1.312336,0.3131716,2.27676844556,19100,2016-08-18 17:44:43,17,25.553,2257.2602920486,1.312336,0.8052984,2.27676844556,247.4,0,0,1024,1024,1256,1024,247.9,0,98,4.269,4.273,4.22,4.25,4.273,4.268,6,GPS_Atti,
49.6210197283709,16.1247194576434,2257.5883760486,1.64042,0,2.32134521864,19200,2016-08-18 17:44:43,17,25.55,2257.5883760486,1.64042,0.8052984,2.32134521864,247.5,0,0,1024,1024,1393,1024,247.9,0,98,4.269,4.273,4.219,4.249,4.273,4.267,6,GPS_Atti,
49.6210198457437,16.1247196684805,2257.5883760486,1.64042,0,2.25747710636,19300,2016-08-18 17:44:43,17,25.55,2257.5883760486,1.64042,0.8052984,2.32134521864,247.5,0,0,1024,1024,1341,1024,247.9,0,98,4.269,4.273,4.219,4.249,4.273,4.267,6,GPS_Atti,
49.6210199239201,16.1247200582165,2257.9164600486,1.968504,0.223694,2.18150269448,19500,2016-08-18 17:44:43,17,25.55,2257.9164600486,1.968504,0.8052984,2.32134521864,247.3,0,0,1024,1024,1024,1024,247.9,0,98,4.269,4.273,4.219,4.249,4.273,4.267,6,GPS_Atti,
49.6210200693314,16.1247203101811,2258.2445440486,2.296588,0.223694,2.10430781012,19600,2016-08-18 17:44:43,17,25.55,2258.2445440486,2.296588,0.8052984,2.32134521864,247.3,0,0,1024,1024,1024,1024,247.9,0,98,4.269,4.273,4.219,4.249,4.273,4.267,6,GPS_Atti,
49.6210199902624,16.1247204379317,2258.5726280486,2.624672,0,2.11211949016,19700,2016-08-18 17:44:44,18,25.55,2258.5726280486,2.624672,0.8052984,2.32134521864,247.4,0,0,1024,1024,1024,1024,247.9,0,98,4.269,4.273,4.219,4.249,4.273,4.267,6,GPS_Atti,
49.6210199594156,16.1247204691462,2258.5726280486,2.624672,0,2.11771332236,19800,2016-08-18 17:44:44,18,25.55,2258.5726280486,2.624672,0.8052984,2.32134521864,247.4,0,0,1024,1024,1024,1024,247.9,0,98,4.269,4.273,4.219,4.249,4.273,4.267,6,GPS_Atti,
49.6210198612808,16.1247208568207,2258.5726280486,2.624672,0.223694,2.10170282316,19900,2016-08-18 17:44:44,18,25.55,2258.5726280486,2.624672,0.8052984,2.32134521864,247.5,0,0,1024,1024,1260,1024,247.9,0,98,4.269,4.273,4.219,4.249,4.273,4.267,6,GPS_Atti,
49.6210198201778,16.1247209938516,2258.9007120486,2.952756,0.223694,2.09917657636,20000,2016-08-18 17:44:44,18,25.55,2258.9007120486,2.952756,0.8052984,2.32134521864,247.6,0,0,1024,1024,1351,1024,247.9,0,98,4.269,4.273,4.219,4.249,4.273,4.267,6,GPS_Atti,
49.6210198492555,16.1247212408239,2258.9007120486,2.952756,0.223694,2.06258864868,20100,2016-08-18 17:44:44,18,25.55,2258.9007120486,2.952756,0.8052984,2.32134521864,247.6,0,0,1024,1024,1336,1024,247.9,0,98,4.269,4.273,4.219,4.249,4.273,4.267,6,GPS_Atti,
49.6210199283834,16.1247216559984,2259.5568800486,3.608924,0,1.99352368584,20300,2016-08-18 17:44:44,18,25.55,2259.5568800486,3.608924,0.8052984,2.32134521864,247.6,0,0,1024,1024,1322,1024,247.9,0,98,4.269,4.273,4.219,4.249,4.273,4.267,6,GPS_Atti,
49.6210199444671,16.124721764552,2259.8849640486,3.937008,0,1.97747381656,20400,2016-08-18 17:44:44,18,24.223,2259.8849640486,3.937008,0.8052984,2.32134521864,247.5,0,0,1024,1024,1146,1024,247.9,0,98,4.037,4.048,3.972,4.015,4.055,4.048,6,GPS_Atti,
49.6210200458285,16.1247219056055,2260.2130480486,4.265092,0,1.93008208276,20500,2016-08-18 17:44:44,18,24.223,2260.2130480486,4.265092,0.8052984,2.32134521864,247.5,0,0,1024,1024,1024,1024,247.9,0,98,4.037,4.048,3.972,4.015,4.055,4.048,6,GPS_Atti,
49.6210200756125,16.1247219306402,2260.5411320486,4.593176,0,1.9177494052,20600,2016-08-18 17:44:44,18,24.223,2260.5411320486,4.593176,0.8052984,2.32134521864,247.5,0,0,1024,1024,1024,1024,247.9,0,98,4.037,4.048,3.972,4.015,4.055,4.048,6,GPS_Atti,
49.621020177144,16.1247221017585,2260.8692160486,4.92126,0,1.86761488916,20700,2016-08-18 17:44:45,17,24.223,2260.8692160486,4.92126,0.8052984,2.32134521864,247.5,0,0,1024,1024,1024,1024,247.9,0,98,4.037,4.048,3.972,4.015,4.055,4.048,6,GPS_Atti,
49.6210202125154,16.1247221121049,2260.8692160486,4.92126,0,1.85479664728,20800,2016-08-18 17:44:45,17,24.223,2260.8692160486,4.92126,0.8052984,2.32134521864,247.5,0,0,1024,1024,1024,1024,247.9,0,98,4.037,4.048,3.972,4.015,4.055,4.048,6,GPS_Atti,Landing Gear Raising
49.6210204157149,16.1247220574269,2261.1973000486,5.249344,0,1.79231304948,21000,2016-08-18 17:44:45,18,24.223,2261.1973000486,5.249344,0.8052984,2.32134521864,247.6,0,0,1024,1024,1024,1024,247.9,0,98,4.037,4.048,3.972,4.015,4.055,4.048,6,GPS_Atti,
49.6210206252516,16.1247222572482,2261.1973000486,5.249344,0,1.70316934584,21100,2016-08-18 17:44:45,18,24.223,2261.1973000486,5.249344,0.8052984,2.32134521864,247.6,0,0,1024,1024,1024,1024,247.9,0,98,4.037,4.048,3.972,4.015,4.055,4.048,6,GPS_Atti,
49.6210206656544,16.1247222590326,2261.5253840486,5.577428,0,1.6895669832,21200,2016-08-18 17:44:45,18,24.223,2261.5253840486,5.577428,0.8052984,2.32134521864,247.5,0,0,1024,1024,1024,1024,247.9,0,98,4.037,4.048,3.972,4.015,4.055,4.048,6,GPS_Atti,
49.6210208750429,16.1247227191038,2261.5253840486,5.577428,0.223694,1.5764272158,21300,2016-08-18 17:44:45,18,24.223,2261.5253840486,5.577428,0.8052984,2.32134521864,247.6,0,0,1024,1024,1024,1024,247.9,0,98,4.037,4.048,3.972,4.015,4.055,4.048,6,GPS_Atti,
49.6210209438824,16.1247228767962,2261.5253840486,5.577428,0.223694,1.539370128,21400,2016-08-18 17:44:45,18,24.223,2261.5253840486,5.577428,0.8052984,2.32134521864,247.6,0,0,1024,1024,1024,1024,247.9,0,98,4.037,4.048,3.972,4.015,4.055,4.048,6,GPS_Atti,
49.6210210082391,16.1247232782242,2261.5253840486,5.577428,0.223694,1.485482331,21500,2016-08-18 17:44:45,18,23.777,2261.5253840486,5.577428,0.8052984,2.32134521864,247.7,0,0,1024,1024,1024,1024,247.9,0,98,4.028,3.926,3.959,3.92,4.018,4.036,6,GPS_Atti,
49.6210210595722,16.1247234485551,2261.5253840486,5.577428,0.223694,1.4555938786,21600,2016-08-18 17:44:45,18,23.777,2261.5253840486,5.577428,0.8052984,2.32134521864,247.7,0,0,1024,1024,1024,1024,247.9,0,98,4.028,3.926,3.959,3.92,4.018,4.036,6,GPS_Atti,
49.6210212144747,16.1247240873742,2261.5253840486,5.577428,0.223694,1.36408140848,21800,2016-08-18 17:44:46,18,23.777,2261.5253840486,5.577428,0.8052984,2.32134521864,247.8,0,0,1024,1024,1024,1024,247.9,0,98,4.028,3.926,3.959,3.92,4.018,4.036,6,GPS_Atti,
49.621021177261,16.1247242191566,2261.5253840486,5.577428,0,1.37168311476,21900,2016-08-18 17:44:46,18,23.777,2261.5253840486,5.577428,0.8052984,2.32134521864,247.9,0,0,1024,1024,1024,1024,247.9,0,98,4.028,3.926,3.959,3.92,4.018,4.036,6,GPS_Atti,
49.621021175817,16.1247243383489,2261.5253840486,5.577428,0,1.36762471568,22000,2016-08-18 17:44:46,18,23.777,2261.5253840486,5.577428,0.8052984,2.32134521864,247.9,0,0,1024,1024,1024,1024,247.9,0,98,4.028,3.926,3.959,3.92,4.018,4.036,6,GPS_Atti,
49.6210212049872,16.1247246309746,2261.5253840486,5.577428,0,1.34821854708,22100,2016-08-18 17:44:46,18,23.777,2261.5253840486,5.577428,0.8052984,2.32134521864,247.9,0,0,1024,1024,1024,1024,247.9,0,98,4.028,3.926,3.959,3.92,4.018,4.036,6,GPS_Atti,
49.6210211811509,16.1247247057031,2261.5253840486,5.577428,0,1.35517064704,22200,2016-08-18 17:44:46,18,23.777,2261.5253840486,5.577428,0.8052984,2.32134521864,247.8,0,0,1024,1024,1024,1024,247.9,0,98,4.028,3.926,3.959,3.92,4.018,4.036,6,GPS_Atti,
49.6210211201046,16.1247247175728,2261.5253840486,5.577428,0,1.37710962412,22300,2016-08-18 17:44:46,18,23.777,2261.5253840486,5.577428,0.8052984,2.32134521864,247.8,0,0,1024,1024,1024,1024,247.9,0,98,4.028,3.926,3.959,3.92,4.018,4.036,6,GPS_Atti,
49.6210211266781,16.1247247230521,2261.5253840486,5.577428,0,1.37460962404,22400,2016-08-18 17:44:46,18,23.777,2261.5253840486,5.577428,0.8052984,2.32134521864,247.7,0,0,1024,1024,1024,1024,247.9,0,98,4.028,3.926,3.959,3.92,4.018,4.036,6,GPS_Atti,
49.6210211127371,16.1247249527123,2261.5253840486,5.577428,0,1.37611881044,22500,2016-08-18 17:44:46,18,23.777,2261.5253840486,5.577428,0.8052984,2.32134521864,247.6,0,0,1024,1024,1024,1024,247.9,0,98,4.028,3.926,3.959,3.92,4.018,4.036,6,GPS_Atti,
49.6210211011532,16.1247249064014,2261.5253840486,5.577428,0,1.38088587096,22600,2016-08-18 17:44:47,18,23.935,2261.5253840486,5.577428,0.8052984,2.32134521864,247.6,0,0,1024,1024,1024,1024,247.9,0,98,4.001,4.001,3.959,3.934,4.04,4.03,6,GPS_Atti,
49.6210211526244,16.124725128234,2261.5253840486,5.577428,0,1.3602854766,22700,2016-08-18 17:44:47,18,23.935,2261.5253840486,5.577428,0.8052984,2.32134521864,247.6,0,0,1024,1024,1024,1024,247.9,0,98,4.001,4.001,3.959,3.934,4.04,4.03,6,GPS_Atti,
49.6210211405369,16.1247250897208,2261.5253840486,5.577428,0,1.36487209092,22800,2016-08-18 17:44:47,18,23.935,2261.5253840486,5.577428,0.8052984,2.32134521864,247.6,0,0,1024,1024,1024,1024,247.9,0,98,4.001,4.001,3.959,3.934,4.04,4.03,6,GPS_Atti,
49.6210212828501,16.1247253009025,2261.5253840486,5.577428,0,1.31273954332,23000,2016-08-18 17:44:47,18,23.935,2261.5253840486,5.577428,0.8052984,2.32134521864,247.6,0,0,1024,1024,1024,1024,247.9,0,98,4.001,4.001,3.959,3.934,4.04,4.03,6,GPS_Atti,
49.6210212728596,16.1247253805128,2261.5253840486,5.577428,0,1.31679138072,23100,2016-08-18 17:44:47,18,23.935,2261.5253840486,5.577428,0.8052984,2.32134521864,247.5,0,0,1024,1024,1024,1024,247.9,0,98,4.001,4.001,3.959,3.934,4.04,4.03,6,GPS_Atti,
49.621021267247,16.1247253586571,2261.5253840486,5.577428,0,1.31869754876,23200,2016-08-18 17:44:47,18,23.935,2261.5253840486,5.577428,0.8052984,2.32134521864,247.4,0,0,1024,1024,1024,1024,247.9,0,98,4.001,4.001,3.959,3.934,4.04,4.03,6,GPS_Atti,
49.6210211752648,16.1247255909243,2261.5253840486,5.577428,0,1.35468836356,23300,2016-08-18 17:44:47,18,23.935,2261.5253840486,5.577428,0.8052984,2.32134521864,247.4,0,0,1024,1024,1024,1024,247.9,0,98,4.001,4.001,3.959,3.934,4.04,4.03,6,GPS_Atti,
49.6210211743625,16.1247255498768,2261.5253840486,5.577428,0,1.35442589636,23400,2016-08-18 17:44:47,18,23.935,2261.5253840486,5.577428,0.8052984,2.32134521864,247.4,0,0,1024,1024,1024,1024,247.9,0,98,4.001,4.001,3.959,3.934,4.04,4.03,6,GPS_Atti,
49.6210211728239,16.1247255953278,2261.5253840486,5.577428,0,1.35564636884,23500,2016-08-18 17:44:47,18,23.935,2261.5253840486,5.577428,0.8052984,2.32134521864,247.5,0,0,1024,1024,1024,1024,247.9,0,98,4.001,4.001,3.959,3.934,4.04,4.03,6,GPS_Atti,
49.6210211957648,16.1247256649113,2261.5253840486,5.577428,0,1.34847773344,23700,2016-08-18 17:44:48,18,23.935,2261.5253840486,5.577428,0.8052984,2.32134521864,247.7,0,0,1024,1024,1024,1024,247.9,0,98,4.001,4.001,3.959,3.934,4.04,4.03,6,GPS_Atti,
49.6210211879948,16.1247256458042,2261.5253840486,5.577428,0,1.35095804848,23800,2016-08-18 17:44:48,18,23.876,2261.5253840486,5.577428,0.8052984,2.32134521864,247.7,0,0,1024,1024,1024,1024,247.9,0,98,3.987,4.004,3.935,3.955,4.004,3.997,6,GPS_Atti,
49.621021301647,16.1247257562526,2261.5253840486,5.577428,0,1.3118766824,23900,2016-08-18 17:44:48,18,23.876,2261.5253840486,5.577428,0.8052984,2.32134521864,247.7,0,0,1024,1024,1024,1024,247.9,0,98,3.987,4.004,3.935,3.955,4.004,3.997,6,GPS_Atti,
49.6210212933959,16.1247257411166,2261.5253840486,5.577428,0,1.31453088196,24000,2016-08-18 17:44:48,18,23.876,2261.5253840486,5.577428,0.8052984,2.32134521864,247.7,0,0,1024,1024,1024,1024,247.9,0,98,3.987,4.004,3.935,3.955,4.004,3.997,6,GPS_Atti,
49.6210212925973,16.1247257295463,2261.5253840486,5.577428,0,1.31457025204,24100,2016-08-18 17:44:48,18,23.876,2261.5253840486,5.577428,0.8052984,2.32134521864,247.7,0,0,1024,1024,1024,1024,247.9,0,98,3.987,4.004,3.935,3.955,4.004,3.997,6,GPS_Atti,
49.6210212846829,16.1247257186724,2261.5253840486,5.577428,0,1.31721132824,24200,2016-08-18 17:44:48,18,23.876,2261.5253840486,5.577428,0.8052984,2.32134521864,247.8,0,0,1024,1024,1024,1024,247.9,0,98,3.987,4.004,3.935,3.955,4.004,3.997,6,GPS_Atti,
49.6210214175248,16.1247258242461,2261.5253840486,5.577428,0,1.2715059462,24300,2016-08-18 17:44:48,18,23.876,2261.5253840486,5.577428,0.8052984,2.32134521864,247.8,0,0,1024,1024,1024,1024,247.9,0,98,3.987,4.004,3.935,3.955,4.004,3.997,6,GPS_Atti,
49.6210213902617,16.1247258246785,2261.5253840486,5.577428,0,1.28140095964,24400,2016-08-18 17:44:48,18,23.876,2261.5253840486,5.577428,0.8052984,2.32134521864,247.7,0,0,1024,1024,1024,1024,247.9,0,98,3.987,4.004,3.935,3.955,4.004,3.997,6,GPS_Atti,
49.6210213859461,16.1247258079127,2261.5253840486,5.577428,0,1.28253284944,24600,2016-08-18 17:44:48,18,23.876,2261.5253840486,5.577428,0.8052984,2.32134521864,247.6,0,0,1024,1024,1024,1024,247.9,0,98,3.987,4.004,3.935,3.955,4.004,3.997,6,GPS_Atti,
49.6210214765721,16.1247256750473,2261.5253840486,5.577428,0,1.24656500052,24800,2016-08-18 17:44:49,18,23.876,2261.5253840486,5.577428,0.8052984,2.32134521864,247.4,0,0,1024,1024,1024,1024,247.9,0,98,3.987,4.004,3.935,3.955,4.004,3.997,6,GPS_Atti,
49.6210215125112,16.1247256301879,2261.5253840486,5.577428,0,1.23262471136,24900,2016-08-18 17:44:49,18,23.876,2261.5253840486,5.577428,0.8052984,2.32134521864,247.4,0,0,1024,1024,1024,1024,247.9,0,98,3.987,4.004,3.935,3.955,4.004,3.997,6,GPS_Atti,
49.6210215075446,16.1247256281595,2261.5253840486,5.577428,0,1.23439308412,25000,2016-08-18 17:44:49,18,23.822,2261.5253840486,5.577428,0.8052984,2.32134521864,247.5,0,0,1024,1024,1024,1024,247.9,0,98,3.983,3.998,3.924,3.94,3.994,3.99,6,GPS_Atti,
49.6210215955087,16.1247256357626,2261.5253840486,5.577428,0,1.20254597024,25100,2016-08-18 17:44:49,18,23.822,2261.5253840486,5.577428,0.8052984,2.32134521864,247.6,0,0,1024,1024,1024,1024,247.9,0,98,3.983,3.998,3.924,3.94,3.994,3.99,6,GPS_Atti,
49.6210215642555,16.1247256387233,2261.5253840486,5.577428,0,1.21396657428,25300,2016-08-18 17:44:49,18,23.822,2261.5253840486,5.577428,0.8052984,2.32134521864,247.6,0,0,1024,1024,1024,1024,247.9,0,98,3.983,3.998,3.924,3.94,3.994,3.99,6,GPS_Atti,
49.6210215336308,16.1247256561415,2261.5253840486,5.577428,0,1.2254429526,25400,2016-08-18 17:44:49,18,23.822,2261.5253840486,5.577428,0.8052984,2.32134521864,247.6,0,0,1024,1024,1053,1024,247.9,0,98,3.983,3.998,3.924,3.94,3.994,3.99,6,GPS_Atti,
49.6210214950271,16.124725774346,2261.5253840486,5.577428,0,1.24211290064,25500,2016-08-18 17:44:49,18,23.822,2261.5253840486,5.577428,0.8052984,2.32134521864,247.5,0,0,1024,1024,1294,1024,247.9,0,98,3.983,3.998,3.924,3.94,3.994,3.99,6,GPS_Atti,
49.6210214911145,16.1247257880273,2261.5253840486,5.577428,0,1.24387799256,25600,2016-08-18 17:44:49,18,23.822,2261.5253840486,5.577428,0.8052984,2.32134521864,247.5,0,0,1024,1024,1442,1024,247.9,0,98,3.983,3.998,3.924,3.94,3.994,3.99,6,GPS_Atti,
49.6210214903336,16.1247258973357,2261.5253840486,5.577428,0,1.24721460684,25700,2016-08-18 17:44:50,18,23.822,2261.5253840486,5.577428,0.8052984,2.32134521864,247.5,0,0,1024,1024,1389,1024,247.9,0,98,3.983,3.998,3.924,3.94,3.994,3.99,6,GPS_Atti,
49.6210214626643,16.1247261116402,2262.1815520486,6.233596,0,1.26467195648,25900,2016-08-18 17:44:50,18,23.822,2262.1815520486,6.233596,0.8052984,2.32134521864,247.5,0,0,1024,1024,1372,1024,247.9,0,98,3.983,3.998,3.924,3.94,3.994,3.99,6,GPS_Atti,
49.621021439128,16.1247260944617,2262.5096360486,6.56168,0,1.272473794,26000,2016-08-18 17:44:50,18,23.822,2262.5096360486,6.56168,0.8052984,2.32134521864,247.6,0,0,1024,1024,1361,1024,247.9,0,98,3.983,3.998,3.924,3.94,3.994,3.99,6,GPS_Atti,
49.6210213555893,16.124726076863,2262.8377200486,6.889764,0,1.30190620964,26100,2016-08-18 17:44:50,18,23.822,2262.8377200486,6.889764,0.8052984,2.32134521864,247.6,0,0,1024,1024,1270,1024,247.9,0,98,3.983,3.998,3.924,3.94,3.994,3.99,6,GPS_Atti,
49.6210213857189,16.1247260509425,2263.4938880486,7.545932,0,1.29010174732,26200,2016-08-18 17:44:50,18,23.776,2263.4938880486,7.545932,0.8052984,2.32134521864,247.6,0,0,1024,1024,1059,1024,247.9,0,98,3.971,3.979,3.922,3.928,3.991,3.984,6,GPS_Atti,
49.6210214169041,16.1247258540143,2263.8219720486,7.874016,0,1.2725394108,26300,2016-08-18 17:44:50,18,23.776,2263.8219720486,7.874016,0.8052984,2.32134521864,247.6,0,0,1024,1024,1024,1024,247.9,0,98,3.971,3.979,3.922,3.928,3.991,3.984,6,GPS_Atti,
49.6210214918199,16.1247256826509,2264.1500560486,8.2021,0,1.24118114208,26400,2016-08-18 17:44:50,18,23.776,2264.1500560486,8.2021,0.8052984,2.32134521864,247.6,0,0,1024,1024,1024,1024,247.9,0,98,3.971,3.979,3.922,3.928,3.991,3.984,6,GPS_Atti,
49.6210214130383,16.1247258297572,2264.4781400486,8.530184,0,1.27328088064,26500,2016-08-18 17:44:50,17,23.776,2264.4781400486,8.530184,0.8052984,2.32134521864,247.6,0,0,1024,1024,1024,1024,247.9,0,98,3.971,3.979,3.922,3.928,3.991,3.984,6,GPS_Atti,
49.6210215698966,16.1247259690743,2265.1343080486,9.186352,0,1.22077431728,26700,2016-08-18 17:44:51,18,23.776,2265.1343080486,9.186352,0.8052984,2.32134521864,247.5,0,0,1024,1024,1024,1024,247.9,0,98,3.971,3.979,3.922,3.928,3.991,3.984,6,GPS_Atti,
49.6210215889776,16.1247260779647,2265.1343080486,9.186352,0,1.21790686312,26800,2016-08-18 17:44:51,18,23.776,2265.1343080486,9.186352,0.8052984,2.32134521864,247.4,0,0,1024,1024,1024,1024,247.9,0,98,3.971,3.979,3.922,3.928,3.991,3.984,6,GPS_Atti,Landing Gear Raised
49.6210216083261,16.1247262640884,2265.1343080486,9.186352,0.223694,1.21908468468,26900,2016-08-18 17:44:51,18,23.776,2265.1343080486,9.186352,0.8052984,2.32134521864,247.4,0,0,1024,1024,1024,1024,247.9,0,98,3.971,3.979,3.922,3.928,3.991,3.984,6,GPS_Atti,
49.6210216047595,16.1247264265288,2265.1343080486,9.186352,0,1.22869754588,27000,2016-08-18 17:44:51,18,23.776,2265.1343080486,9.186352,0.8052984,2.32134521864,247.4,0,0,1024,1024,1024,1024,247.9,0,98,3.971,3.979,3.922,3.928,3.991,3.984,6,GPS_Atti,
49.6210216073768,16.1247266075501,2265.1343080486,9.186352,0,1.23840555144,27100,2016-08-18 17:44:51,18,23.776,2265.1343080486,9.186352,0.8052984,2.32134521864,247.5,0,0,1024,1024,1024,1024,247.9,0,98,3.971,3.979,3.922,3.928,3.991,3.984,6,GPS_Atti,
49.6210215986364,16.1247265835478,2265.1343080486,9.186352,0,1.239993478,27200,2016-08-18 17:44:51,18,23.776,2265.1343080486,9.186352,0.8052984,2.32134521864,247.5,0,0,1024,1024,1024,1024,247.9,0,98,3.971,3.979,3.922,3.928,3.991,3.984,6,GPS_Atti,
49.6210216022164,16.1247267412669,2265.1343080486,9.186352,0,1.2489501712,27400,2016-08-18 17:44:51,18,23.6,2265.1343080486,9.186352,0.8052984,2.32134521864,247.5,0,0,1024,1024,1024,1024,247.9,0,97,3.939,3.901,3.902,3.827,3.973,3.882,6,GPS_Atti,
49.6210216896936,16.124726734601,2265.1343080486,9.186352,0,1.21795607572,27500,2016-08-18 17:44:51,18,23.6,2265.1343080486,9.186352,0.8052984,2.32134521864,247.5,0,0,1024,1024,1024,1024,247.9,0,97,3.939,3.901,3.902,3.827,3.973,3.882,6,GPS_Atti,
49.6210216862013,16.1247266398496,2265.1343080486,9.186352,0,1.21278547188,27600,2016-08-18 17:44:51,18,23.6,2265.1343080486,9.186352,0.8052984,2.32134521864,247.6,0,0,1024,1024,1024,1024,247.9,0,97,3.939,3.901,3.902,3.827,3.973,3.882,6,GPS_Atti,
49.6210217803341,16.1247265731211,2265.1343080486,9.186352,0,1.17543310848,27700,2016-08-18 17:44:52,18,23.6,2265.1343080486,9.186352,0.8052984,2.32134521864,247.6,0,0,1024,1024,1024,1024,247.9,0,97,3.939,3.901,3.902,3.827,3.973,3.882,6,GPS_Atti,
49.621021781352,16.1247265323951,2265.1343080486,9.186352,0,1.172490195,27800,2016-08-18 17:44:52,18,23.6,2265.1343080486,9.186352,0.8052984,2.32134521864,247.7,0,0,1024,1024,1024,1024,247.9,0,97,3.939,3.901,3.902,3.827,3.973,3.882,6,GPS_Atti,
49.6210218736471,16.1247265051617,2265.1343080486,9.186352,0,1.13831696556,27900,2016-08-18 17:44:52,18,23.6,2265.1343080486,9.186352,0.8052984,2.32134521864,247.7,0,0,1024,1024,1024,1024,247.9,0,97,3.939,3.901,3.902,3.827,3.973,3.882,6,GPS_Atti,
49.6210219074693,16.1247264923117,2265.1343080486,9.186352,0,1.12561355308,28000,2016-08-18 17:44:52,18,23.6,2265.1343080486,9.186352,0.8052984,2.32134521864,247.6,0,0,1024,1024,1024,1024,247.9,0,97,3.939,3.901,3.902,3.827,3.973,3.882,6,GPS_Atti,
49.6210218927677,16.1247262654602,2265.1343080486,9.186352,0,1.11772313288,28100,2016-08-18 17:44:52,18,23.6,2265.1343080486,9.186352,0.8052984,2.32134521864,247.5,0,0,1024,1024,1024,1024,247.9,0,97,3.939,3.901,3.902,3.827,3.973,3.882,6,GPS_Atti,
49.6210219887408,16.1247261765741,2265.1343080486,9.186352,0,1.0790026592,28300,2016-08-18 17:44:52,18,23.6,2265.1343080486,9.186352,0.8052984,2.32134521864,247.4,0,0,1024,1024,1024,1024,247.9,0,97,3.939,3.901,3.902,3.827,3.973,3.882,6,GPS_Atti,
49.6210219699919,16.124726197425,2265.1343080486,9.186352,0,1.0867290374,28400,2016-08-18 17:44:52,18,23.6,2265.1343080486,9.186352,0.8052984,2.32134521864,247.5,0,0,1024,1024,1024,1024,247.9,0,97,3.939,3.901,3.902,3.827,3.973,3.882,6,GPS_Atti,
49.6210219518722,16.1247260184133,2265.1343080486,9.186352,0,1.0850394048,28500,2016-08-18 17:44:52,18,23.893,2265.1343080486,9.186352,0.8052984,2.32134521864,247.5,0,0,1024,1024,1024,1024,247.9,0,97,3.996,4.012,3.947,3.96,4.014,4.001,6,GPS_Atti,
