latitude,longitude,altitude(feet),ascent(feet),speed(mph),distance(feet),time(millisecond),datetime(utc),satellites,voltage(v),max_altitude(feet),max_ascent(feet),max_speed(mph),max_distance(feet),compass_heading(degrees),isPhoto,isVideo,rc_elevator,rc_aileron,rc_throttle,rc_rudder,gimbal_heading(degrees),gimbal_pitch(degrees),battery_percent,voltageCell1,voltageCell2,voltageCell3,voltageCell4,voltageCell5,voltageCell6,flycStateRaw,flycState,message
49.6208919772066,16.1248975883359,2259.4746989436,0,0,0,0,2016-08-16 14:16:07,17,0,2259.4746989436,0,0,0,187.2,0,0,364,1684,364,364,181.3,0,100,4.313,4.316,4.264,4.3,4.316,4.315,6,GPS_Atti,
49.6208919772066,16.1248975883359,2259.4746989436,0,0,0,0,2016-08-16 14:16:08,17,0,2259.4746989436,0,0,0,187.2,0,0,364,1684,364,364,181.2,0,100,4.313,4.316,4.264,4.3,4.316,4.315,6,GPS_Atti,
49.6208919824093,16.1248976113101,2259.4746989436,0,0,0.0057524936224,100,2016-08-16 14:16:08,17,0,2259.4746989436,0,0,0.0057524936224,187.2,0,0,364,1684,364,364,181.2,0,100,4.313,4.316,4.264,4.3,4.316,4.315,6,GPS_Atti,
49.6208920139217,16.1248975063474,2259.4746989436,0,0,0.0235582684704,300,2016-08-16 14:16:08,17,0,2259.4746989436,0,0,0.0235582684704,187.2,0,0,364,1684,364,364,181.2,0,100,4.313,4.316,4.264,4.3,4.316,4.315,6,GPS_Atti,
49.6208920148652,16.1248975197129,2259.4746989436,0,0,0.0212572513364,400,2016-08-16 14:16:08,17,0,2259.4746989436,0,0,0.0235582684704,187.1,0,0,364,1684,364,364,181.1,0,100,4.313,4.316,4.264,4.3,4.316,4.315,6,GPS_Atti,
49.6208921221266,16.1248974893716,2259.4746989436,0,0,0.057817259068,500,2016-08-16 14:16:08,17,0,2259.4746989436,0,0,0.057817259068,187.1,0,0,364,1684,364,364,181.1,0,100,4.313,4.316,4.264,4.3,4.316,4.315,6,GPS_Atti,
49.6208921279707,16.1248975022284,2259.4746989436,0,0,0.058650920512,600,2016-08-16 14:16:08,17,0,2259.4746989436,0,0,0.058650920512,187.1,0,0,364,1684,364,364,181.1,0,100,4.313,4.316,4.264,4.3,4.316,4.315,6,GPS_Atti,
49.6208921591757,16.1248973740691,2259.4746989436,0,0,0.083502955428,800,2016-08-16 14:16:08,17,0,2259.4746989436,0,0,0.083502955428,187.1,0,0,364,1684,364,364,181.1,0,100,4.313,4.316,4.264,4.3,4.316,4.315,6,GPS_Atti,
49.6208921788694,16.1248972927622,2259.4746989436,0,0,0.101461289336,900,2016-08-16 14:16:08,17,0,2259.4746989436,0,0,0.101461289336,187.1,0,0,364,1684,364,364,181.1,0,100,4.313,4.316,4.264,4.3,4.316,4.315,6,GPS_Atti,
49.6208920887072,16.1248972622263,2259.4746989436,0,0,0.08715715502,1100,2016-08-16 14:16:09,17,25.827,2259.4746989436,0,0,0.101461289336,186.9,0,0,364,1684,364,364,181,0,100,4.313,4.316,4.264,4.3,4.316,4.315,6,GPS_Atti,
49.620892095821,16.1248972769406,2259.4746989436,0,0,0.085382876748,1200,2016-08-16 14:16:09,17,25.827,2259.4746989436,0,0,0.101461289336,186.9,0,0,364,1684,364,364,180.9,0,100,4.313,4.316,4.264,4.3,4.316,4.315,6,GPS_Atti,
49.6208920955303,16.1248971982073,2259.4746989436,0,0,0.101817916644,1300,2016-08-16 14:16:09,17,25.827,2259.4746989436,0,0,0.101817916644,186.9,0,0,364,1684,364,364,180.9,0,100,4.313,4.316,4.264,4.3,4.316,4.315,6,GPS_Atti,
49.620892056833,16.1248971715114,2259.4746989436,0,0,0.10271653872,1400,2016-08-16 14:16:09,17,25.827,2259.4746989436,0,0,0.10271653872,186.9,0,0,364,1684,364,364,180.9,0,100,4.313,4.316,4.264,4.3,4.316,4.315,6,GPS_Atti,
49.6208920618364,16.1248971807202,2259.4746989436,0,0,0.1011729035,1500,2016-08-16 14:16:09,17,25.827,2259.4746989436,0,0,0.10271653872,186.8,0,0,652,1495,565,529,181,0,100,4.313,4.316,4.264,4.3,4.316,4.315,6,GPS_Atti,
49.6208920754455,16.1248971903344,2259.4746989436,0,0,0.100670278812,1600,2016-08-16 14:16:09,17,25.827,2259.4746989436,0,0,0.10271653872,186.8,0,0,792,1268,666,667,181.6,0,100,4.313,4.316,4.264,4.3,4.316,4.315,6,GPS_Atti,
49.6208920520666,16.1248970600932,2259.4746989436,0,0,0.127810371544,1700,2016-08-16 14:16:09,17,25.827,2259.4746989436,0,0,0.127810371544,186.7,0,0,792,1268,666,667,181.6,0,100,4.313,4.316,4.264,4.3,4.316,4.315,6,GPS_Atti,
49.6208920590427,16.1248970802055,2259.4746989436,0,0,0.12375984648,1800,2016-08-16 14:16:09,17,25.827,2259.4746989436,0,0,0.127810371544,186.6,0,0,1024,1024,1024,1024,182,0,100,4.313,4.316,4.264,4.3,4.316,4.315,6,GPS_Atti,
49.620892061838,16.1248969978237,2259.4746989436,0,0,0.14295112006,1900,2016-08-16 14:16:09,17,25.827,2259.4746989436,0,0,0.14295112006,186.5,0,0,1024,1024,1024,1024,183,0,100,4.313,4.316,4.264,4.3,4.316,4.315,6,GPS_Atti,
49.6208920397993,16.1248969525144,2259.4746989436,0,0,0.15201115972,2000,2016-08-16 14:16:10,17,25.827,2259.4746989436,0,0,0.15201115972,186.4,0,0,1024,1024,1024,1024,184.5,0,100,4.313,4.316,4.264,4.3,4.316,4.315,10,AssitedTakeoff,
49.6208920433357,16.1248969642252,2259.4746989436,0,0,0.149477695072,2100,2016-08-16 14:16:10,17,25.79,2259.4746989436,0,0,0.15201115972,186.3,0,0,1024,1024,1024,1024,184.8,0,100,4.307,4.31,4.257,4.293,4.311,4.308,10,AssitedTakeoff,Return-to-Home Altitude:20M
49.6208920434871,16.1248969716019,2259.4746989436,0,0,0.147766408928,2200,2016-08-16 14:16:10,17,25.79,2259.4746989436,0,0,0.15201115972,186.2,0,0,1024,1024,1024,1024,184.9,0,100,4.307,4.31,4.257,4.293,4.311,4.308,10,AssitedTakeoff,
49.620892034478,16.12489682249,2259.4746989436,0,0,0.18222113444,2400,2016-08-16 14:16:10,17,25.79,2259.4746989436,0,0,0.18222113444,186.2,0,0,1024,1024,1024,1024,185.1,0,100,4.307,4.31,4.257,4.293,4.311,4.308,10,AssitedTakeoff,
49.6208920304877,16.1248968200346,2259.4746989436,0,0,0.182636816868,2500,2016-08-16 14:16:10,17,25.79,2259.4746989436,0,0,0.182636816868,186.2,0,0,1024,1024,1024,1024,185.2,0,100,4.307,4.31,4.257,4.293,4.311,4.308,10,AssitedTakeoff,
49.6208920066724,16.1248967817804,2259.4746989436,0,0,0.190944231832,2600,2016-08-16 14:16:10,17,25.79,2259.4746989436,0,0,0.190944231832,186.2,0,0,1024,1024,1024,1024,185.2,0,100,4.307,4.31,4.257,4.293,4.311,4.308,10,AssitedTakeoff,
49.6208920052005,16.1248967127244,2259.4746989436,0,0,0.207215557812,2700,2016-08-16 14:16:10,17,25.79,2259.4746989436,0,0,0.207215557812,186.1,0,0,1024,1024,1024,1024,185.4,0,100,4.307,4.31,4.257,4.293,4.311,4.308,10,AssitedTakeoff,
49.6208920019213,16.1248967458639,2259.4746989436,0,0,0.199334652048,2800,2016-08-16 14:16:10,17,25.79,2259.4746989436,0,0,0.207215557812,186.1,0,0,1024,1024,1024,1024,185.4,0,100,4.307,4.31,4.257,4.293,4.311,4.308,10,AssitedTakeoff,
49.6208919946655,16.124896677212,2259.4746989436,0,0,0.215451778548,2900,2016-08-16 14:16:10,17,25.79,2259.4746989436,0,0,0.215451778548,186.1,0,0,1024,1024,1024,1024,185.4,0,100,4.307,4.31,4.257,4.293,4.311,4.308,10,AssitedTakeoff,
49.6208920027246,16.1248967155679,2259.4746989436,0,0,0.206501647028,3100,2016-08-16 14:16:11,17,25.79,2259.4746989436,0,0,0.215451778548,186,0,0,1024,1024,1024,1024,185.4,0,100,4.307,4.31,4.257,4.293,4.311,4.308,10,AssitedTakeoff,
49.6208920102366,16.1248967307315,2259.4746989436,0,0,0.203065295212,3200,2016-08-16 14:16:11,17,25.79,2259.4746989436,0,0,0.215451778548,185.9,0,0,1024,1024,1024,1024,185.5,0,100,4.307,4.31,4.257,4.293,4.311,4.308,10,AssitedTakeoff,
49.6208919343254,16.1248966065957,2259.4746989436,0,0,0.232575794844,3300,2016-08-16 14:16:11,17,25.623,2259.4746989436,0,0,0.232575794844,185.9,0,0,1024,1024,1024,1024,185.5,0,100,4.307,4.31,4.257,4.293,4.311,4.308,10,AssitedTakeoff,
49.6208919393473,16.124896623785,2259.4746989436,0,0,0.2284038787,3400,2016-08-16 14:16:11,17,25.623,2259.4746989436,0,0,0.232575794844,185.8,0,0,1024,1024,1024,1024,185.5,0,100,4.307,4.31,4.257,4.293,4.311,4.308,10,AssitedTakeoff,
49.6208919491242,16.1248965412447,2259.4746989436,0,0,0.247707685092,3500,2016-08-16 14:16:11,17,25.623,2259.4746989436,0,0,0.247707685092,185.8,0,0,1024,1024,1024,1024,185.5,0,100,4.307,4.31,4.257,4.293,4.311,4.308,10,AssitedTakeoff,
49.6208919623738,16.1248964759944,2259.4746989436,0,0,0.26297408978,3600,2016-08-16 14:16:11,17,25.623,2259.4746989436,0,0,0.26297408978,185.8,0,0,1024,1024,1024,1024,185.5,0,100,4.307,4.31,4.257,4.293,4.311,4.308,10,AssitedTakeoff,
49.6208919709011,16.1248963778519,2259.4746989436,0,0,0.286125009156,3800,2016-08-16 14:16:11,17,25.623,2259.4746989436,0,0,0.286125009156,185.8,0,0,1024,1024,1024,1024,185.5,0,100,4.307,4.31,4.257,4.293,4.311,4.308,10,AssitedTakeoff,
49.6208919508278,16.1248962368217,2259.4746989436,0,0,0.319595482668,3900,2016-08-16 14:16:11,17,25.623,2259.4746989436,0,0,0.319595482668,185.8,0,0,1024,1024,1024,1024,185.5,0,100,4.307,4.31,4.257,4.293,4.311,4.308,10,AssitedTakeoff,
49.6208919519195,16.1248962445937,2259.4746989436,0,0,0.317747385496,4000,2016-08-16 14:16:11,17,25.623,2259.4746989436,0,0,0.319595482668,185.8,0,0,1024,1024,1024,1024,185.5,0,100,4.307,4.31,4.257,4.293,4.311,4.308,10,AssitedTakeoff,
49.6208919513778,16.1248961537186,2259.4746989436,0,0,0.3392224518,4100,2016-08-16 14:16:12,17,25.623,2259.4746989436,0,0,0.3392224518,185.8,0,0,1024,1024,1024,1024,185.5,0,100,4.307,4.31,4.257,4.293,4.311,4.308,10,AssitedTakeoff,
49.6208919182248,16.124896128739,2259.4746989436,0,0,0.3456693024,4200,2016-08-16 14:16:12,17,25.623,2259.4746989436,0,0,0.3456693024,185.7,0,0,1024,1024,1024,1024,185.5,0,100,4.307,4.31,4.257,4.293,4.311,4.308,10,AssitedTakeoff,
49.6208920189864,16.1248961385666,2259.4746989436,0,0,0.343011822,4300,2016-08-16 14:16:12,17,25.623,2259.4746989436,0,0,0.3456693024,185.7,0,0,1024,1024,1024,1024,185.5,0,100,4.307,4.31,4.257,4.293,4.311,4.308,10,AssitedTakeoff,
49.6208919279534,16.1248959287884,2259.4746989436,0,0,0.39267061624,4500,2016-08-16 14:16:12,17,25.623,2259.4746989436,0,0,0.39267061624,185.7,0,0,1024,1024,1024,1024,185.5,0,100,4.287,4.276,4.231,4.269,4.282,4.296,10,AssitedTakeoff,
49.6208919391593,16.1248959299519,2259.4746989436,0,0,0.39223098368,4600,2016-08-16 14:16:12,17,25.623,2259.4746989436,0,0,0.39267061624,185.7,0,0,1024,1024,1024,1024,185.5,0,100,4.287,4.276,4.231,4.269,4.282,4.296,10,AssitedTakeoff,
49.6208920406432,16.1248959188749,2259.4746989436,0,0,0.39527888404,4800,2016-08-16 14:16:12,17,25.623,2259.4746989436,0,0,0.39527888404,185.6,0,0,1024,1024,1024,1024,185.5,0,100,4.287,4.276,4.231,4.269,4.282,4.296,10,AssitedTakeoff,
49.6208920387923,16.1248957338586,2259.4746989436,0,0,0.43890749436,5000,2016-08-16 14:16:12,17,25.623,2259.4746989436,0,0,0.43890749436,185.6,0,0,1024,1024,1024,1024,185.5,0,100,4.287,4.276,4.231,4.269,4.282,4.296,10,AssitedTakeoff,
49.6208920195921,16.1248956420381,2259.4746989436,0,0,0.46029529032,5100,2016-08-16 14:16:13,17,25.623,2259.4746989436,0,0,0.46029529032,185.6,0,0,1024,1024,1024,1024,185.5,0,100,4.287,4.276,4.231,4.269,4.282,4.296,10,AssitedTakeoff,
49.6208920277956,16.1248956583759,2259.4746989436,0,0,0.45654857104,5200,2016-08-16 14:16:13,17,25.623,2259.4746989436,0,0,0.46029529032,185.5,0,0,1024,1024,1024,1024,185.5,0,100,4.287,4.276,4.231,4.269,4.282,4.296,10,AssitedTakeoff,
49.6208920306032,16.1248955726215,2259.4746989436,0,0,0.47684056644,5300,2016-08-16 14:16:13,17,25.623,2259.4746989436,0,0,0.47684056644,185.5,0,0,1024,1024,1024,1024,185.5,0,100,4.287,4.276,4.231,4.269,4.282,4.296,10,AssitedTakeoff,
49.6208920191077,16.1248955381412,2259.4746989436,0,0,0.48483597352,5400,2016-08-16 14:16:13,17,25.623,2259.4746989436,0,0,0.48483597352,185.5,0,0,1024,1024,1024,1024,185.5,0,100,4.287,4.276,4.231,4.269,4.282,4.296,10,AssitedTakeoff,
49.6208921165219,16.1248954552553,2259.4746989436,0,0,0.5067421422,5600,2016-08-16 14:16:13,17,25.623,2259.4746989436,0,0,0.5067421422,185.4,0,0,1024,1024,1024,1024,185.5,0,100,4.287,4.276,4.231,4.269,4.282,4.296,10,AssitedTakeoff,
49.6208921299658,16.1248953421734,2259.4746989436,0,0,0.53383203808,5700,2016-08-16 14:16:13,17,25.623,2259.4746989436,0,0,0.53383203808,185.4,0,0,1024,1024,1024,1024,185.5,0,100,4.287,4.276,4.231,4.269,4.282,4.296,10,AssitedTakeoff,
49.620892130309,16.1248953573819,2259.4746989436,0,0,0.53026904584,5800,2016-08-16 14:16:13,17,25.656,2259.4746989436,0,0,0.53383203808,185.4,0,0,1024,1024,1024,1024,185.5,0,100,4.285,4.288,4.235,4.269,4.289,4.288,10,AssitedTakeoff,
49.6208921324102,16.1248952624338,2259.4746989436,0,0,0.55267062136,5900,2016-08-16 14:16:13,17,25.656,2259.4746989436,0,0,0.55267062136,185.4,0,0,1024,1024,1024,1024,185.5,0,100,4.285,4.288,4.235,4.269,4.289,4.288,10,AssitedTakeoff,
49.6208921291526,16.1248952231353,2259.4746989436,0,0,0.56179135656,6000,2016-08-16 14:16:13,17,25.656,2259.4746989436,0,0,0.56179135656,185.3,0,0,1024,1024,1024,1024,185.5,0,100,4.285,4.288,4.235,4.269,4.289,4.288,10,AssitedTakeoff,
49.6208921413039,16.1248951233233,2259.4746989436,0,0,0.58570868016,6100,2016-08-16 14:16:14,17,25.656,2259.4746989436,0,0,0.58570868016,185.3,0,0,1024,1024,1024,1024,185.5,0,100,4.285,4.288,4.235,4.269,4.289,4.288,10,AssitedTakeoff,
49.6208921571137,16.1248951311915,2259.4746989436,0,0,0.58447836516,6200,2016-08-16 14:16:14,17,25.656,2259.4746989436,0,0,0.58570868016,185.3,0,0,1024,1024,1024,1024,185.5,0,100,4.285,4.288,4.235,4.269,4.289,4.288,10,AssitedTakeoff,
49.6208922734117,16.1248951572698,2259.4746989436,0,0,0.58469161976,6400,2016-08-16 14:16:14,17,25.656,2259.4746989436,0,0,0.58570868016,185.2,0,0,1024,1024,1024,1024,185.5,0,100,4.285,4.288,4.235,4.269,4.289,4.288,10,AssitedTakeoff,
49.6208922772065,16.12489507843,2259.4746989436,0,0,0.60326773584,6500,2016-08-16 14:16:14,17,25.656,2259.4746989436,0,0,0.60326773584,185.2,0,0,1024,1024,1024,1024,185.5,0,100,4.285,4.288,4.235,4.269,4.289,4.288,10,AssitedTakeoff,
49.6208922800806,16.1248950890303,2259.4746989436,0,0,0.60099411372,6600,2016-08-16 14:16:14,17,25.656,2259.4746989436,0,0,0.60326773584,185.2,0,0,1024,1024,1024,1024,185.5,0,100,4.285,4.288,4.235,4.269,4.289,4.288,10,AssitedTakeoff,
49.6208923647034,16.1248949736042,2259.4746989436,0,0,0.63399608328,6700,2016-08-16 14:16:14,17,25.656,2259.4746989436,0,0,0.63399608328,185.1,0,0,1024,1024,1024,1024,185.5,0,100,4.285,4.288,4.235,4.269,4.289,4.288,10,AssitedTakeoff,
49.6208923715456,16.1248949761464,2259.4746989436,0,0,0.63396983656,6800,2016-08-16 14:16:14,17,25.656,2259.4746989436,0,0,0.63399608328,185.1,0,0,1024,1024,1024,1024,185.5,0,100,4.285,4.288,4.235,4.269,4.289,4.288,10,AssitedTakeoff,
49.6208923430887,16.1248948027619,2259.4746989436,0,0,0.67180776428,7000,2016-08-16 14:16:14,17,25.65,2259.4746989436,0,0,0.67180776428,185.1,0,0,1024,1024,1024,1024,185.5,0,100,4.284,4.285,4.235,4.269,4.289,4.287,10,AssitedTakeoff,
49.6208924438588,16.1248948046482,2259.4746989436,0,0,0.67963584852,7100,2016-08-16 14:16:15,17,25.65,2259.4746989436,0,0,0.67963584852,185.1,0,0,1024,1024,1024,1024,185.5,0,100,4.284,4.285,4.235,4.269,4.289,4.287,10,AssitedTakeoff,
49.6208924455695,16.1248948066151,2259.4746989436,0,0,0.67934385376,7200,2016-08-16 14:16:15,17,25.65,2259.4746989436,0,0,0.67963584852,185,0,0,1024,1024,1024,1024,185.5,0,100,4.284,4.285,4.235,4.269,4.289,4.287,10,AssitedTakeoff,
49.6208924390821,16.1248947109894,2259.4746989436,0,0,0.70066931376,7300,2016-08-16 14:16:15,17,25.65,2259.4746989436,0,0,0.70066931376,185,0,0,1024,1024,1024,1024,185.5,0,100,4.284,4.285,4.235,4.269,4.289,4.287,10,AssitedTakeoff,
49.6208924400022,16.1248947169038,2259.4746989436,0,0,0.699393067,7400,2016-08-16 14:16:15,17,25.65,2259.4746989436,0,0,0.70066931376,185,0,0,1024,1024,1024,1024,185.5,0,100,4.284,4.285,4.235,4.269,4.289,4.287,10,AssitedTakeoff,
49.6208924219585,16.1248946974555,2259.4746989436,0,0,0.70230645292,7600,2016-08-16 14:16:15,17,25.65,2259.4746989436,0,0,0.70230645292,185,0,0,1024,1024,1024,1024,185.5,0,100,4.284,4.285,4.235,4.269,4.289,4.287,10,AssitedTakeoff,
49.6208925313981,16.1248946023995,2259.4746989436,0,0,0.73416340932,7700,2016-08-16 14:16:15,17,25.65,2259.4746989436,0,0,0.73416340932,185,0,0,1024,1024,1024,1024,185.5,0,100,4.284,4.285,4.235,4.269,4.289,4.287,10,AssitedTakeoff,
49.6208925380104,16.1248945988599,2259.4746989436,0,0,0.73563322564,7800,2016-08-16 14:16:15,17,25.65,2259.4746989436,0,0,0.73563322564,185,0,0,1024,1024,1024,1024,185.5,0,100,4.284,4.285,4.235,4.269,4.289,4.287,10,AssitedTakeoff,
49.6208925629003,16.1248944884164,2259.4746989436,0,0,0.7632382134,7900,2016-08-16 14:16:15,17,25.65,2259.4746989436,0,0,0.7632382134,185,0,0,1024,1024,1024,1024,185.5,0,100,4.284,4.285,4.235,4.269,4.289,4.287,10,AssitedTakeoff,
49.6208925677418,16.1248944870435,2259.4746989436,0,0,0.76404530004,8000,2016-08-16 14:16:16,17,25.65,2259.4746989436,0,0,0.76404530004,185.1,0,0,1024,1024,1024,1024,185.5,0,100,4.284,4.285,4.235,4.269,4.289,4.287,10,AssitedTakeoff,
49.6208925764839,16.1248943997767,2259.4746989436,0,0,0.78473755792,8100,2016-08-16 14:16:16,17,25.641,2259.4746989436,0,0,0.78473755792,185,0,0,1024,1024,1024,1024,185.5,0,100,4.283,4.285,4.232,4.267,4.287,4.286,10,AssitedTakeoff,
49.6208925564311,16.1248944155589,2259.4746989436,0,0,0.77914044488,8200,2016-08-16 14:16:16,17,25.641,2259.4746989436,0,0,0.78473755792,185,0,0,1024,1024,1024,1024,185.5,0,100,4.283,4.285,4.232,4.267,4.287,4.286,10,AssitedTakeoff,
49.6208925711045,16.1248944673248,2259.4746989436,0,0,0.76886157316,8400,2016-08-16 14:16:16,17,25.641,2259.4746989436,0,0,0.78473755792,185,0,0,1024,1024,1024,1024,185.5,0,100,4.283,4.285,4.232,4.267,4.287,4.286,10,AssitedTakeoff,
49.6208926633212,16.1248943822983,2259.4746989436,0,0,0.79807089168,8500,2016-08-16 14:16:16,17,25.641,2259.4746989436,0,0,0.79807089168,185,0,0,1024,1024,1024,1024,185.5,0,100,4.283,4.285,4.232,4.267,4.287,4.286,10,AssitedTakeoff,
49.620892666012,16.1248943949887,2259.4746989436,0,0,0.79553152152,8600,2016-08-16 14:16:16,17,25.641,2259.4746989436,0,0,0.79807089168,185,0,0,1024,1024,1024,1024,185.5,0,100,4.283,4.285,4.232,4.267,4.287,4.286,10,AssitedTakeoff,
49.6208926675582,16.1248943073885,2259.4746989436,0,0,0.81537732268,8700,2016-08-16 14:16:16,17,25.641,2259.4746989436,0,0,0.81537732268,185,0,0,1024,1024,1024,1024,185.5,0,100,4.283,4.285,4.232,4.267,4.287,4.286,10,AssitedTakeoff,
49.620892638691,16.1248942807686,2259.4746989436,0,0,0.81819556424,8800,2016-08-16 14:16:16,17,25.641,2259.4746989436,0,0,0.81819556424,185,0,0,1024,1024,1024,1024,185.5,0,100,4.283,4.285,4.232,4.267,4.287,4.286,10,AssitedTakeoff,
49.6208926433129,16.1248942860751,2259.4746989436,0,0,0.81749674532,8900,2016-08-16 14:16:16,17,25.641,2259.4746989436,0,0,0.81819556424,185,0,0,1024,1024,1024,1024,185.5,0,100,4.283,4.285,4.232,4.267,4.287,4.286,10,AssitedTakeoff,
49.6208926519879,16.1248942796571,2259.4746989436,0,0,0.81989175852,9000,2016-08-16 14:16:17,17,25.641,2259.4746989436,0,0,0.81989175852,185,0,0,1024,1024,1024,1024,185.5,0,100,4.283,4.285,4.232,4.267,4.287,4.286,10,AssitedTakeoff,
49.6208926426096,16.1248940808094,2259.4746989436,0,0,0.86387141872,9200,2016-08-16 14:16:17,17,25.641,2259.4746989436,0,0,0.86387141872,184.9,0,0,1024,1024,1024,1024,185.5,0,100,4.283,4.285,4.232,4.267,4.287,4.286,10,AssitedTakeoff,
49.6208927590382,16.1248940701371,2259.4746989436,0,0,0.87914044808,9300,2016-08-16 14:16:17,17,25.634,2259.4746989436,0,0,0.87914044808,184.9,0,0,1024,1024,1024,1024,185.5,0,100,4.281,4.283,4.231,4.266,4.286,4.284,10,AssitedTakeoff,
49.6208927732187,16.1248940639896,2259.4746989436,0,0,0.88220475264,9400,2016-08-16 14:16:17,17,25.634,2259.4746989436,0,0,0.88220475264,185,0,0,1024,1024,1024,1024,185.5,0,100,4.281,4.283,4.231,4.266,4.286,4.284,10,AssitedTakeoff,
49.6208927828703,16.1248939418309,2259.4746989436,0,0,0.91064963544,9500,2016-08-16 14:16:17,17,25.634,2259.4746989436,0,0,0.91064963544,185,0,0,1024,1024,1024,1024,185.5,0,100,4.281,4.283,4.231,4.266,4.286,4.284,10,AssitedTakeoff,
49.6208927877349,16.1248939526736,2259.4746989436,0,0,0.90880252252,9600,2016-08-16 14:16:17,17,25.634,2259.4746989436,0,0,0.91064963544,185,0,0,1024,1024,1024,1024,185.5,0,100,4.281,4.283,4.231,4.266,4.286,4.284,10,AssitedTakeoff,
49.6208927558775,16.1248938880999,2259.4746989436,0,0,0.91958992444,9800,2016-08-16 14:16:17,17,25.634,2259.4746989436,0,0,0.91958992444,184.9,0,0,1024,1024,1024,1024,185.5,0,100,4.281,4.283,4.231,4.266,4.286,4.284,10,AssitedTakeoff,
49.6208927495592,16.1248938921764,2259.4746989436,0,0,0.9179626278,9900,2016-08-16 14:16:17,17,25.634,2259.4746989436,0,0,0.91958992444,184.9,0,0,1024,1024,1024,1024,185.5,0,100,4.281,4.283,4.231,4.266,4.286,4.284,10,AssitedTakeoff,
49.6208927474107,16.1248938978678,2259.4746989436,0,0,0.91644359888,10000,2016-08-16 14:16:17,17,25.634,2259.4746989436,0,0,0.91958992444,184.9,0,0,1024,1024,1024,1024,185.5,0,100,4.281,4.283,4.231,4.266,4.286,4.284,10,AssitedTakeoff,
49.6208927026342,16.1248938252757,2259.4746989436,0,0,0.92799871736,10100,2016-08-16 14:16:18,17,25.634,2259.4746989436,0,0,0.92799871736,184.9,0,0,1024,1024,1024,1024,185.5,0,100,4.281,4.283,4.231,4.266,4.286,4.284,10,AssitedTakeoff,
49.6208927042067,16.1248938410838,2259.4746989436,0,0,0.92458336292,10200,2016-08-16 14:16:18,17,25.634,2259.4746989436,0,0,0.92799871736,184.9,0,0,1024,1024,1024,1024,185.5,0,100,4.281,4.283,4.231,4.266,4.286,4.284,10,AssitedTakeoff,
49.6208927056131,16.1248938486744,2259.4746989436,0,0,0.92301184056,10300,2016-08-16 14:16:18,17,25.634,2259.4746989436,0,0,0.92799871736,184.8,0,0,1024,1024,1024,1024,185.5,0,100,4.281,4.283,4.231,4.266,4.286,4.284,10,AssitedTakeoff,
49.6208927012879,16.1248938182392,2259.4746989436,0,0,0.92945212948,10400,2016-08-16 14:16:18,17,25.629,2259.4746989436,0,0,0.92945212948,184.8,0,0,1024,1024,1024,1024,185.5,0,100,4.281,4.283,4.232,4.265,4.285,4.283,10,AssitedTakeoff,
49.6208926941483,16.1248936995929,2259.4746989436,0,0,0.95565619856,10600,2016-08-16 14:16:18,17,25.629,2259.4746989436,0,0,0.95565619856,184.8,0,0,1024,1024,1024,1024,185.5,0,100,4.281,4.283,4.232,4.265,4.285,4.283,10,AssitedTakeoff,
49.6208927064011,16.1248936916021,2259.4746989436,0,0,0.95870409892,10700,2016-08-16 14:16:18,17,25.629,2259.4746989436,0,0,0.95870409892,184.8,0,0,1024,1024,1024,1024,185.5,0,100,4.281,4.283,4.232,4.265,4.285,4.283,10,AssitedTakeoff,
49.6208927090008,16.1248937102483,2259.4746989436,0,0,0.95473756336,10800,2016-08-16 14:16:18,17,25.629,2259.4746989436,0,0,0.95870409892,184.8,0,0,1024,1024,1024,1024,185.5,0,100,4.281,4.283,4.232,4.265,4.285,4.283,10,AssitedTakeoff,
49.620892712055,16.1248936219943,2259.4746989436,0,0,0.97508861388,10900,2016-08-16 14:16:18,17,25.629,2259.4746989436,0,0,0.97508861388,184.8,0,0,1024,1024,1024,1024,185.5,0,100,4.281,4.283,4.232,4.265,4.285,4.283,10,AssitedTakeoff,
49.620892698999,16.1248936297618,2259.4746989436,0,0,0.97202102848,11000,2016-08-16 14:16:19,17,25.629,2259.4746989436,0,0,0.97508861388,184.8,0,0,1024,1024,1024,1024,185.5,0,100,4.281,4.283,4.232,4.265,4.285,4.283,10,AssitedTakeoff,
49.6208927079359,16.1248936503503,2259.4746989436,0,0,0.96823165828,11200,2016-08-16 14:16:19,17,25.629,2259.4746989436,0,0,0.97508861388,184.7,0,0,1024,1024,1024,1024,185.5,0,100,4.281,4.283,4.232,4.265,4.285,4.283,10,AssitedTakeoff,
49.6208927244597,16.1248935306607,2259.4746989436,0,0,0.99708992692,11300,2016-08-16 14:16:19,17,25.629,2259.4746989436,0,0,0.99708992692,184.8,0,0,1024,1024,1024,1024,185.5,0,100,4.281,4.283,4.232,4.265,4.285,4.283,10,AssitedTakeoff,
49.620892730202,16.1248935327357,2259.4746989436,0,0,0.99719163296,11400,2016-08-16 14:16:19,17,25.629,2259.4746989436,0,0,0.99719163296,184.8,0,0,1024,1024,1024,1024,185.5,0,100,4.281,4.283,4.232,4.265,4.285,4.283,10,AssitedTakeoff,
49.6208927396155,16.1248935286977,2259.4746989436,0,0,0.99906171176,11500,2016-08-16 14:16:19,17,25.629,2259.4746989436,0,0,0.99906171176,184.8,0,0,1024,1024,1024,1024,185.5,0,100,4.281,4.283,4.232,4.265,4.285,4.283,10,AssitedTakeoff,
49.6208927509405,16.1248934940889,2259.4746989436,0,0,1.0080708984,11600,2016-08-16 14:16:19,17,25.624,2259.4746989436,0,0,1.0080708984,184.8,0,0,1024,1024,1024,1024,185.5,0,100,4.28,4.283,4.231,4.265,4.284,4.283,10,AssitedTakeoff,
49.6208927565023,16.1248933926717,2259.4746989436,0,0,1.031660138,11700,2016-08-16 14:16:19,17,25.624,2259.4746989436,0,0,1.031660138,184.8,0,0,1024,1024,1024,1024,185.5,0,100,4.28,4.283,4.231,4.265,4.284,4.283,10,AssitedTakeoff,
49.6208927576025,16.1248934013621,2259.4746989436,0,0,1.02979662088,11800,2016-08-16 14:16:19,17,25.624,2259.4746989436,0,0,1.031660138,184.7,0,0,1024,1024,1024,1024,185.5,0,100,4.28,4.283,4.231,4.265,4.284,4.283,10,AssitedTakeoff,
49.6208927533051,16.1248934454525,2259.4746989436,0,0,1.01935042632,12000,2016-08-16 14:16:19,17,25.624,2259.4746989436,0,0,1.031660138,184.7,0,0,1024,1024,1163,1024,185.5,0,100,4.28,4.283,4.231,4.265,4.284,4.283,10,AssitedTakeoff,
49.6208927582392,16.1248933906302,2259.4746989436,0,0,1.0322999018,12100,2016-08-16 14:16:20,17,25.624,2259.4746989436,0,0,1.0322999018,184.7,0,0,1024,1024,1323,1024,185.5,0,100,4.28,4.283,4.231,4.265,4.284,4.283,10,AssitedTakeoff,
49.6208927378241,16.1248934259988,2259.4746989436,0,0,1.02222116132,12200,2016-08-16 14:16:20,17,25.624,2259.4746989436,0,0,1.0322999018,184.7,0,0,1024,1024,1494,1024,185.5,0,100,4.28,4.283,4.231,4.265,4.284,4.283,10,AssitedTakeoff,
49.620892629643,16.1248934555606,2259.4746989436,0,0,1.00542654136,12300,2016-08-16 14:16:20,17,25.624,2259.4746989436,0,0,1.0322999018,184.7,0,0,1024,1024,1465,1024,185.5,0,100,4.28,4.283,4.231,4.265,4.284,4.283,10,AssitedTakeoff,
49.6208926143083,16.124893486362,2259.4746989436,0,0,0.99703743348,12400,2016-08-16 14:16:20,17,25.624,2259.4746989436,0,0,1.0322999018,184.7,0,0,1024,1024,1464,1024,185.5,0,100,4.28,4.283,4.231,4.265,4.284,4.283,10,AssitedTakeoff,
49.6208925347796,16.1248934354578,2259.4746989436,0,0,1.00245410032,12600,2016-08-16 14:16:20,17,25.624,2259.4746989436,0,0,1.0322999018,184.4,0,0,1024,1024,1461,1024,185.5,0,100,4.28,4.283,4.231,4.265,4.284,4.283,10,AssitedTakeoff,
49.6208924728953,16.1248932271771,2259.4746989436,0,0.223694,1.04656827496,12700,2016-08-16 14:16:20,17,25.624,2259.4746989436,0,0.223694,1.04656827496,184.2,0,0,1024,1024,1430,1024,185.5,0,100,4.28,4.283,4.231,4.265,4.284,4.283,6,GPS_Atti,
49.620892384446,16.1248930453055,2259.4746989436,0,0.3131716,1.08404202944,12800,2016-08-16 14:16:20,17,25.619,2259.4746989436,0,0.3131716,1.08404202944,184.1,0,0,1024,1024,1389,1024,185.5,0,100,4.278,4.281,4.231,4.263,4.284,4.281,6,GPS_Atti,
49.6208922022486,16.1248926524536,2259.8027829436,0.328084,0.3131716,1.1695538432,12900,2016-08-16 14:16:20,17,25.619,2259.8027829436,0.328084,0.3131716,1.1695538432,184.1,0,0,1024,1024,1265,1024,185.5,0,100,4.278,4.281,4.231,4.263,4.284,4.281,6,GPS_Atti,
49.6208920681731,16.124892463482,2259.8027829436,0.328084,0.4921268,1.21179137736,13000,2016-08-16 14:16:20,17,25.619,2259.8027829436,0.328084,0.4921268,1.21179137736,184.1,0,0,1024,1024,1265,1024,185.5,0,100,4.278,4.281,4.231,4.263,4.284,4.281,6,GPS_Atti,
49.6208917556037,16.1248920610349,2260.1308669436,0.656168,0.447388,1.30896001564,13100,2016-08-16 14:16:21,17,25.619,2260.1308669436,0.656168,0.4921268,1.30896001564,184.1,0,0,1024,1024,1161,1024,185.5,0,100,4.278,4.281,4.231,4.263,4.284,4.281,6,GPS_Atti,
49.6208915793709,16.1248919307267,2260.4589509436,0.984252,0.447388,1.34511487244,13200,2016-08-16 14:16:21,17,25.619,2260.4589509436,0.984252,0.4921268,1.34511487244,184.1,0,0,1024,1024,1201,1024,185.5,0,100,4.278,4.281,4.231,4.263,4.284,4.281,6,GPS_Atti,
49.6208909441863,16.1248919623676,2261.1151189436,1.64042,0.4921268,1.38216211772,13400,2016-08-16 14:16:21,17,25.619,2261.1151189436,1.64042,0.4921268,1.38216211772,184.2,0,0,1024,1024,1210,1024,185.5,0,100,4.278,4.281,4.231,4.263,4.284,4.281,6,GPS_Atti,
49.6208909441863,16.1248919623676,2261.1151189436,1.64042,0.4921268,1.38216211772,13400,2016-08-16 14:16:21,17,25.619,2261.1151189436,1.64042,0.4921268,1.38216211772,184.2,0,0,1024,1024,1210,1024,185.5,0,100,4.278,4.281,4.231,4.263,4.284,4.281,6,GPS_Atti,
49.6208906976274,16.1248921977155,2261.1151189436,1.64042,0.4921268,1.3569882324,13500,2016-08-16 14:16:21,17,25.619,2261.1151189436,1.64042,0.4921268,1.38216211772,184.3,0,0,1024,1024,1260,1024,185.5,0,100,4.278,4.281,4.231,4.263,4.284,4.281,6,GPS_Atti,
49.6208905132868,16.1248924409724,2261.1151189436,1.64042,0.3131716,1.32873035748,13600,2016-08-16 14:16:21,17,25.619,2261.1151189436,1.64042,0.4921268,1.38216211772,184.4,0,0,1024,1024,1297,1024,185.4,0,100,4.278,4.281,4.231,4.263,4.284,4.281,6,GPS_Atti,
49.6208901644887,16.1248926114486,2261.4432029436,1.968504,0.3131716,1.34953088308,13700,2016-08-16 14:16:21,16,25.619,2261.4432029436,1.968504,0.4921268,1.38216211772,184.4,0,0,1024,1024,1291,1024,185.4,0,100,4.278,4.281,4.231,4.263,4.284,4.281,6,GPS_Atti,
49.6208900011515,16.1248927515718,2261.4432029436,1.968504,0.3131716,1.35158796976,13800,2016-08-16 14:16:21,16,25.616,2261.4432029436,1.968504,0.4921268,1.38216211772,184.4,0,0,1024,1024,1254,1024,185.4,0,100,4.268,4.254,4.227,4.262,4.283,4.249,6,GPS_Atti,
49.6208898636061,16.1248933578592,2262.0993709436,2.624672,0.223694,1.26274938424,14000,2016-08-16 14:16:21,17,25.616,2262.0993709436,2.624672,0.4921268,1.38216211772,184.4,0,0,1024,1024,1202,1024,185.4,0,100,4.268,4.254,4.227,4.262,4.283,4.249,6,GPS_Atti,
49.6208899557269,16.1248936651886,2262.4274549436,2.952756,0.447388,1.18483599592,14100,2016-08-16 14:16:22,17,25.616,2262.4274549436,2.952756,0.4921268,1.38216211772,184.3,0,0,1024,1024,1131,1024,185.4,0,100,4.268,4.254,4.227,4.262,4.283,4.249,6,GPS_Atti,
49.6208899551374,16.1248939697293,2262.7555389436,3.28084,0.447388,1.1295275952,14200,2016-08-16 14:16:22,17,25.616,2262.7555389436,3.28084,0.4921268,1.38216211772,184.2,0,0,1024,1024,1024,1024,185.4,0,100,4.268,4.254,4.227,4.262,4.283,4.249,6,GPS_Atti,
49.6208898345491,16.1248941591503,2262.7555389436,3.28084,0.447388,1.1260991174,14300,2016-08-16 14:16:22,17,25.616,2262.7555389436,3.28084,0.4921268,1.38216211772,184.3,0,0,1024,1024,1024,1024,185.4,0,100,4.268,4.254,4.227,4.262,4.283,4.249,6,GPS_Atti,
49.6208898549234,16.1248945631527,2263.0836229436,3.608924,0.223694,1.05396985,14400,2016-08-16 14:16:22,17,25.616,2263.0836229436,3.608924,0.4921268,1.38216211772,184.3,0,0,1024,1024,1024,1024,185.4,0,100,4.268,4.254,4.227,4.262,4.283,4.249,6,GPS_Atti,
49.6208900092198,16.1248948002402,2263.0836229436,3.608924,0.223694,0.97459976872,14500,2016-08-16 14:16:22,16,25.616,2263.0836229436,3.608924,0.4921268,1.38216211772,184.4,0,0,1024,1024,1024,1024,185.4,0,100,4.268,4.254,4.227,4.262,4.283,4.249,6,GPS_Atti,
49.6208900540798,16.1248950345059,2263.4117069436,3.937008,0.223694,0.92557745744,14600,2016-08-16 14:16:22,16,25.616,2263.4117069436,3.937008,0.4921268,1.38216211772,184.3,0,0,1024,1024,1024,1024,185.4,0,100,4.268,4.254,4.227,4.262,4.283,4.249,6,GPS_Atti,
49.6208899912861,16.124895027284,2263.4117069436,3.937008,0,0.94415685436,14800,2016-08-16 14:16:22,17,25.616,2263.4117069436,3.937008,0.4921268,1.38216211772,184.3,0,0,1024,1024,1024,1024,185.4,0,100,4.268,4.254,4.227,4.262,4.283,4.249,6,GPS_Atti,Landing Gear Raising
49.6208901520387,16.1248951967303,2263.4117069436,3.937008,0,0.87349412244,14900,2016-08-16 14:16:22,17,25.616,2263.4117069436,3.937008,0.4921268,1.38216211772,184.3,0,0,1024,1024,1024,1024,185.4,0,100,4.268,4.254,4.227,4.262,4.283,4.249,6,GPS_Atti,
49.6208901097521,16.1248950025813,2263.4117069436,3.937008,0,0.91529530488,15000,2016-08-16 14:16:22,17,24.552,2263.4117069436,3.937008,0.4921268,1.38216211772,184.3,0,0,1024,1024,1024,1024,185.4,0,100,4.103,4.11,4.057,4.064,4.103,4.109,6,GPS_Atti,
49.6208902978911,16.1248949437209,2263.4117069436,3.937008,0,0.8752953036,15100,2016-08-16 14:16:23,17,24.552,2263.4117069436,3.937008,0.4921268,1.38216211772,184.2,0,0,1024,1024,1024,1024,185.4,0,100,4.103,4.11,4.057,4.064,4.103,4.109,6,GPS_Atti,
49.6208903021754,16.1248948849808,2263.7397909436,4.265092,0,0.88418309916,15200,2016-08-16 14:16:23,17,24.552,2263.7397909436,4.265092,0.4921268,1.38216211772,184.2,0,0,1024,1024,1024,1024,185.4,0,100,4.103,4.11,4.057,4.064,4.103,4.109,6,GPS_Atti,
49.6208904500768,16.1248950376539,2263.7397909436,4.265092,0,0.82092522312,15300,2016-08-16 14:16:23,17,24.552,2263.7397909436,4.265092,0.4921268,1.38216211772,184.2,0,0,1024,1024,1024,1024,185.4,0,100,4.103,4.11,4.057,4.064,4.103,4.109,6,GPS_Atti,
49.6208904500768,16.1248950376539,2263.7397909436,4.265092,0,0.82092522312,15300,2016-08-16 14:16:23,17,24.552,2263.7397909436,4.265092,0.4921268,1.38216211772,184.2,0,0,1024,1024,1024,1024,185.4,0,100,4.103,4.11,4.057,4.064,4.103,4.109,6,GPS_Atti,
49.620890655752,16.1248949707522,2263.7397909436,4.265092,0,0.78437666552,15500,2016-08-16 14:16:23,17,24.552,2263.7397909436,4.265092,0.4921268,1.38216211772,184.3,0,0,1024,1024,1024,1024,185.4,0,100,4.103,4.11,4.057,4.064,4.103,4.109,6,GPS_Atti,
49.6208906646213,16.1248949846891,2263.7397909436,4.265092,0,0.7797900512,15600,2016-08-16 14:16:23,17,24.552,2263.7397909436,4.265092,0.4921268,1.38216211772,184.3,0,0,1024,1024,1024,1024,185.4,0,100,4.103,4.11,4.057,4.064,4.103,4.109,6,GPS_Atti,
49.6208908909539,16.1248951209992,2263.7397909436,4.265092,0,0.70511157112,15700,2016-08-16 14:16:23,17,24.552,2263.7397909436,4.265092,0.4921268,1.38216211772,184.4,0,0,1024,1024,1024,1024,185.4,0,100,4.103,4.11,4.057,4.064,4.103,4.109,6,GPS_Atti,
49.6208908866553,16.1248951515392,2263.7397909436,4.265092,0,0.70004267332,15800,2016-08-16 14:16:23,17,24.552,2263.7397909436,4.265092,0.4921268,1.38216211772,184.4,0,0,1024,1024,1024,1024,185.4,0,100,4.103,4.11,4.057,4.064,4.103,4.109,6,GPS_Atti,
49.6208911498724,16.1248953159364,2263.7397909436,4.265092,0,0.61612206696,15900,2016-08-16 14:16:23,17,24.552,2263.7397909436,4.265092,0.4921268,1.38216211772,184.4,0,0,1024,1024,1024,1024,185.4,0,100,4.103,4.11,4.057,4.064,4.103,4.109,6,GPS_Atti,
49.6208912966531,16.1248954523601,2263.7397909436,4.265092,0,0.56262468992,16000,2016-08-16 14:16:24,17,24.412,2263.7397909436,4.265092,0.4921268,1.38216211772,184.4,0,0,1024,1024,1024,1024,185.4,0,100,4.066,4.125,3.989,4.045,4.06,4.119,6,GPS_Atti,
49.6208913390663,16.1248954368865,2263.4117069436,3.937008,0,0.55929135648,16200,2016-08-16 14:16:24,17,24.412,2263.7397909436,4.265092,0.4921268,1.38216211772,184.3,0,0,1024,1024,1024,1024,185.4,0,100,4.066,4.125,3.989,4.045,4.06,4.119,6,GPS_Atti,
49.6208914311894,16.1248953474245,2263.4117069436,3.937008,0,0.5658956874,16300,2016-08-16 14:16:24,17,24.412,2263.7397909436,4.265092,0.4921268,1.38216211772,184.3,0,0,1024,1024,1024,1024,185.4,0,100,4.066,4.125,3.989,4.045,4.06,4.119,6,GPS_Atti,
49.6208914232886,16.1248953315865,2263.4117069436,3.937008,0,0.57041668492,16400,2016-08-16 14:16:24,17,24.412,2263.7397909436,4.265092,0.4921268,1.38216211772,184.3,0,0,1024,1024,1024,1024,185.4,0,100,4.066,4.125,3.989,4.045,4.06,4.119,6,GPS_Atti,
49.6208916018313,16.1248954107897,2263.4117069436,3.937008,0,0.53260500392,16500,2016-08-16 14:16:24,17,24.412,2263.7397909436,4.265092,0.4921268,1.38216211772,184.4,0,0,1024,1024,1024,1024,185.4,0,100,4.066,4.125,3.989,4.045,4.06,4.119,6,GPS_Atti,
49.6208916223775,16.1248953233573,2263.4117069436,3.937008,0,0.55079070004,16600,2016-08-16 14:16:24,17,24.412,2263.7397909436,4.265092,0.4921268,1.38216211772,184.4,0,0,1024,1024,1024,1024,185.4,0,100,4.066,4.125,3.989,4.045,4.06,4.119,6,GPS_Atti,
49.6208918461146,16.1248953568631,2263.4117069436,3.937008,0,0.52960631616,16800,2016-08-16 14:16:24,17,24.412,2263.7397909436,4.265092,0.4921268,1.38216211772,184.3,0,0,1024,1024,1024,1024,185.4,0,100,4.066,4.125,3.989,4.045,4.06,4.119,6,GPS_Atti,
49.6208919705836,16.1248953031667,2263.4117069436,3.937008,0,0.54013781256,16900,2016-08-16 14:16:24,17,24.412,2263.7397909436,4.265092,0.4921268,1.38216211772,184.4,0,0,1024,1024,1024,1024,185.4,0,100,4.066,4.125,3.989,4.045,4.06,4.119,6,GPS_Atti,
49.6208919826125,16.1248953433055,2263.4117069436,3.937008,0,0.53064962328,17000,2016-08-16 14:16:25,17,24.412,2263.7397909436,4.265092,0.4921268,1.38216211772,184.3,0,0,1024,1024,1024,1024,185.4,0,100,4.066,4.125,3.989,4.045,4.06,4.119,6,GPS_Atti,
49.6208919473425,16.124895334744,2263.7397909436,4.265092,0,0.53278216928,17100,2016-08-16 14:16:25,17,24.412,2263.7397909436,4.265092,0.4921268,1.38216211772,184.4,0,0,1024,1024,1024,1024,185.4,0,100,4.066,4.125,3.989,4.045,4.06,4.119,6,GPS_Atti,
49.6208919598312,16.1248953201352,2263.7397909436,4.265092,0,0.53616143448,17200,2016-08-16 14:16:25,17,24.298,2263.7397909436,4.265092,0.4921268,1.38216211772,184.5,0,0,1024,1024,1024,1024,185.4,0,100,4.053,4.068,4.006,4.023,4.058,4.075,6,GPS_Atti,
49.6208921301344,16.1248951985986,2263.7397909436,4.265092,0,0.56759844336,17300,2016-08-16 14:16:25,17,24.298,2263.7397909436,4.265092,0.4921268,1.38216211772,184.5,0,0,1024,1024,1024,1024,185.4,0,100,4.053,4.068,4.006,4.023,4.058,4.075,6,GPS_Atti,
49.6208921060249,16.1248951761964,2263.7397909436,4.265092,0,0.5720800708,17400,2016-08-16 14:16:25,17,24.298,2263.7397909436,4.265092,0.4921268,1.38216211772,184.5,0,0,1024,1024,1024,1024,185.4,0,100,4.053,4.068,4.006,4.023,4.058,4.075,6,GPS_Atti,
49.6208920969136,16.1248948330605,2263.7397909436,4.265092,0,0.65271327548,17600,2016-08-16 14:16:25,17,24.298,2263.7397909436,4.265092,0.4921268,1.38216211772,184.5,0,0,1024,1024,1024,1024,185.4,0,100,4.053,4.068,4.006,4.023,4.058,4.075,6,GPS_Atti,
49.620892186745,16.1248947225304,2263.7397909436,4.265092,0,0.681676531,17700,2016-08-16 14:16:25,17,24.298,2263.7397909436,4.265092,0.4921268,1.38216211772,184.5,0,0,1024,1024,1024,1024,185.4,0,100,4.053,4.068,4.006,4.023,4.058,4.075,6,GPS_Atti,
49.6208921646737,16.1248946497171,2263.7397909436,4.265092,0,0.69794621656,17800,2016-08-16 14:16:25,17,24.298,2263.7397909436,4.265092,0.4921268,1.38216211772,184.5,0,0,1024,1024,1024,1024,185.4,0,100,4.053,4.068,4.006,4.023,4.058,4.075,6,GPS_Atti,
49.6208921455689,16.1248944531792,2263.7397909436,4.265092,0,0.74358270096,17900,2016-08-16 14:16:25,17,24.298,2263.7397909436,4.265092,0.4921268,1.38216211772,184.4,0,0,1024,1024,1024,1024,185.4,0,100,4.053,4.068,4.006,4.023,4.058,4.075,6,GPS_Atti,
49.6208921305602,16.1248944645294,2263.7397909436,4.265092,0,0.74047574548,18000,2016-08-16 14:16:26,17,24.298,2263.7397909436,4.265092,0.4921268,1.38216211772,184.4,0,0,1024,1024,1024,1024,185.4,0,100,4.053,4.068,4.006,4.023,4.058,4.075,6,GPS_Atti,
49.6208920948163,16.1248944538165,2263.7397909436,4.265092,0,0.74213256968,18200,2016-08-16 14:16:26,17,24.298,2263.7397909436,4.265092,0.4921268,1.38216211772,184.5,0,0,1024,1024,1024,1024,185.4,0,100,4.053,4.068,4.006,4.023,4.058,4.075,6,GPS_Atti,
49.6208920798833,16.1248944317576,2263.7397909436,4.265092,0,0.74704398716,18300,2016-08-16 14:16:26,17,24.298,2263.7397909436,4.265092,0.4921268,1.38216211772,184.5,0,0,1024,1024,1024,1024,185.4,0,100,4.053,4.068,4.006,4.023,4.058,4.075,6,GPS_Atti,
49.6208920654729,16.1248944856379,2263.7397909436,4.265092,0,0.73407482664,18500,2016-08-16 14:16:26,17,24.208,2263.7397909436,4.265092,0.4921268,1.38216211772,184.5,0,0,1024,1024,1024,1024,185.4,0,100,4.041,4.035,3.973,4.023,4.034,4.05,6,GPS_Atti,
49.6208920475109,16.1248945366239,2263.7397909436,4.265092,0,0.72177167664,18600,2016-08-16 14:16:26,17,24.208,2263.7397909436,4.265092,0.4921268,1.38216211772,184.5,0,0,1024,1024,1024,1024,185.4,0,100,4.041,4.035,3.973,4.023,4.034,4.05,6,GPS_Atti,
49.6208920383847,16.1248946613714,2263.7397909436,4.265092,0,0.6921916232,18700,2016-08-16 14:16:26,17,24.208,2263.7397909436,4.265092,0.4921268,1.38216211772,184.4,0,0,1024,1024,1024,1024,185.4,0,100,4.041,4.035,3.973,4.023,4.034,4.05,6,GPS_Atti,
49.6208920392215,16.1248946586328,2263.7397909436,4.265092,0,0.6928477912,18800,2016-08-16 14:16:26,17,24.208,2263.7397909436,4.265092,0.4921268,1.38216211772,184.4,0,0,1024,1024,1024,1024,185.4,0,100,4.041,4.035,3.973,4.023,4.034,4.05,6,GPS_Atti,
49.620892047363,16.1248947695918,2263.7397909436,4.265092,0,0.66674214732,18900,2016-08-16 14:16:26,17,24.208,2263.7397909436,4.265092,0.4921268,1.38216211772,184.3,0,0,1024,1024,1024,1024,185.4,0,100,4.041,4.035,3.973,4.023,4.034,4.05,6,GPS_Atti,
49.620892054375,16.1248947785099,2263.7397909436,4.265092,0,0.66474083492,19000,2016-08-16 14:16:27,17,24.208,2263.7397909436,4.265092,0.4921268,1.38216211772,184.3,0,0,1024,1024,1024,1024,185.4,0,100,4.041,4.035,3.973,4.023,4.034,4.05,6,GPS_Atti,
49.6208920851963,16.1248948367918,2263.7397909436,4.265092,0,0.65156170064,19200,2016-08-16 14:16:27,17,24.208,2263.7397909436,4.265092,0.4921268,1.38216211772,184.4,0,0,1024,1024,1024,1024,185.4,0,100,4.041,4.035,3.973,4.023,4.034,4.05,6,GPS_Atti,
49.6208920863341,16.1248949498379,2263.7397909436,4.265092,0,0.624917999,19300,2016-08-16 14:16:27,17,24.208,2263.7397909436,4.265092,0.4921268,1.38216211772,184.4,0,0,1024,1024,1024,1024,185.4,0,100,4.041,4.035,3.973,4.023,4.034,4.05,6,GPS_Atti,
49.6208920844937,16.1248949400788,2263.7397909436,4.265092,0,0.62717849776,19400,2016-08-16 14:16:27,17,24.208,2263.7397909436,4.265092,0.4921268,1.38216211772,184.4,0,0,1024,1024,1024,1024,185.4,0,100,4.041,4.035,3.973,4.023,4.034,4.05,6,GPS_Atti,
49.6208920765423,16.1248951463421,2263.7397909436,4.265092,0,0.57833663268,19500,2016-08-16 14:16:27,17,24.208,2263.7397909436,4.265092,0.4921268,1.38216211772,184.5,0,0,1024,1024,1024,1024,185.4,0,100,4.041,4.035,3.973,4.023,4.034,4.05,6,GPS_Atti,
49.6208920742388,16.1248951132379,2263.7397909436,4.265092,0,0.58609581928,19600,2016-08-16 14:16:27,17,24.16,2263.7397909436,4.265092,0.4921268,1.38216211772,184.5,0,0,1024,1024,1024,1024,185.4,0,100,4.054,4.045,3.986,4.007,4.05,4.057,6,GPS_Atti,
49.6208920564425,16.1248953175735,2263.7397909436,4.265092,0,0.53750657888,19700,2016-08-16 14:16:27,17,24.16,2263.7397909436,4.265092,0.4921268,1.38216211772,184.5,0,0,1024,1024,1024,1024,185.4,0,100,4.054,4.045,3.986,4.007,4.05,4.057,6,GPS_Atti,
49.6208920680089,16.1248952498754,2263.7397909436,4.265092,0,0.55372049016,19800,2016-08-16 14:16:27,17,24.16,2263.7397909436,4.265092,0.4921268,1.38216211772,184.4,0,0,1024,1024,1024,1024,185.4,-0.4,100,4.054,4.045,3.986,4.007,4.05,4.057,6,GPS_Atti,
49.6208921370457,16.1248951797886,2263.7397909436,4.265092,0,0.57227364036,20000,2016-08-16 14:16:27,17,24.16,2263.7397909436,4.265092,0.4921268,1.38216211772,184.4,0,0,1024,1024,1024,1024,185.4,-2.2,100,4.054,4.045,3.986,4.007,4.05,4.057,6,GPS_Atti,
49.6208921673376,16.124895112437,2263.7397909436,4.265092,0,0.58931104248,20100,2016-08-16 14:16:28,17,24.16,2263.7397909436,4.265092,0.4921268,1.38216211772,184.4,0,0,1024,1024,1024,1024,185.4,-5.4,100,4.054,4.045,3.986,4.007,4.05,4.057,6,GPS_Atti,
49.6208921892204,16.1248950513284,2263.7397909436,4.265092,0,0.60462928444,20200,2016-08-16 14:16:28,17,24.16,2263.7397909436,4.265092,0.4921268,1.38216211772,184.4,0,0,1024,1024,1024,1024,185.4,-9.9,100,4.054,4.045,3.986,4.007,4.05,4.057,6,GPS_Atti,
49.6208922252187,16.1248950313152,2263.7397909436,4.265092,0,0.61112534764,20300,2016-08-16 14:16:28,17,24.16,2263.7397909436,4.265092,0.4921268,1.38216211772,184.5,0,0,1024,1024,1024,1024,185.4,-15.8,100,4.054,4.045,3.986,4.007,4.05,4.057,6,GPS_Atti,
49.6208922252187,16.1248950313152,2263.7397909436,4.265092,0,0.61112534764,20300,2016-08-16 14:16:28,17,24.16,2263.7397909436,4.265092,0.4921268,1.38216211772,184.5,0,0,1024,1024,1024,1024,185.4,-23.1,100,4.054,4.045,3.986,4.007,4.05,4.057,6,GPS_Atti,
49.6208922296056,16.1248950100087,2263.7397909436,4.265092,0,0.61634516408,20400,2016-08-16 14:16:28,17,24.16,2263.7397909436,4.265092,0.4921268,1.38216211772,184.5,0,0,1024,1024,1024,1024,185.4,-31.8,100,4.054,4.045,3.986,4.007,4.05,4.057,6,GPS_Atti,Landing Gear Raised
49.6208924218889,16.1248948585379,2263.7397909436,4.265092,0,0.66531498192,20700,2016-08-16 14:16:28,17,24.16,2263.7397909436,4.265092,0.4921268,1.38216211772,184.4,0,0,1024,1024,1024,1024,185.4,-52.6,100,4.054,4.045,3.986,4.007,4.05,4.057,6,GPS_Atti,
49.6208924023092,16.1248948938754,2263.7397909436,4.265092,0,0.65548886612,20800,2016-08-16 14:16:28,17,24.16,2263.7397909436,4.265092,0.4921268,1.38216211772,184.5,0,0,1024,1024,1024,1024,185.4,-62.1,100,4.028,4.028,3.981,4.008,4.04,4.055,6,GPS_Atti,
49.6208923824227,16.1248949632035,2263.7397909436,4.265092,0,0.63785763196,20900,2016-08-16 14:16:28,17,24.16,2263.7397909436,4.265092,0.4921268,1.38216211772,184.5,0,0,1024,1024,1024,1024,185.4,-70.2,100,4.028,4.028,3.981,4.008,4.04,4.055,6,GPS_Atti,
49.6208923685806,16.1248949805855,2263.7397909436,4.265092,0,0.63270343232,21000,2016-08-16 14:16:28,17,24.16,2263.7397909436,4.265092,0.4921268,1.38216211772,184.6,0,0,1024,1024,1024,1024,185.4,-82.3,100,4.028,4.028,3.981,4.008,4.04,4.055,6,GPS_Atti,
49.6208924547865,16.1248950968091,2263.7397909436,4.265092,0,0.61414700128,21100,2016-08-16 14:16:29,17,24.16,2263.7397909436,4.265092,0.4921268,1.38216211772,184.5,0,0,1024,1024,1024,1024,185.4,-86.2,100,4.028,4.028,3.981,4.008,4.04,4.055,6,GPS_Atti,
49.6208924338911,16.1248951690277,2263.7397909436,4.265092,0,0.5956200978,21200,2016-08-16 14:16:29,17,24.16,2263.7397909436,4.265092,0.4921268,1.38216211772,184.5,0,0,1024,1024,1024,1024,185.4,-88.7,100,4.028,4.028,3.981,4.008,4.04,4.055,6,GPS_Atti,
49.6208925223132,16.1248951494392,2263.7397909436,4.265092,0,0.60981301164,21400,2016-08-16 14:16:29,17,24.16,2263.7397909436,4.265092,0.4921268,1.38216211772,184.4,0,0,1024,1024,1024,1024,185.4,-89.9,100,4.028,4.028,3.981,4.008,4.04,4.055,6,GPS_Atti,
49.6208925590487,16.1248952202363,2263.7397909436,4.265092,0,0.5986384706,21500,2016-08-16 14:16:29,17,24.16,2263.7397909436,4.265092,0.4921268,1.38216211772,184.3,0,0,1024,1024,1024,1024,185.4,-89.9,100,4.028,4.028,3.981,4.008,4.04,4.055,6,GPS_Atti,
49.6208925547023,16.124895161647,2263.7397909436,4.265092,0,0.61105973084,21600,2016-08-16 14:16:29,17,24.16,2263.7397909436,4.265092,0.4921268,1.38216211772,184.3,0,0,1024,1024,1024,1024,185.4,-89.9,100,4.028,4.028,3.981,4.008,4.04,4.055,6,GPS_Atti,
49.6208926458041,16.1248951203124,2263.7397909436,4.265092,0,0.63230316984,21700,2016-08-16 14:16:29,17,24.16,2263.7397909436,4.265092,0.4921268,1.38216211772,184.3,0,0,1024,1024,1024,1024,185.4,-89.9,100,4.028,4.028,3.981,4.008,4.04,4.055,6,GPS_Atti,
49.6208926357707,16.1248951006581,2263.7397909436,4.265092,0,0.63519687072,21800,2016-08-16 14:16:29,17,24.16,2263.7397909436,4.265092,0.4921268,1.38216211772,184.4,0,0,1024,1024,1024,1024,185.4,-89.9,100,4.028,4.028,3.981,4.008,4.04,4.055,6,GPS_Atti,
49.6208926417636,16.1248950919391,2263.7397909436,4.265092,0,0.63793309128,21900,2016-08-16 14:16:29,17,24.064,2263.7397909436,4.265092,0.4921268,1.38216211772,184.4,0,0,1024,1024,1024,1024,185.4,-89.9,99,4.022,4.019,3.971,3.986,4.037,4.04,6,GPS_Atti,
49.6208926315848,16.1248950013027,2263.7397909436,4.265092,0,0.65644030972,22100,2016-08-16 14:16:29,17,24.064,2263.7397909436,4.265092,0.4921268,1.38216211772,184.5,0,0,1024,1024,1024,1024,185.4,-89.9,99,4.022,4.019,3.971,3.986,4.037,4.04,6,GPS_Atti,
49.6208926315848,16.1248950013027,2263.7397909436,4.265092,0,0.65644030972,22100,2016-08-16 14:16:30,17,24.064,2263.7397909436,4.265092,0.4921268,1.38216211772,184.5,0,0,1024,1024,1024,1024,185.4,-89.9,99,4.022,4.019,3.971,3.986,4.037,4.04,6,GPS_Atti,
49.6208926297402,16.1248950443437,2263.7397909436,4.265092,0,0.64672574248,22200,2016-08-16 14:16:30,17,24.064,2263.7397909436,4.265092,0.4921268,1.38216211772,184.5,0,0,1024,1024,1024,1024,185.4,-89.9,99,4.022,4.019,3.971,3.986,4.037,4.04,6,GPS_Atti,
49.6208927279928,16.1248950127907,2263.7397909436,4.265092,0,0.66755907648,22300,2016-08-16 14:16:30,17,24.064,2263.7397909436,4.265092,0.4921268,1.38216211772,184.4,0,0,1024,1024,1024,1024,185.4,-89.9,99,4.022,4.019,3.971,3.986,4.037,4.04,6,GPS_Atti,
49.6208927235832,16.1248950627434,2263.7397909436,4.265092,0,0.65613847244,22400,2016-08-16 14:16:30,17,24.064,2263.7397909436,4.265092,0.4921268,1.38216211772,184.4,0,0,1024,1024,1024,1024,185.4,-89.9,99,4.022,4.019,3.971,3.986,4.037,4.04,6,GPS_Atti,
49.6208927304487,16.1248950807622,2263.7397909436,4.265092,0,0.65331695004,22500,2016-08-16 14:16:30,17,24.064,2263.7397909436,4.265092,0.4921268,1.38216211772,184.3,0,0,1024,1024,1024,1024,185.4,-89.9,99,4.022,4.019,3.971,3.986,4.037,4.04,6,GPS_Atti,
49.6208927450932,16.1248950650533,2263.7397909436,4.265092,0,0.6589403098,22600,2016-08-16 14:16:30,17,24.064,2263.7397909436,4.265092,0.4921268,1.38216211772,184.3,0,0,1024,1024,1024,1024,185.4,-89.9,99,4.022,4.019,3.971,3.986,4.037,4.04,6,GPS_Atti,
49.6208927341627,16.1248949524062,2263.7397909436,4.265092,0,0.68150920816,22800,2016-08-16 14:16:30,17,24.064,2263.7397909436,4.265092,0.4921268,1.38216211772,184.4,0,0,1024,1024,1024,1024,185.4,-89.9,99,4.022,4.019,3.971,3.986,4.037,4.04,6,GPS_Atti,
49.6208927341627,16.1248949524062,2263.7397909436,4.265092,0,0.68150920816,22800,2016-08-16 14:16:30,17,24.064,2263.7397909436,4.265092,0.4921268,1.38216211772,184.4,0,0,1024,1024,1024,1024,185.4,-89.9,99,4.022,4.019,3.971,3.986,4.037,4.04,6,GPS_Atti,
49.6208927246828,16.1248949398415,2263.7397909436,4.265092,0,0.68283466752,22900,2016-08-16 14:16:30,17,24.059,2263.7397909436,4.265092,0.4921268,1.38216211772,184.4,0,0,1024,1024,1024,1024,185.4,-89.9,99,4.02,4.028,3.974,3.977,4.03,4.027,6,GPS_Atti,
49.6208925824406,16.1248949154801,2263.7397909436,4.265092,0,0.66924870908,23100,2016-08-16 14:16:31,17,24.059,2263.7397909436,4.265092,0.4921268,1.38216211772,184.4,0,0,1024,1024,1024,1024,185.4,-89.9,99,4.02,4.028,3.974,3.977,4.03,4.027,6,GPS_Atti,
49.620892593373,16.124894906193,2263.7397909436,4.265092,0,0.67264437848,23200,2016-08-16 14:16:31,17,24.059,2263.7397909436,4.265092,0.4921268,1.38216211772,184.5,0,0,1024,1024,1024,1024,185.4,-89.9,99,4.02,4.028,3.974,3.977,4.03,4.027,6,GPS_Atti,
49.6208926093374,16.1248947774319,2263.7397909436,4.265092,0,0.70329070492,23300,2016-08-16 14:16:31,17,24.059,2263.7397909436,4.265092,0.4921268,1.38216211772,184.4,0,0,1024,1024,1024,1024,185.4,-89.9,99,4.02,4.028,3.974,3.977,4.03,4.027,6,GPS_Atti,
49.6208925983795,16.1248947649523,2263.7397909436,4.265092,0,0.70478020628,23400,2016-08-16 14:16:31,17,24.059,2263.7397909436,4.265092,0.4921268,1.38216211772,184.4,0,0,1024,1024,1024,1024,185.4,-89.9,99,4.02,4.028,3.974,3.977,4.03,4.027,6,GPS_Atti,
49.6208926225514,16.1248947448414,2263.7397909436,4.265092,0,0.71215225376,23600,2016-08-16 14:16:31,17,24.059,2263.7397909436,4.265092,0.4921268,1.38216211772,184.5,0,0,1024,1024,1024,1024,185.4,-89.9,99,4.02,4.028,3.974,3.977,4.03,4.027,6,GPS_Atti,
49.6208926225514,16.1248947448414,2263.7397909436,4.265092,0,0.71215225376,23600,2016-08-16 14:16:31,17,24.059,2263.7397909436,4.265092,0.4921268,1.38216211772,184.5,0,0,1024,1024,1024,1024,185.4,-89.9,99,4.02,4.028,3.974,3.977,4.03,4.027,6,GPS_Atti,
49.6208926332649,16.1248947808532,2263.7397909436,4.265092,0,0.70543965512,23700,2016-08-16 14:16:31,17,24.059,2263.7397909436,4.265092,0.4921268,1.38216211772,184.6,0,0,1024,1024,1024,1024,185.4,-89.9,99,4.02,4.028,3.974,3.977,4.03,4.027,6,GPS_Atti,
49.6208926543792,16.1248948118937,2263.7397909436,4.265092,0,0.70122049488,23800,2016-08-16 14:16:31,17,24.059,2263.7397909436,4.265092,0.4921268,1.38216211772,184.6,0,0,1024,1024,1024,1024,185.4,-89.9,99,4.02,4.028,3.974,3.977,4.03,4.027,6,GPS_Atti,
49.6208926676426,16.1248949434876,2263.7397909436,4.265092,0,0.67399280372,23900,2016-08-16 14:16:31,17,24.059,2263.7397909436,4.265092,0.4921268,1.38216211772,184.6,0,0,1024,1024,1024,1024,185.4,-89.9,99,4.02,4.028,3.974,3.977,4.03,4.027,6,GPS_Atti,
49.6208926653844,16.1248950494447,2263.7397909436,4.265092,0,0.65051183184,24000,2016-08-16 14:16:32,17,24.061,2263.7397909436,4.265092,0.4921268,1.38216211772,184.5,0,0,1024,1024,1024,1024,185.4,-89.9,99,4.028,4.024,3.972,3.983,4.037,4.03,6,GPS_Atti,
49.6208926649206,16.1248951450567,2263.7397909436,4.265092,0,0.6296588128,24100,2016-08-16 14:16:32,17,24.061,2263.7397909436,4.265092,0.4921268,1.38216211772,184.4,0,0,1024,1024,1024,1024,185.4,-89.9,99,4.028,4.024,3.972,3.983,4.037,4.03,6,GPS_Atti,
49.6208926627661,16.124895126664,2263.7397909436,4.265092,0,0.63333663444,24200,2016-08-16 14:16:32,17,24.061,2263.7397909436,4.265092,0.4921268,1.38216211772,184.3,0,0,1024,1024,1024,1024,185.4,-89.9,99,4.028,4.024,3.972,3.983,4.037,4.03,6,GPS_Atti,
49.6208926268499,16.1248951719372,2263.7397909436,4.265092,0,0.61837928488,24400,2016-08-16 14:16:32,17,24.061,2263.7397909436,4.265092,0.4921268,1.38216211772,184.2,0,0,1024,1024,1024,1024,185.4,-89.9,99,4.028,4.024,3.972,3.983,4.037,4.03,6,GPS_Atti,
49.6208925333192,16.1248951768397,2263.7397909436,4.265092,0,0.60502954692,24500,2016-08-16 14:16:32,17,24.061,2263.7397909436,4.265092,0.4921268,1.38216211772,184.2,0,0,1024,1024,1024,1024,185.4,-89.9,99,4.028,4.024,3.972,3.983,4.037,4.03,6,GPS_Atti,
49.6208924932094,16.1248950870424,2263.7397909436,4.265092,0,0.62046917996,24600,2016-08-16 14:16:32,17,24.061,2263.7397909436,4.265092,0.4921268,1.38216211772,184.3,0,0,1024,1024,1024,1024,185.4,-89.9,99,4.028,4.024,3.972,3.983,4.037,4.03,6,GPS_Atti,
49.6208924921836,16.1248948832427,2263.7397909436,4.265092,0.223694,0.66642390584,24700,2016-08-16 14:16:32,17,24.061,2263.7397909436,4.265092,0.4921268,1.38216211772,184.3,0,0,1024,1024,1024,1024,185.4,-89.9,99,4.028,4.024,3.972,3.983,4.037,4.03,6,GPS_Atti,
49.6208924911333,16.124894807891,2263.7397909436,4.265092,0.223694,0.68342521872,24800,2016-08-16 14:16:32,17,24.061,2263.7397909436,4.265092,0.4921268,1.38216211772,184.4,0,0,1024,1024,1024,1024,185.4,-89.9,99,4.028,4.024,3.972,3.983,4.037,4.03,6,GPS_Atti,
49.620892494188,16.1248946093572,2263.4117069436,3.937008,0.223694,0.7289534354,25000,2016-08-16 14:16:32,17,24.061,2263.7397909436,4.265092,0.4921268,1.38216211772,184.5,0,0,1024,1024,1024,1024,185.4,-89.9,99,4.028,4.024,3.972,3.983,4.037,4.03,6,GPS_Atti,
49.6208924979633,16.124894170066,2263.4117069436,3.937008,0.223694,0.82999674572,25100,2016-08-16 14:16:33,17,24.061,2263.7397909436,4.265092,0.4921268,1.38216211772,184.4,0,0,1024,1024,1024,1024,185.4,-89.9,99,4.028,4.024,3.972,3.983,4.037,4.03,6,GPS_Atti,
49.6208924956438,16.1248939876328,2263.4117069436,3.937008,0.223694,0.87184714076,25200,2016-08-16 14:16:33,17,24.018,2263.7397909436,4.265092,0.4921268,1.38216211772,184.3,0,0,1024,1024,1024,1024,185.4,-89.9,99,4.021,4.017,3.954,3.972,4.025,4.027,6,GPS_Atti,
49.6208924956438,16.1248939876328,2263.4117069436,3.937008,0.223694,0.87184714076,25200,2016-08-16 14:16:33,17,24.018,2263.7397909436,4.265092,0.4921268,1.38216211772,184.3,0,0,1024,1024,1024,1024,185.4,-89.9,99,4.021,4.017,3.954,3.972,4.025,4.027,6,GPS_Atti,
49.620892600379,16.1248938528522,2263.7397909436,4.265092,0.223694,0.91174215516,25300,2016-08-16 14:16:33,17,24.018,2263.7397909436,4.265092,0.4921268,1.38216211772,184.3,0,0,1024,1024,1024,1024,185.4,-89.9,99,4.021,4.017,3.954,3.972,4.025,4.027,6,GPS_Atti,
49.6208925935349,16.1248937146942,2263.7397909436,4.265092,0,0.94280186744,25400,2016-08-16 14:16:33,17,24.018,2263.7397909436,4.265092,0.4921268,1.38216211772,184.3,0,0,1024,1024,1024,1024,185.4,-89.9,99,4.021,4.017,3.954,3.972,4.025,4.027,6,GPS_Atti,
49.6208925657538,16.1248935548753,2263.7397909436,4.265092,0,0.97725068744,25600,2016-08-16 14:16:33,17,24.018,2263.7397909436,4.265092,0.4921268,1.38216211772,184.3,0,0,1024,1024,1024,1024,185.4,-89.9,99,4.021,4.017,3.954,3.972,4.025,4.027,6,GPS_Atti,
49.6208925591273,16.1248936595187,2263.7397909436,4.265092,0,0.95259517484,25700,2016-08-16 14:16:33,17,24.018,2263.7397909436,4.265092,0.4921268,1.38216211772,184.3,0,0,1024,1024,1024,1024,185.4,-89.9,99,4.021,4.017,3.954,3.972,4.025,4.027,6,GPS_Atti,
49.6208925626626,16.1248936974394,2263.7397909436,4.265092,0,0.94415029268,25800,2016-08-16 14:16:33,17,24.018,2263.7397909436,4.265092,0.4921268,1.38216211772,184.3,0,0,1024,1024,1024,1024,185.4,-89.9,99,4.021,4.017,3.954,3.972,4.025,4.027,6,GPS_Atti,
49.6208925642324,16.1248936561675,2263.7397909436,4.265092,0,0.95378283892,25900,2016-08-16 14:16:33,17,24.018,2263.7397909436,4.265092,0.4921268,1.38216211772,184.4,0,0,1024,1024,1024,1024,185.4,-89.9,99,4.021,4.017,3.954,3.972,4.025,4.027,6,GPS_Atti,
49.620892556594,16.1248937077048,2263.7397909436,4.265092,0,0.9412894002,26000,2016-08-16 14:16:34,17,24.018,2263.7397909436,4.265092,0.4921268,1.38216211772,184.4,0,0,1024,1024,1024,1024,185.4,-89.9,99,4.021,4.017,3.954,3.972,4.025,4.027,6,GPS_Atti,
49.6208925467353,16.1248937583241,2263.7397909436,4.265092,0,0.9288222082,26100,2016-08-16 14:16:34,17,24.018,2263.7397909436,4.265092,0.4921268,1.38216211772,184.4,0,0,1024,1024,1024,1024,185.4,-89.9,99,4.021,4.017,3.954,3.972,4.025,4.027,6,GPS_Atti,
49.6208924334894,16.1248938701924,2263.4117069436,3.937008,0,0.89446525172,26300,2016-08-16 14:16:34,17,24.018,2263.7397909436,4.265092,0.4921268,1.38216211772,184.5,0,0,1024,1024,1024,1024,185.4,-89.9,99,4.008,4.016,3.958,3.977,4.016,4.032,6,GPS_Atti,
49.6208924253011,16.1248938844371,2263.7397909436,4.265092,0,0.89060698388,26400,2016-08-16 14:16:34,17,24.018,2263.7397909436,4.265092,0.4921268,1.38216211772,184.6,0,0,1024,1024,1024,1024,185.4,-89.9,99,4.008,4.016,3.958,3.977,4.016,4.032,6,GPS_Atti,
49.6208924103237,16.1248939395225,2263.7397909436,4.265092,0,0.87680777084,26500,2016-08-16 14:16:34,17,24.018,2263.7397909436,4.265092,0.4921268,1.38216211772,184.7,0,0,1024,1024,1024,1024,185.4,-89.9,99,4.008,4.016,3.958,3.977,4.016,4.032,6,GPS_Atti,
49.6208924180551,16.1248939539825,2263.7397909436,4.265092,0,0.87396000172,26600,2016-08-16 14:16:34,17,24.018,2263.7397909436,4.265092,0.4921268,1.38216211772,184.7,0,0,1024,1024,1024,1024,185.4,-89.9,99,4.008,4.016,3.958,3.977,4.016,4.032,6,GPS_Atti,
49.6208923311416,16.1248940663539,2263.7397909436,4.265092,0,0.84242784848,26700,2016-08-16 14:16:34,17,24.018,2263.7397909436,4.265092,0.4921268,1.38216211772,184.6,0,0,1024,1024,1024,1024,185.4,-89.9,99,4.008,4.016,3.958,3.977,4.016,4.032,6,GPS_Atti,
49.6208923365597,16.1248940617843,2263.7397909436,4.265092,0,0.84380252044,26800,2016-08-16 14:16:34,17,24.018,2263.7397909436,4.265092,0.4921268,1.38216211772,184.6,0,0,1024,1024,1024,1024,185.4,-89.9,99,4.008,4.016,3.958,3.977,4.016,4.032,6,GPS_Atti,
49.6208923541084,16.124894245411,2263.7397909436,4.265092,0,0.80202758472,26900,2016-08-16 14:16:34,17,24.018,2263.7397909436,4.265092,0.4921268,1.38216211772,184.6,0,0,1024,1024,1024,1024,185.4,-89.9,99,4.008,4.016,3.958,3.977,4.016,4.032,6,GPS_Atti,
49.6208922881426,16.1248943586197,2263.4117069436,3.937008,0,0.77177495908,27100,2016-08-16 14:16:35,17,24.018,2263.7397909436,4.265092,0.4921268,1.38216211772,184.6,0,0,1024,1024,1024,1024,185.4,-89.9,99,4.008,4.016,3.958,3.977,4.016,4.032,6,GPS_Atti,
49.6208923203692,16.124894320761,2263.4117069436,3.937008,0,0.78242128488,27200,2016-08-16 14:16:35,17,24.018,2263.7397909436,4.265092,0.4921268,1.38216211772,184.7,0,0,1024,1024,1024,1024,185.4,-89.9,99,4.008,4.016,3.958,3.977,4.016,4.032,6,GPS_Atti,
49.6208923631269,16.1248944912208,2263.4117069436,3.937008,0,0.74546590312,27400,2016-08-16 14:16:35,17,24.018,2263.7397909436,4.265092,0.4921268,1.38216211772,184.9,0,0,1024,1024,1024,1024,185.4,-89.9,99,4.008,4.016,3.958,3.977,4.016,4.032,6,GPS_Atti,
49.6208923701646,16.1248946691131,2263.7397909436,4.265092,0,0.7047408362,27500,2016-08-16 14:16:35,17,24.006,2263.7397909436,4.265092,0.4921268,1.38216211772,184.9,0,0,1024,1024,1024,1024,185.4,-89.9,99,4.015,4.012,3.961,3.979,4.032,4.019,6,GPS_Atti,
49.6208923754478,16.1248946553672,2263.4117069436,3.937008,0,0.70831367096,27600,2016-08-16 14:16:35,17,24.006,2263.7397909436,4.265092,0.4921268,1.38216211772,184.9,0,0,1024,1024,1024,1024,185.4,-89.9,99,4.015,4.012,3.961,3.979,4.032,4.019,6,GPS_Atti,
49.6208923754478,16.1248946553672,2263.4117069436,3.937008,0,0.70831367096,27600,2016-08-16 14:16:35,17,24.006,2263.7397909436,4.265092,0.4921268,1.38216211772,184.9,0,0,1024,1024,1024,1024,185.4,-90,99,4.015,4.012,3.961,3.979,4.032,4.019,6,GPS_Atti,
49.6208924554867,16.1248949620854,2263.7397909436,4.265092,0,0.64481301276,27700,2016-08-16 14:16:35,17,24.006,2263.7397909436,4.265092,0.4921268,1.38216211772,184.8,0,0,1024,1024,1024,1024,185.4,-90,99,4.015,4.012,3.961,3.979,4.032,4.019,6,GPS_Atti,
49.6208924312342,16.1248951656584,2263.7397909436,4.265092,0,0.59611550464,27900,2016-08-16 14:16:35,17,24.006,2263.7397909436,4.265092,0.4921268,1.38216211772,184.6,0,0,1024,1024,1024,1024,185.4,-90,99,4.015,4.012,3.961,3.979,4.032,4.019,6,GPS_Atti,
49.6208924131124,16.1248951725221,2263.7397909436,4.265092,0,0.5927493628,28000,2016-08-16 14:16:35,17,24.006,2263.7397909436,4.265092,0.4921268,1.38216211772,184.6,0,0,1024,1024,1024,1024,185.4,-89.9,99,4.015,4.012,3.961,3.979,4.032,4.019,6,GPS_Atti,
