latitude,longitude,altitude(feet),ascent(feet),speed(mph),distance(feet),time(millisecond),datetime(utc),satellites,voltage(v),max_altitude(feet),max_ascent(feet),max_speed(mph),max_distance(feet),compass_heading(degrees),isPhoto,isVideo,rc_elevator,rc_aileron,rc_throttle,rc_rudder,gimbal_heading(degrees),gimbal_pitch(degrees),battery_percent,voltageCell1,voltageCell2,voltageCell3,voltageCell4,voltageCell5,voltageCell6,flycStateRaw,flycState,message
49.6208633648681,16.1248577164919,2257.9289954821,0,0,0,0,2016-08-16 13:59:32,18,0,2257.9289954821,0,0,0,64,0,0,1024,1024,1024,1024,63.4,0,100,4.298,4.306,4.291,4.292,4.295,4.304,6,GPS_Atti,
49.620863372858,16.1248577136889,2257.9289954821,0,0,0.00298943251036,200,2016-08-16 13:59:32,18,0,2257.9289954821,0,0,0.00298943251036,63.9,0,0,1024,1024,1024,1024,63.4,0,100,4.298,4.306,4.291,4.292,4.295,4.304,6,GPS_Atti,
49.6208633683622,16.1248576333975,2257.9289954821,0,0,0.0196819560104,300,2016-08-16 13:59:32,18,0,2257.9289954821,0,0,0.0196819560104,63.9,0,0,1024,1024,1024,1024,63.4,0,100,4.298,4.306,4.291,4.292,4.295,4.304,6,GPS_Atti,
49.620863364929,16.1248576447468,2257.9289954821,0,0,0.0169580386004,400,2016-08-16 13:59:32,18,0,2257.9289954821,0,0,0.0196819560104,63.9,0,0,1024,1024,1024,1024,63.4,0,100,4.298,4.306,4.291,4.292,4.295,4.304,6,GPS_Atti,
49.6208634492364,16.1248575520958,2257.9289954821,0,0,0.049572508148,500,2016-08-16 13:59:32,18,0,2257.9289954821,0,0,0.049572508148,64,0,0,1024,1024,1024,1024,63.4,0,100,4.298,4.306,4.291,4.292,4.295,4.304,6,GPS_Atti,
49.6208634492364,16.1248575520958,2257.9289954821,0,0,0.049572508148,500,2016-08-16 13:59:32,18,0,2257.9289954821,0,0,0.049572508148,64,0,0,1024,1024,1024,1024,63.4,0,100,4.298,4.306,4.291,4.292,4.295,4.304,6,GPS_Atti,Home Point Recorded
49.6208634621131,16.1248575647068,2257.9289954821,0,0,0.050457350696,700,2016-08-16 13:59:32,18,0,2257.9289954821,0,0,0.050457350696,64,0,0,1024,1024,1024,1024,63.4,0,100,4.298,4.306,4.291,4.292,4.295,4.304,6,GPS_Atti,
49.6208634652229,16.1248575599058,2257.9289954821,0,0,0.05206200954,800,2016-08-16 13:59:32,18,0,2257.9289954821,0,0,0.05206200954,64.1,0,0,1024,1024,1024,1024,63.4,0,100,4.298,4.306,4.291,4.292,4.295,4.304,6,GPS_Atti,
49.6208635855407,16.1248574648777,2257.9289954821,0,0,0.100096131812,1000,2016-08-16 13:59:32,18,0,2257.9289954821,0,0,0.100096131812,64.2,0,0,1024,1024,1024,1024,63.4,0,100,4.298,4.306,4.291,4.292,4.295,4.304,6,GPS_Atti,
49.6208635855407,16.1248574648777,2257.9289954821,0,0,0.100096131812,1000,2016-08-16 13:59:33,18,25.786,2257.9289954821,0,0,0.100096131812,64.2,0,0,1024,1024,1024,1024,63.4,0,100,4.298,4.306,4.291,4.292,4.295,4.304,6,GPS_Atti,
49.6208636013804,16.124857338665,2257.9289954821,0,0,0.124183731008,1200,2016-08-16 13:59:33,18,25.786,2257.9289954821,0,0,0.124183731008,64.3,0,0,1024,1024,1024,1024,63.4,0,100,4.298,4.306,4.291,4.292,4.295,4.304,6,GPS_Atti,
49.6208637137,16.1248573412978,2257.9289954821,0,0,0.155121067956,1300,2016-08-16 13:59:33,18,25.786,2257.9289954821,0,0,0.155121067956,64.4,0,0,1024,1024,1024,1024,63.4,0,100,4.298,4.306,4.291,4.292,4.295,4.304,6,GPS_Atti,
49.6208637242114,16.1248573483166,2257.9289954821,0,0,0.157359257004,1400,2016-08-16 13:59:33,18,25.786,2257.9289954821,0,0,0.157359257004,64.4,0,0,1024,1024,1024,1024,63.4,0,100,4.298,4.306,4.291,4.292,4.295,4.304,6,GPS_Atti,
49.6208638211305,16.1248572311763,2257.9289954821,0,0,0.202163392296,1500,2016-08-16 13:59:33,18,25.786,2257.9289954821,0,0,0.202163392296,64.4,0,0,1024,1024,1024,1024,63.4,0,100,4.298,4.306,4.291,4.292,4.295,4.304,6,GPS_Atti,
49.620863831668,16.1248572405582,2257.9289954821,0,0,0.204110242752,1600,2016-08-16 13:59:33,18,25.786,2257.9289954821,0,0,0.204110242752,64.5,0,0,1024,1024,1024,1024,63.4,0,100,4.298,4.306,4.291,4.292,4.295,4.304,6,GPS_Atti,
49.620863943961,16.1248571415134,2257.9289954821,0,0,0.25121719964,1700,2016-08-16 13:59:33,18,25.786,2257.9289954821,0,0,0.25121719964,64.5,0,0,1024,1024,1024,1024,63.4,0,100,4.298,4.306,4.291,4.292,4.295,4.304,6,GPS_Atti,
49.6208639070501,16.1248571310573,2257.9289954821,0,0,0.241409784628,1900,2016-08-16 13:59:33,18,25.786,2257.9289954821,0,0,0.25121719964,64.6,0,0,1024,1024,1024,1024,63.4,0,100,4.298,4.306,4.291,4.292,4.295,4.304,6,GPS_Atti,
49.620863898052,16.1248571372242,2257.9289954821,0,0,0.237885178216,2000,2016-08-16 13:59:33,18,25.786,2257.9289954821,0,0,0.25121719964,64.6,0,0,1024,1024,1024,1024,63.5,0,100,4.298,4.306,4.291,4.292,4.295,4.304,11,AutoTakeoff,
49.6208639669948,16.1248570380021,2257.9289954821,0,0,0.271993775108,2100,2016-08-16 13:59:34,18,25.786,2257.9289954821,0,0,0.271993775108,64.6,0,0,1024,1024,1024,1024,63.5,0,100,4.298,4.306,4.291,4.292,4.295,4.304,11,AutoTakeoff,Return-to-Home Altitude:20M
49.6208639714243,16.1248570406835,2257.9289954821,0,0,0.272929470676,2200,2016-08-16 13:59:34,18,25.737,2257.9289954821,0,0,0.272929470676,64.6,0,0,1024,1024,1024,1024,63.5,0,100,4.289,4.297,4.283,4.284,4.287,4.296,11,AutoTakeoff,
49.6208639790684,16.1248570426282,2257.9289954821,0,0,0.274929142656,2300,2016-08-16 13:59:34,18,25.737,2257.9289954821,0,0,0.274929142656,64.6,0,0,1024,1024,1024,1024,63.5,0,100,4.289,4.297,4.283,4.284,4.287,4.296,11,AutoTakeoff,
49.6208639587055,16.1248570017023,2257.9289954821,0,0,0.274748368372,2400,2016-08-16 13:59:34,18,25.737,2257.9289954821,0,0,0.274929142656,64.7,0,0,1024,1024,1024,1024,63.5,0,100,4.289,4.297,4.283,4.284,4.287,4.296,11,AutoTakeoff,
49.6208640711054,16.1248568950397,2257.9289954821,0,0,0.32263452476,2500,2016-08-16 13:59:34,18,25.737,2257.9289954821,0,0,0.32263452476,64.6,0,0,1024,1024,1024,1024,63.5,0,100,4.289,4.297,4.283,4.284,4.287,4.296,11,AutoTakeoff,
49.6208642042406,16.1248568846714,2257.9289954821,0,0,0.363927177,2700,2016-08-16 13:59:34,18,25.737,2257.9289954821,0,0,0.363927177,64.5,0,0,1024,1024,1024,1024,63.5,0,100,4.289,4.297,4.283,4.284,4.287,4.296,11,AutoTakeoff,
49.6208642190393,16.1248568993021,2257.9289954821,0,0,0.36664699336,2800,2016-08-16 13:59:34,18,25.737,2257.9289954821,0,0,0.36664699336,64,0,0,1024,1024,1024,1024,63.6,0,100,4.289,4.297,4.283,4.284,4.287,4.296,11,AutoTakeoff,
49.620864325483,16.1248567882532,2257.9289954821,0,0,0.41349082688,2900,2016-08-16 13:59:34,18,25.737,2257.9289954821,0,0,0.41349082688,63.1,0,0,1024,1024,1024,1024,63.5,0,100,4.289,4.297,4.283,4.284,4.287,4.296,11,AutoTakeoff,
49.6208643031204,16.1248567606398,2257.9289954821,0,0,0.41015749344,3000,2016-08-16 13:59:35,18,25.737,2257.9289954821,0,0,0.41349082688,62.8,0,0,1024,1024,1024,1024,63.6,0,100,4.289,4.297,4.283,4.284,4.287,4.296,11,AutoTakeoff,
49.6208643935941,16.1248567724219,2258.2570794821,0.328084,0,0.43665355728,3100,2016-08-16 13:59:35,18,25.737,2258.2570794821,0.328084,0,0.43665355728,63,0,0,1024,1024,1024,1024,63.5,0,100,4.289,4.297,4.283,4.284,4.287,4.296,11,AutoTakeoff,
49.6208644029304,16.1248567360538,2258.2570794821,0.328084,0,0.44400920056,3200,2016-08-16 13:59:35,18,25.737,2258.2570794821,0.328084,0,0.44400920056,63.3,0,0,1024,1024,1024,1024,63.5,0,100,4.289,4.297,4.283,4.284,4.287,4.296,11,AutoTakeoff,
49.6208644735893,16.1248566318935,2258.2570794821,0.328084,0,0.47891077648,3300,2016-08-16 13:59:35,18,25.553,2258.2570794821,0.328084,0,0.47891077648,63.4,0,0,1024,1024,1024,1024,63.5,0,100,4.28,4.231,4.267,4.226,4.258,4.257,11,AutoTakeoff,
49.6208644873548,16.1248567502123,2258.5851634821,0.656168,0,0.46892061868,3400,2016-08-16 13:59:35,18,25.553,2258.5851634821,0.656168,0,0.47891077648,63.5,0,0,1024,1024,1024,1024,63.5,0,100,4.28,4.231,4.267,4.226,4.258,4.257,11,AutoTakeoff,
49.6208644724172,16.1248568613529,2258.5851634821,0.656168,0.223694,0.4518208806,3500,2016-08-16 13:59:35,18,25.553,2258.5851634821,0.656168,0.223694,0.47891077648,63.5,0,0,1024,1024,1024,1024,63.5,0,100,4.28,4.231,4.267,4.226,4.258,4.257,11,AutoTakeoff,
49.6208644501948,16.1248570225077,2258.5851634821,0.656168,0.223694,0.42861221844,3600,2016-08-16 13:59:35,18,25.553,2258.5851634821,0.656168,0.223694,0.47891077648,63.5,0,0,1024,1024,1024,1024,63.5,0,100,4.28,4.231,4.267,4.226,4.258,4.257,11,AutoTakeoff,
49.6208644334908,16.1248572160986,2258.5851634821,0.656168,0.223694,0.4074311154,3700,2016-08-16 13:59:35,18,25.553,2258.5851634821,0.656168,0.223694,0.47891077648,63.5,0,0,1024,1024,1024,1024,63.5,0,100,4.28,4.231,4.267,4.226,4.258,4.257,11,AutoTakeoff,
49.6208643997569,16.124857285358,2258.9132474821,0.984252,0.223694,0.39108925136,3800,2016-08-16 13:59:35,18,25.553,2258.9132474821,0.984252,0.223694,0.47891077648,63.5,0,0,1024,1024,1024,1024,63.5,0,100,4.28,4.231,4.267,4.226,4.258,4.257,11,AutoTakeoff,
49.6208644120656,16.1248576168631,2259.2413314821,1.312336,0,0.38279528784,4000,2016-08-16 13:59:35,18,25.553,2259.2413314821,1.312336,0.223694,0.47891077648,63.5,0,0,1024,1024,1024,1024,63.5,0,100,4.28,4.231,4.267,4.226,4.258,4.257,11,AutoTakeoff,
49.6208644001317,16.1248574048933,2259.2413314821,1.312336,0,0.38482940864,4200,2016-08-16 13:59:36,18,25.553,2259.2413314821,1.312336,0.223694,0.47891077648,63.5,0,0,1024,1024,1024,1024,63.5,0,100,4.28,4.231,4.267,4.226,4.258,4.257,11,AutoTakeoff,
49.6208643579424,16.1248574769165,2259.2413314821,1.312336,0,0.36672245268,4300,2016-08-16 13:59:36,18,25.553,2259.2413314821,1.312336,0.223694,0.47891077648,63.5,0,0,1024,1024,1024,1024,63.5,0,100,4.28,4.231,4.267,4.226,4.258,4.257,11,AutoTakeoff,
49.620864319838,16.124857471712,2259.5694154821,1.64042,0,0.35319226852,4400,2016-08-16 13:59:36,18,25.553,2259.5694154821,1.64042,0.223694,0.47891077648,63.6,0,0,1024,1024,1024,1024,63.5,0,100,4.28,4.231,4.267,4.226,4.258,4.257,11,AutoTakeoff,
49.6208641897584,16.1248574411498,2259.5694154821,1.64042,0,0.307917004604,4500,2016-08-16 13:59:36,18,24.607,2259.5694154821,1.64042,0.223694,0.47891077648,63.6,0,0,1024,1024,1024,1024,63.5,0,100,4.28,4.231,4.267,4.226,4.258,4.257,11,AutoTakeoff,
49.6208641784427,16.124857377074,2259.5694154821,1.64042,0,0.307482621388,4600,2016-08-16 13:59:36,18,24.607,2259.5694154821,1.64042,0.223694,0.47891077648,63.6,0,0,1024,1024,1024,1024,63.5,0,100,4.28,4.231,4.267,4.226,4.258,4.257,11,AutoTakeoff,
49.6208641735313,16.1248572600644,2259.8974994821,1.968504,0,0.314146007428,4700,2016-08-16 13:59:36,18,24.607,2259.8974994821,1.968504,0.223694,0.47891077648,63.6,0,0,1024,1024,1024,1024,63.5,0,100,4.28,4.231,4.267,4.226,4.258,4.257,11,AutoTakeoff,
49.6208641747571,16.1248572702302,2259.8974994821,1.968504,0,0.31375001004,4800,2016-08-16 13:59:36,18,24.607,2259.8974994821,1.968504,0.223694,0.47891077648,63.5,0,0,1024,1024,1024,1024,63.5,0,100,4.28,4.231,4.267,4.226,4.258,4.257,11,AutoTakeoff,
49.6208641769002,16.1248570027085,2260.2255834821,2.296588,0,0.34093833112,5000,2016-08-16 13:59:36,18,24.607,2260.2255834821,2.296588,0.223694,0.47891077648,63.3,0,0,1024,1024,1024,1024,63.5,0,100,4.28,4.231,4.267,4.226,4.258,4.257,11,AutoTakeoff,
49.620863964379,16.1248569316392,2260.5536674821,2.624672,0,0.286806439624,5100,2016-08-16 13:59:37,18,24.607,2260.5536674821,2.624672,0.223694,0.47891077648,63.2,0,0,1024,1024,1024,1024,63.5,0,100,4.28,4.231,4.267,4.226,4.258,4.257,11,AutoTakeoff,
49.6208640030142,16.1248568712548,2260.5536674821,2.624672,0,0.306793644988,5200,2016-08-16 13:59:37,18,24.607,2260.5536674821,2.624672,0.223694,0.47891077648,63.3,0,0,1024,1024,1024,1024,63.5,0,100,4.28,4.231,4.267,4.226,4.258,4.257,11,AutoTakeoff,
49.6208637991689,16.1248567985459,2260.8817514821,2.952756,0,0.268670612272,5300,2016-08-16 13:59:37,18,24.607,2260.8817514821,2.952756,0.223694,0.47891077648,63.4,0,0,1024,1024,1024,1024,63.5,0,100,4.28,4.231,4.267,4.226,4.258,4.257,11,AutoTakeoff,
49.6208637906415,16.1248568015314,2260.8817514821,2.952756,0,0.266273958652,5400,2016-08-16 13:59:37,18,24.607,2260.8817514821,2.952756,0.223694,0.47891077648,63.6,0,0,1024,1024,1024,1024,63.6,0,100,4.28,4.231,4.267,4.226,4.258,4.257,6,GPS_Atti,
49.6208635291784,16.1248566374728,2260.8817514821,2.952756,0,0.26199311862,5500,2016-08-16 13:59:37,18,24.607,2260.8817514821,2.952756,0.223694,0.47891077648,63.8,0,0,1024,1024,1024,1024,63.5,0,100,4.28,4.231,4.267,4.226,4.258,4.257,6,GPS_Atti,Landing Gear Raising
49.6208633695396,16.1248562615462,2261.2098354821,3.28084,0,0.34390092964,5700,2016-08-16 13:59:37,18,24.607,2261.2098354821,3.28084,0.223694,0.47891077648,63.9,0,0,1024,1024,1024,1024,63.5,0,100,4.058,4.093,4.04,4.078,4.068,4.09,6,GPS_Atti,
49.6208632598849,16.1248559834565,2261.2098354821,3.28084,0,0.411417336,5800,2016-08-16 13:59:37,18,24.607,2261.2098354821,3.28084,0.223694,0.47891077648,63.8,0,0,1024,1024,1024,1024,63.5,0,100,4.058,4.093,4.04,4.078,4.068,4.09,6,GPS_Atti,
49.6208631339691,16.1248561559615,2261.2098354821,3.28084,0.223694,0.37835303048,5900,2016-08-16 13:59:37,18,24.607,2261.2098354821,3.28084,0.223694,0.47891077648,63.8,0,0,1024,1024,1024,1024,63.6,0,100,4.058,4.093,4.04,4.078,4.068,4.09,6,GPS_Atti,
49.6208630369329,16.1248561361848,2261.2098354821,3.28084,0.223694,0.392224422,6000,2016-08-16 13:59:37,18,24.607,2261.2098354821,3.28084,0.223694,0.47891077648,63.8,0,0,1024,1024,1024,1024,63.5,0,100,4.058,4.093,4.04,4.078,4.068,4.09,6,GPS_Atti,
49.6208627036106,16.1248562482167,2261.2098354821,3.28084,0,0.42266733636,6200,2016-08-16 13:59:38,17,24.607,2261.2098354821,3.28084,0.223694,0.47891077648,63.8,0,0,1024,1024,1024,1024,63.5,0,100,4.058,4.093,4.04,4.078,4.068,4.09,6,GPS_Atti,
49.6208625601708,16.1248562317406,2261.2098354821,3.28084,0,0.45755578892,6300,2016-08-16 13:59:38,17,24.607,2261.2098354821,3.28084,0.223694,0.47891077648,63.7,0,0,1024,1024,1024,1024,63.5,0,100,4.058,4.093,4.04,4.078,4.068,4.09,6,GPS_Atti,
49.6208624206904,16.1248562626824,2261.2098354821,3.28084,0,0.48656825704,6400,2016-08-16 13:59:38,17,24.607,2261.2098354821,3.28084,0.223694,0.48656825704,63.5,0,0,1024,1024,1024,1024,63.5,0,100,4.058,4.093,4.04,4.078,4.068,4.09,6,GPS_Atti,
49.62086243777,16.1248563049756,2261.2098354821,3.28084,0,0.47510500208,6500,2016-08-16 13:59:38,18,24.607,2261.2098354821,3.28084,0.223694,0.48656825704,63.4,0,0,1024,1024,1024,1024,63.5,0,100,4.058,4.093,4.04,4.078,4.068,4.09,6,GPS_Atti,
49.6208624841743,16.1248563077441,2261.2098354821,3.28084,0,0.46273295444,6600,2016-08-16 13:59:38,18,24.607,2261.2098354821,3.28084,0.223694,0.48656825704,63.3,0,0,1024,1024,1024,1024,63.5,0,100,4.058,4.093,4.04,4.078,4.068,4.09,6,GPS_Atti,
49.6208624823711,16.1248563154052,2261.2098354821,3.28084,0,0.46188977856,6700,2016-08-16 13:59:38,18,24.607,2261.2098354821,3.28084,0.223694,0.48656825704,63.3,0,0,1024,1024,1024,1024,63.5,0,100,4.058,4.093,4.04,4.078,4.068,4.09,6,GPS_Atti,
49.6208625467791,16.1248563177324,2261.2098354821,3.28084,0,0.44541996176,6800,2016-08-16 13:59:38,18,24.211,2261.2098354821,3.28084,0.223694,0.48656825704,63.4,0,0,1024,1024,1024,1024,63.5,0,99,4.004,4.047,3.989,4.031,4.035,4.037,6,GPS_Atti,
49.6208626042927,16.1248564364123,2261.2098354821,3.28084,0,0.4105479134,6900,2016-08-16 13:59:38,18,24.211,2261.2098354821,3.28084,0.223694,0.48656825704,63.4,0,0,1024,1024,1024,1024,63.5,0,99,4.004,4.047,3.989,4.031,4.035,4.037,6,GPS_Atti,
49.620862601268,16.1248564481162,2261.2098354821,3.28084,0,0.40926510496,7000,2016-08-16 13:59:39,18,24.211,2261.2098354821,3.28084,0.223694,0.48656825704,63.4,0,0,1024,1024,1024,1024,63.5,0,99,4.004,4.047,3.989,4.031,4.035,4.037,6,GPS_Atti,
49.620862642405,16.1248564769297,2261.2098354821,3.28084,0,0.394110905,7100,2016-08-16 13:59:39,18,24.211,2261.2098354821,3.28084,0.223694,0.48656825704,63.5,0,0,1024,1024,1024,1024,63.5,0,99,4.004,4.047,3.989,4.031,4.035,4.037,6,GPS_Atti,
49.6208626818567,16.1248565032703,2261.2098354821,3.28084,0,0.37991142948,7200,2016-08-16 13:59:39,18,24.211,2261.2098354821,3.28084,0.223694,0.48656825704,63.6,0,0,1024,1024,1024,1024,63.5,0,99,4.004,4.047,3.989,4.031,4.035,4.037,6,GPS_Atti,
49.6208628195629,16.1248568112303,2261.2098354821,3.28084,0,0.292176190452,7300,2016-08-16 13:59:39,18,24.211,2261.2098354821,3.28084,0.223694,0.48656825704,63.7,0,0,1024,1024,1024,1024,63.5,0,99,4.004,4.047,3.989,4.031,4.035,4.037,6,GPS_Atti,
49.6208628423443,16.1248568374761,2261.2098354821,3.28084,0,0.281979339732,7400,2016-08-16 13:59:39,18,24.211,2261.2098354821,3.28084,0.223694,0.48656825704,63.7,0,0,1024,1024,1024,1024,63.5,0,99,4.004,4.047,3.989,4.031,4.035,4.037,6,GPS_Atti,
49.6208631594181,16.1248570818992,2261.2098354821,3.28084,0,0.167682420064,7600,2016-08-16 13:59:39,18,24.211,2261.2098354821,3.28084,0.223694,0.48656825704,63.5,0,0,1024,1024,1024,1024,63.5,0,99,4.004,4.047,3.989,4.031,4.035,4.037,6,GPS_Atti,
49.6208631882076,16.1248572249683,2261.2098354821,3.28084,0,0.132860568556,7700,2016-08-16 13:59:39,18,24.211,2261.2098354821,3.28084,0.223694,0.48656825704,63.5,0,0,1024,1024,1024,1024,63.5,0,99,4.004,4.047,3.989,4.031,4.035,4.037,6,GPS_Atti,
49.6208632498335,16.1248572702534,2261.2098354821,3.28084,0,0.11351870442,7800,2016-08-16 13:59:39,18,24.211,2261.2098354821,3.28084,0.223694,0.48656825704,63.6,0,0,1024,1024,1024,1024,63.5,0,99,4.004,4.047,3.989,4.031,4.035,4.037,6,GPS_Atti,
49.6208633252482,16.124857229547,2261.2098354821,3.28084,0,0.116000987964,7900,2016-08-16 13:59:39,18,24.07,2261.2098354821,3.28084,0.223694,0.48656825704,63.5,0,0,1024,1024,1024,1024,63.6,0,99,3.994,4.037,3.991,4.022,4.048,4.028,6,GPS_Atti,
49.6208632892836,16.1248571465681,2261.2098354821,3.28084,0,0.137503613324,8000,2016-08-16 13:59:40,18,24.07,2261.2098354821,3.28084,0.223694,0.48656825704,63.5,0,0,1024,1024,1024,1024,63.5,0,99,3.994,4.037,3.991,4.022,4.048,4.028,6,GPS_Atti,
49.6208633824104,16.1248571778887,2261.2098354821,3.28084,0,0.127467851848,8100,2016-08-16 13:59:40,18,24.07,2261.2098354821,3.28084,0.223694,0.48656825704,63.6,0,0,1024,1024,1024,1024,63.6,0,99,3.994,4.037,3.991,4.022,4.048,4.028,6,GPS_Atti,
49.6208633692064,16.1248571209065,2261.2098354821,3.28084,0,0.140784453324,8200,2016-08-16 13:59:40,18,24.07,2261.2098354821,3.28084,0.223694,0.48656825704,63.7,0,0,1024,1024,1024,1024,63.6,0,99,3.994,4.037,3.991,4.022,4.048,4.028,6,GPS_Atti,
49.6208635420891,16.124857026545,2261.2098354821,3.28084,0,0.17542979564,8400,2016-08-16 13:59:40,18,24.07,2261.2098354821,3.28084,0.223694,0.48656825704,63.6,0,0,1024,1024,1024,1024,63.5,0,99,3.994,4.037,3.991,4.022,4.048,4.028,6,GPS_Atti,
49.6208636113565,16.124856918068,2261.2098354821,3.28084,0,0.20905184396,8500,2016-08-16 13:59:40,17,24.07,2261.2098354821,3.28084,0.223694,0.48656825704,63.6,0,0,1024,1024,1024,1024,63.5,0,99,3.994,4.037,3.991,4.022,4.048,4.028,6,GPS_Atti,
49.6208636071988,16.124856971169,2261.2098354821,3.28084,0,0.197109914444,8600,2016-08-16 13:59:40,17,24.07,2261.2098354821,3.28084,0.223694,0.48656825704,63.6,0,0,1024,1024,1024,1024,63.5,0,99,3.994,4.037,3.991,4.022,4.048,4.028,6,GPS_Atti,
49.6208636929846,16.1248568884683,2261.2098354821,3.28084,0,0.229425204192,8700,2016-08-16 13:59:40,17,24.07,2261.2098354821,3.28084,0.223694,0.48656825704,63.7,0,0,1024,1024,1024,1024,63.5,0,99,3.994,4.037,3.991,4.022,4.048,4.028,6,GPS_Atti,
49.6208636822493,16.1248569063988,2261.2098354821,3.28084,0,0.223768707948,8800,2016-08-16 13:59:40,17,24.07,2261.2098354821,3.28084,0.223694,0.48656825704,63.7,0,0,1024,1024,1024,1024,63.5,0,99,3.994,4.037,3.991,4.022,4.048,4.028,6,GPS_Atti,
49.6208638011822,16.1248568314645,2261.2098354821,3.28084,0,0.262871399488,9000,2016-08-16 13:59:40,17,24.07,2261.2098354821,3.28084,0.223694,0.48656825704,63.6,0,0,1024,1024,1024,1024,63.5,0,99,3.994,4.037,3.991,4.022,4.048,4.028,6,GPS_Atti,
49.6208638873518,16.1248567528827,2261.2098354821,3.28084,0,0.297010508192,9100,2016-08-16 13:59:41,17,24.099,2261.2098354821,3.28084,0.223694,0.48656825704,63.6,0,0,1024,1024,1024,1024,63.5,0,99,3.988,4.029,3.989,4.014,4.034,4.021,6,GPS_Atti,
49.62086390442,16.1248567537515,2261.2098354821,3.28084,0,0.300889773408,9200,2016-08-16 13:59:41,17,24.099,2261.2098354821,3.28084,0.223694,0.48656825704,63.7,0,0,1024,1024,1024,1024,63.5,0,99,3.988,4.029,3.989,4.014,4.034,4.021,6,GPS_Atti,
49.6208638824341,16.1248567802661,2261.2098354821,3.28084,0,0.290908473876,9300,2016-08-16 13:59:41,18,24.099,2261.2098354821,3.28084,0.223694,0.48656825704,63.7,0,0,1024,1024,1024,1024,63.5,0,99,3.988,4.029,3.989,4.014,4.034,4.021,6,GPS_Atti,
49.6208638661804,16.124856803853,2261.2098354821,3.28084,0,0.28281989094,9400,2016-08-16 13:59:41,18,24.099,2261.2098354821,3.28084,0.223694,0.48656825704,63.7,0,0,1024,1024,1024,1024,63.5,0,99,3.988,4.029,3.989,4.014,4.034,4.021,6,GPS_Atti,
49.6208639761661,16.1248567023766,2261.2098354821,3.28084,0,0.327414052472,9500,2016-08-16 13:59:41,18,24.099,2261.2098354821,3.28084,0.223694,0.48656825704,63.7,0,0,1024,1024,1024,1024,63.6,0,99,3.988,4.029,3.989,4.014,4.034,4.021,6,GPS_Atti,
49.6208639618632,16.1248567279269,2261.2098354821,3.28084,0,0.319438002348,9600,2016-08-16 13:59:41,18,24.099,2261.2098354821,3.28084,0.223694,0.48656825704,63.7,0,0,1024,1024,1024,1024,63.6,0,99,3.988,4.029,3.989,4.014,4.034,4.021,6,GPS_Atti,
49.6208639363498,16.1248566454144,2261.2098354821,3.28084,0,0.327973763776,9700,2016-08-16 13:59:41,18,24.099,2261.2098354821,3.28084,0.223694,0.48656825704,63.8,0,0,1024,1024,1024,1024,63.6,0,99,3.988,4.029,3.989,4.014,4.034,4.021,6,GPS_Atti,
49.6208638933038,16.1248566445789,2261.2098354821,3.28084,0,0.31837763486,9900,2016-08-16 13:59:41,17,24.099,2261.2098354821,3.28084,0.223694,0.48656825704,63.9,0,0,1024,1024,1024,1024,63.6,0,99,3.988,4.029,3.989,4.014,4.034,4.021,6,GPS_Atti,
49.6208638769198,16.124856657833,2261.2098354821,3.28084,0,0.312277569048,10000,2016-08-16 13:59:41,17,24.099,2261.2098354821,3.28084,0.223694,0.48656825704,64.1,0,0,1024,1024,1024,1024,63.5,0,99,3.988,4.029,3.989,4.014,4.034,4.021,6,GPS_Atti,
49.620863859225,16.1248566066726,2261.2098354821,3.28084,0,0.318347123048,10100,2016-08-16 13:59:42,17,24.099,2261.2098354821,3.28084,0.223694,0.48656825704,64.1,0,0,1024,1024,1024,1024,63.5,0,99,3.988,4.029,3.989,4.014,4.034,4.021,6,GPS_Atti,
49.6208638607265,16.1248566152667,2261.2098354821,3.28084,0,0.316987542952,10200,2016-08-16 13:59:42,17,23.968,2261.2098354821,3.28084,0.223694,0.48656825704,64,0,0,1024,1024,1024,1024,63.5,0,99,3.97,4.015,3.967,4.002,3.998,4.001,6,GPS_Atti,
49.6208637484083,16.1248566262382,2261.2098354821,3.28084,0,0.293240166864,10300,2016-08-16 13:59:42,17,23.968,2261.2098354821,3.28084,0.223694,0.48656825704,64,0,0,1024,1024,1024,1024,63.5,0,99,3.97,4.015,3.967,4.002,3.998,4.001,6,GPS_Atti,
49.6208637631922,16.1248566263589,2261.2098354821,3.28084,0,0.295827109204,10400,2016-08-16 13:59:42,17,23.968,2261.2098354821,3.28084,0.223694,0.48656825704,63.9,0,0,1024,1024,1024,1024,63.6,0,99,3.97,4.015,3.967,4.002,3.998,4.001,6,GPS_Atti,
49.6208637635279,16.124856784659,2261.2098354821,3.28084,0,0.26394521842,10600,2016-08-16 13:59:42,17,23.968,2261.2098354821,3.28084,0.223694,0.48656825704,63.8,0,0,1024,1024,1024,1024,63.5,0,99,3.97,4.015,3.967,4.002,3.998,4.001,6,GPS_Atti,
49.6208637744746,16.1248568126238,2260.8817514821,2.952756,0,0.260723761624,10700,2016-08-16 13:59:42,18,23.968,2261.2098354821,3.28084,0.223694,0.48656825704,63.7,0,0,1024,1024,1024,1024,63.5,0,99,3.97,4.015,3.967,4.002,3.998,4.001,6,GPS_Atti,
49.6208637709192,16.124856819802,2260.8817514821,2.952756,0,0.258589903288,10800,2016-08-16 13:59:42,18,23.968,2261.2098354821,3.28084,0.223694,0.48656825704,63.4,0,0,1024,1024,1024,1024,63.5,0,99,3.97,4.015,3.967,4.002,3.998,4.001,6,GPS_Atti,
49.6208637655573,16.1248569333868,2260.8817514821,2.952756,0,0.235867133532,10900,2016-08-16 13:59:42,18,23.968,2261.2098354821,3.28084,0.223694,0.48656825704,63.4,0,0,1024,1024,1024,1024,63.5,0,99,3.97,4.015,3.967,4.002,3.998,4.001,6,GPS_Atti,
49.6208637602838,16.1248569323915,2260.8817514821,2.952756,0,0.234865164996,11000,2016-08-16 13:59:43,18,23.968,2261.2098354821,3.28084,0.223694,0.48656825704,63.4,0,0,1024,1024,1024,1024,63.5,0,99,3.97,4.015,3.967,4.002,3.998,4.001,6,GPS_Atti,
49.6208636362372,16.1248570178151,2260.8817514821,2.952756,0,0.192548234508,11100,2016-08-16 13:59:43,18,23.968,2261.2098354821,3.28084,0.223694,0.48656825704,63.3,0,0,1024,1024,1024,1024,63.5,0,99,3.97,4.015,3.967,4.002,3.998,4.001,6,GPS_Atti,
49.6208635238275,16.1248570181779,2260.8817514821,2.952756,0,0.174949480664,11300,2016-08-16 13:59:43,18,23.968,2261.2098354821,3.28084,0.223694,0.48656825704,63.3,0,0,1024,1024,1024,1024,63.5,0,99,3.97,4.015,3.967,4.002,3.998,4.001,6,GPS_Atti,
49.620863478471,16.1248569900766,2260.8817514821,2.952756,0,0.176630911164,11400,2016-08-16 13:59:43,18,23.94,2261.2098354821,3.28084,0.223694,0.48656825704,63.4,0,0,1024,1024,1024,1024,63.5,0,99,3.965,4.011,3.967,3.994,4.003,3.994,6,GPS_Atti,
49.6208635120965,16.1248570646313,2260.8817514821,2.952756,0,0.163172249316,11500,2016-08-16 13:59:43,18,23.94,2261.2098354821,3.28084,0.223694,0.48656825704,63.5,0,0,1024,1024,1024,1024,63.5,0,99,3.965,4.011,3.967,3.994,4.003,3.994,6,GPS_Atti,
49.6208635488603,16.1248570460191,2260.8817514821,2.952756,0,0.17210794514,11600,2016-08-16 13:59:43,18,23.94,2261.2098354821,3.28084,0.223694,0.48656825704,63.5,0,0,1024,1024,1024,1024,63.5,0,99,3.965,4.011,3.967,3.994,4.003,3.994,6,GPS_Atti,Landing Gear Raised
49.6208634766415,16.1248570283033,2260.8817514821,2.952756,0,0.167697840012,11700,2016-08-16 13:59:43,18,23.94,2261.2098354821,3.28084,0.223694,0.48656825704,63.6,0,0,1024,1024,1024,1101,63.5,0,99,3.965,4.011,3.967,3.994,4.003,3.994,6,GPS_Atti,
49.6208634766415,16.1248570283033,2260.8817514821,2.952756,0,0.167697840012,11700,2016-08-16 13:59:43,18,23.94,2261.2098354821,3.28084,0.223694,0.48656825704,63.6,0,0,1024,1024,1024,1219,63.6,0,99,3.965,4.011,3.967,3.994,4.003,3.994,6,GPS_Atti,
49.6208635021358,16.1248570340424,2260.8817514821,2.952756,0,0.168902892544,11800,2016-08-16 13:59:43,18,23.94,2261.2098354821,3.28084,0.223694,0.48656825704,63.9,0,0,1024,1024,1024,1257,64.3,0,99,3.965,4.011,3.967,3.994,4.003,3.994,6,GPS_Atti,
49.6208636258835,16.1248569234845,2260.8817514821,2.952756,0,0.210243773132,12000,2016-08-16 13:59:43,18,23.94,2261.2098354821,3.28084,0.223694,0.48656825704,67.9,0,0,1024,1024,1024,1281,65.6,0,99,3.965,4.011,3.967,3.994,4.003,3.994,6,GPS_Atti,
49.620863609588,16.1248569546966,2260.8817514821,2.952756,0,0.200982946064,12100,2016-08-16 13:59:44,18,23.94,2261.2098354821,3.28084,0.223694,0.48656825704,71.2,0,0,1024,1024,1024,1294,69,0,99,3.965,4.011,3.967,3.994,4.003,3.994,6,GPS_Atti,
49.6208635904679,16.1248569776663,2260.8817514821,2.952756,0,0.193058077044,12200,2016-08-16 13:59:44,18,23.94,2261.2098354821,3.28084,0.223694,0.48656825704,75.1,0,0,1024,1024,1024,1307,71.3,0,99,3.965,4.011,3.967,3.994,4.003,3.994,6,GPS_Atti,
49.6208635683672,16.1248569923717,2260.8817514821,2.952756,0,0.18656660702,12300,2016-08-16 13:59:44,18,23.94,2261.2098354821,3.28084,0.223694,0.48656825704,79.5,0,0,1024,1024,1024,1313,74.1,0,99,3.965,4.011,3.967,3.994,4.003,3.994,6,GPS_Atti,
49.6208635440445,16.1248570125244,2260.8817514821,2.952756,0,0.178774283936,12400,2016-08-16 13:59:44,18,23.868,2261.2098354821,3.28084,0.223694,0.48656825704,84,0,0,1024,1024,1024,1312,74.1,0,99,3.965,3.994,3.951,3.983,3.978,3.994,6,GPS_Atti,
49.6208635440445,16.1248570125244,2260.8817514821,2.952756,0,0.178774283936,12400,2016-08-16 13:59:44,18,23.868,2261.2098354821,3.28084,0.223694,0.48656825704,84,0,0,1024,1024,1024,1309,77.6,0,99,3.965,3.994,3.951,3.983,3.978,3.994,6,GPS_Atti,
49.6208634498709,16.1248570110016,2260.8817514821,2.952756,0,0.169612538236,12600,2016-08-16 13:59:44,18,23.868,2261.2098354821,3.28084,0.223694,0.48656825704,93.3,0,0,1024,1024,1024,1309,81.5,0,99,3.965,3.994,3.951,3.983,3.978,3.994,6,GPS_Atti,
49.6208633994923,16.1248570315257,2261.2098354821,3.28084,0,0.162394034068,12700,2016-08-16 13:59:44,18,23.868,2261.2098354821,3.28084,0.223694,0.48656825704,97.9,0,0,1024,1024,1024,1308,90.2,0,99,3.965,3.994,3.951,3.983,3.978,3.994,6,GPS_Atti,
49.6208633525855,16.1248570455227,2261.2098354821,3.28084,0.223694,0.158656829224,12800,2016-08-16 13:59:44,18,23.868,2261.2098354821,3.28084,0.223694,0.48656825704,102.5,0,0,1024,1024,1024,1308,90.2,0,99,3.965,3.994,3.951,3.983,3.978,3.994,6,GPS_Atti,
49.6208632278176,16.1248570021032,2260.8817514821,2.952756,0.223694,0.176104336344,12900,2016-08-16 13:59:44,18,23.868,2261.2098354821,3.28084,0.223694,0.48656825704,107,0,0,1024,1024,1024,1300,99.1,0,99,3.965,3.994,3.951,3.983,3.978,3.994,6,GPS_Atti,
49.6208632078241,16.1248570208299,2260.8817514821,2.952756,0,0.17412730216,13000,2016-08-16 13:59:44,18,23.868,2261.2098354821,3.28084,0.223694,0.48656825704,111.4,0,0,1024,1024,1024,1300,103.5,0,99,3.965,3.994,3.951,3.983,3.978,3.994,6,GPS_Atti,
49.6208631133892,16.1248571519147,2260.8817514821,2.952756,0,0.16194554324,13100,2016-08-16 13:59:45,17,23.868,2261.2098354821,3.28084,0.223694,0.48656825704,115.9,0,0,1024,1024,1024,1300,108,0,99,3.965,3.994,3.951,3.983,3.978,3.994,6,GPS_Atti,
49.6208630966784,16.1248572095817,2260.8817514821,2.952756,0,0.154693902588,13300,2016-08-16 13:59:45,18,23.868,2261.2098354821,3.28084,0.223694,0.48656825704,124.8,0,0,1024,1024,1024,1299,112.4,0,99,3.965,3.994,3.951,3.983,3.978,3.994,6,GPS_Atti,
49.6208631021354,16.1248572391088,2260.8817514821,2.952756,0,0.148056763268,13400,2016-08-16 13:59:45,18,23.868,2261.2098354821,3.28084,0.223694,0.48656825704,129.2,0,0,1024,1024,1024,1299,116.9,0,99,3.965,3.994,3.951,3.983,3.978,3.994,6,GPS_Atti,
49.6208630991403,16.1248572965859,2260.8817514821,2.952756,0,0.13874508318,13500,2016-08-16 13:59:45,18,23.825,2261.2098354821,3.28084,0.223694,0.48656825704,133.6,0,0,1024,1024,1024,1299,125.7,0,99,3.946,3.986,3.956,3.966,3.983,4.001,6,GPS_Atti,
49.6208630908555,16.124857256617,2260.8817514821,2.952756,0,0.14768209134,13600,2016-08-16 13:59:45,18,23.825,2261.2098354821,3.28084,0.223694,0.48656825704,137.9,0,0,1024,1024,1024,1299,125.7,0,99,3.946,3.986,3.956,3.966,3.983,4.001,6,GPS_Atti,
49.6208631553386,16.1248572012963,2260.8817514821,2.952756,0,0.14378117258,13700,2016-08-16 13:59:45,18,23.825,2261.2098354821,3.28084,0.223694,0.48656825704,142.1,0,0,1024,1024,1024,1300,134.4,0,99,3.946,3.986,3.956,3.966,3.983,4.001,6,GPS_Atti,
49.6208630962284,16.1248571527228,2260.8817514821,2.952756,0,0.165419296632,13800,2016-08-16 13:59:45,18,23.825,2261.2098354821,3.28084,0.223694,0.48656825704,146.4,0,0,1024,1024,1024,1298,138.7,0,99,3.946,3.986,3.956,3.966,3.983,4.001,6,GPS_Atti,
49.6208632183661,16.1248570469592,2260.8817514821,2.952756,0,0.167037078836,13900,2016-08-16 13:59:45,18,23.825,2261.2098354821,3.28084,0.223694,0.48656825704,150.6,0,0,1024,1024,1024,1296,143,0,99,3.946,3.986,3.956,3.966,3.983,4.001,6,GPS_Atti,
49.6208631518025,16.1248570110085,2260.8817514821,2.952756,0,0.1839813051,14000,2016-08-16 13:59:46,18,23.825,2261.2098354821,3.28084,0.223694,0.48656825704,154.8,0,0,1024,1024,1024,1290,143,0,99,3.946,3.986,3.956,3.966,3.983,4.001,6,GPS_Atti,
49.6208630958782,16.1248569872859,2260.8817514821,2.952756,0,0.198340885612,14100,2016-08-16 13:59:46,18,23.825,2261.2098354821,3.28084,0.223694,0.48656825704,159,0,0,1024,1024,1024,1288,151.3,0,99,3.946,3.986,3.956,3.966,3.983,4.001,6,GPS_Atti,
49.620863142514,16.1248569780817,2260.8817514821,2.952756,0,0.19246719776,14200,2016-08-16 13:59:46,18,23.825,2261.2098354821,3.28084,0.223694,0.48656825704,163.1,0,0,1024,1024,1024,1288,155.4,0,99,3.946,3.986,3.956,3.966,3.983,4.001,6,GPS_Atti,
49.6208631929508,16.1248569842685,2260.8817514821,2.952756,0,0.184087604316,14300,2016-08-16 13:59:46,18,23.825,2261.2098354821,3.28084,0.223694,0.48656825704,167.1,0,0,1024,1024,1024,1291,159.5,0,99,3.946,3.986,3.956,3.966,3.983,4.001,6,GPS_Atti,
49.6208631459108,16.1248570005207,2260.8817514821,2.952756,0,0.187138457432,14400,2016-08-16 13:59:46,18,23.825,2261.2098354821,3.28084,0.223694,0.48656825704,171.2,0,0,1024,1024,1024,1290,163.6,0,99,3.946,3.986,3.956,3.966,3.983,4.001,6,GPS_Atti,
49.6208632323699,16.1248569207278,2260.8817514821,2.952756,0,0.194203746372,14500,2016-08-16 13:59:46,18,23.832,2261.2098354821,3.28084,0.223694,0.48656825704,175.3,0,0,1024,1024,1024,1290,167.7,0,99,3.953,3.988,3.947,3.972,3.985,3.979,6,GPS_Atti,
49.6208631751219,16.1248570344176,2260.8817514821,2.952756,0,0.175453745772,14700,2016-08-16 13:59:46,18,23.832,2261.2098354821,3.28084,0.223694,0.48656825704,183.6,0,0,1024,1024,1024,1290,171.7,0,99,3.953,3.988,3.947,3.972,3.985,3.979,6,GPS_Atti,
49.6208632878224,16.1248570550637,2260.8817514821,2.952756,0,0.158845477524,14800,2016-08-16 13:59:46,18,23.832,2261.2098354821,3.28084,0.223694,0.48656825704,187.7,0,0,1024,1024,1024,1290,175.8,0,99,3.953,3.988,3.947,3.972,3.985,3.979,6,GPS_Atti,
49.6208633736192,16.124857107146,2260.8817514821,2.952756,0,0.14406332482,14900,2016-08-16 13:59:46,18,23.832,2261.2098354821,3.28084,0.223694,0.48656825704,191.7,0,0,1024,1024,1024,1289,184.1,0,99,3.953,3.988,3.947,3.972,3.985,3.979,6,GPS_Atti,
49.6208633571629,16.1248570448985,2260.8817514821,2.952756,0,0.158766081196,15000,2016-08-16 13:59:46,18,23.832,2261.2098354821,3.28084,0.223694,0.48656825704,195.8,0,0,1024,1024,1024,1287,188.2,0,99,3.953,3.988,3.947,3.972,3.985,3.979,6,GPS_Atti,
49.6208636804222,16.1248570296956,2260.8817514821,2.952756,0,0.199016082484,15100,2016-08-16 13:59:47,18,23.832,2261.2098354821,3.28084,0.223694,0.48656825704,199.8,0,0,1024,1024,1024,1283,192.2,0,99,3.953,3.988,3.947,3.972,3.985,3.979,6,GPS_Atti,
49.6208636300955,16.1248569515143,2260.8817514821,2.952756,0,0.205079730972,15200,2016-08-16 13:59:47,18,23.832,2261.2098354821,3.28084,0.223694,0.48656825704,203.8,0,0,1024,1024,1024,1284,196.2,0,99,3.953,3.988,3.947,3.972,3.985,3.979,6,GPS_Atti,
49.62086397483,16.1248570471197,2260.8817514821,2.952756,0,0.273053486428,15400,2016-08-16 13:59:47,18,23.832,2261.2098354821,3.28084,0.223694,0.48656825704,211.8,0,0,1024,1024,1024,1284,200.2,0,99,3.953,3.988,3.947,3.972,3.985,3.979,6,GPS_Atti,
49.6208641052277,16.124857017019,2260.8817514821,2.952756,0,0.316700141368,15500,2016-08-16 13:59:47,18,23.832,2261.2098354821,3.28084,0.223694,0.48656825704,215.8,0,0,1024,1024,1024,1284,208.1,0,99,3.953,3.988,3.947,3.972,3.985,3.979,6,GPS_Atti,
49.6208640341166,16.1248569836627,2260.8817514821,2.952756,0,0.299374025328,15600,2016-08-16 13:59:47,18,23.832,2261.2098354821,3.28084,0.223694,0.48656825704,219.8,0,0,1024,1024,1024,1284,212.1,0,99,3.953,3.988,3.947,3.972,3.985,3.979,6,GPS_Atti,
49.6208642062003,16.1248571865847,2260.8817514821,2.952756,0,0.331528882,15700,2016-08-16 13:59:47,18,23.821,2261.2098354821,3.28084,0.223694,0.48656825704,223.7,0,0,1024,1024,1024,1279,216.1,0,99,3.953,3.988,3.947,3.972,3.985,3.979,6,GPS_Atti,
49.6208641294362,16.1248571364243,2260.8817514821,2.952756,0.223694,0.310826125432,15800,2016-08-16 13:59:47,18,23.821,2261.2098354821,3.28084,0.223694,0.48656825704,227.7,0,0,1024,1024,1024,1024,220,0,99,3.953,3.988,3.947,3.972,3.985,3.979,6,GPS_Atti,
49.6208640540431,16.1248570778081,2260.8817514821,2.952756,0.223694,0.293281833532,15900,2016-08-16 13:59:47,18,23.821,2261.2098354821,3.28084,0.223694,0.48656825704,231.3,0,0,1024,1024,1024,1024,222.9,0,99,3.953,3.988,3.947,3.972,3.985,3.979,6,GPS_Atti,
49.6208640394103,16.1248570545333,2260.8817514821,2.952756,0.223694,0.291631899096,16100,2016-08-16 13:59:48,18,23.821,2261.2098354821,3.28084,0.223694,0.48656825704,233.2,0,0,1024,1024,1024,1024,226.5,0,99,3.953,3.988,3.947,3.972,3.985,3.979,6,GPS_Atti,
49.620863988177,16.1248569696715,2260.8817514821,2.952756,0.3131716,0.28788386748,16200,2016-08-16 13:59:48,18,23.821,2261.2098354821,3.28084,0.3131716,0.48656825704,233.5,0,0,1024,1024,1024,1024,226.5,0,99,3.953,3.988,3.947,3.972,3.985,3.979,6,GPS_Atti,
49.6208639609287,16.1248571021122,2260.8817514821,2.952756,0.223694,0.261500336452,16300,2016-08-16 13:59:48,18,23.821,2261.2098354821,3.28084,0.3131716,0.48656825704,233.5,0,0,1024,1024,1024,1183,228.2,0,99,3.953,3.988,3.947,3.972,3.985,3.979,6,GPS_Atti,
49.6208639120911,16.1248569872333,2260.8817514821,2.952756,0.3131716,0.26376805306,16400,2016-08-16 13:59:48,18,23.821,2261.2098354821,3.28084,0.3131716,0.48656825704,233.6,0,0,1024,1024,1024,1198,229.5,0,99,3.953,3.988,3.947,3.972,3.985,3.979,6,GPS_Atti,
49.6208638043928,16.1248569062619,2260.8817514821,2.952756,0.3131716,0.249782816392,16500,2016-08-16 13:59:48,18,23.821,2261.2098354821,3.28084,0.3131716,0.48656825704,234.9,0,0,1024,1024,1024,1158,231.1,0,99,3.953,3.988,3.947,3.972,3.985,3.979,6,GPS_Atti,
49.6208637208853,16.1248568761301,2260.8817514821,2.952756,0.3131716,0.23733268476,16700,2016-08-16 13:59:48,18,23.821,2261.2098354821,3.28084,0.3131716,0.48656825704,238,0,0,1024,1024,1024,1024,232.3,0,99,3.953,3.988,3.947,3.972,3.985,3.979,6,GPS_Atti,
49.6208636207494,16.1248566958832,2260.8817514821,2.952756,0.3131716,0.258670940036,16800,2016-08-16 13:59:48,18,23.821,2261.2098354821,3.28084,0.3131716,0.48656825704,238.4,0,0,1024,1024,1024,1024,232.9,0,99,3.953,3.988,3.947,3.972,3.985,3.979,6,GPS_Atti,
49.6208635690401,16.1248566910548,2260.8817514821,2.952756,0.223694,0.25356628108,16900,2016-08-16 13:59:48,18,23.821,2261.2098354821,3.28084,0.3131716,0.48656825704,238.6,0,0,1024,1024,1024,1024,233.8,0,98,3.947,3.989,3.948,3.972,3.979,3.982,6,GPS_Atti,
49.6208635463713,16.1248567885278,2260.8817514821,2.952756,0.3131716,0.229116805232,17000,2016-08-16 13:59:49,18,23.821,2261.2098354821,3.28084,0.3131716,0.48656825704,238.7,0,0,1024,1024,1024,1024,234.1,0,98,3.947,3.989,3.948,3.972,3.979,3.982,6,GPS_Atti,
49.6208635669851,16.1248568639435,2260.8817514821,2.952756,0,0.21458169978,17100,2016-08-16 13:59:49,18,23.821,2261.2098354821,3.28084,0.3131716,0.48656825704,238.5,0,0,1024,1024,1024,1024,234.4,0,98,3.947,3.989,3.948,3.972,3.979,3.982,6,GPS_Atti,
49.6208634865896,16.1248567356492,2260.8817514821,2.952756,0,0.236052172908,17200,2016-08-16 13:59:49,18,23.821,2261.2098354821,3.28084,0.3131716,0.48656825704,238.4,0,0,1024,1024,1024,1024,234.6,0,98,3.947,3.989,3.948,3.972,3.979,3.982,6,GPS_Atti,
49.6208635556467,16.1248568731714,2260.8817514821,2.952756,0,0.211134849276,17400,2016-08-16 13:59:49,18,23.821,2261.2098354821,3.28084,0.3131716,0.48656825704,238.3,0,0,1024,1024,1024,1110,234.7,0,98,3.947,3.989,3.948,3.972,3.979,3.982,6,GPS_Atti,
49.6208636302433,16.1248568596564,2260.8817514821,2.952756,0,0.22447999406,17500,2016-08-16 13:59:49,18,23.821,2261.2098354821,3.28084,0.3131716,0.48656825704,238.7,0,0,1024,1024,1024,1024,235.8,0,98,3.947,3.989,3.948,3.972,3.979,3.982,6,GPS_Atti,
49.6208637365987,16.1248570156122,2260.8817514821,2.952756,0,0.214099744384,17600,2016-08-16 13:59:49,18,23.821,2261.2098354821,3.28084,0.3131716,0.48656825704,239.4,0,0,1024,1024,1024,1024,236,0,98,3.947,3.989,3.948,3.972,3.979,3.982,6,GPS_Atti,
49.6208638777752,16.1248569649484,2260.8817514821,2.952756,0,0.258020349464,17700,2016-08-16 13:59:49,18,23.821,2261.2098354821,3.28084,0.3131716,0.48656825704,239.5,0,0,1024,1024,1024,1024,236.2,0,98,3.947,3.989,3.948,3.972,3.979,3.982,6,GPS_Atti,
49.620863891746,16.1248569217062,2260.8817514821,2.952756,0,0.268782488916,17800,2016-08-16 13:59:49,18,23.821,2261.2098354821,3.28084,0.3131716,0.48656825704,239.6,0,0,1024,1024,1024,1024,236.4,0,98,3.947,3.989,3.948,3.972,3.979,3.982,6,GPS_Atti,
49.6208640342771,16.1248570728963,2260.8817514821,2.952756,0,0.287735245428,17900,2016-08-16 13:59:49,18,23.821,2261.2098354821,3.28084,0.3131716,0.48656825704,239.6,0,0,1024,1024,1024,1024,236.5,0,98,3.947,3.989,3.948,3.972,3.979,3.982,6,GPS_Atti,
49.6208640214031,16.1248570460326,2260.8817514821,2.952756,0,0.287213263784,18000,2016-08-16 13:59:50,18,23.766,2261.2098354821,3.28084,0.3131716,0.48656825704,239.6,0,0,1024,1024,1024,1024,236.6,0,98,3.954,3.986,3.949,3.977,3.977,3.984,6,GPS_Atti,
49.620864119088,16.1248571153273,2260.8817514821,2.952756,0,0.30969817264,18100,2016-08-16 13:59:50,18,23.766,2261.2098354821,3.28084,0.3131716,0.48656825704,239.6,0,0,1024,1024,1024,1024,236.7,0,98,3.954,3.986,3.949,3.977,3.977,3.984,6,GPS_Atti,
49.6208643460124,16.1248573274556,2260.8817514821,2.952756,0,0.36959318768,18300,2016-08-16 13:59:50,18,23.766,2261.2098354821,3.28084,0.3131716,0.48656825704,239.5,0,0,1024,1024,1024,1024,236.7,0,98,3.954,3.986,3.949,3.977,3.977,3.984,6,GPS_Atti,
49.6208643313023,16.1248572834132,2260.8817514821,2.952756,0,0.36716208524,18400,2016-08-16 13:59:50,18,23.766,2261.2098354821,3.28084,0.3131716,0.48656825704,239.6,0,0,1024,1024,1024,1024,236.8,0,98,3.954,3.986,3.949,3.977,3.977,3.984,6,GPS_Atti,
49.6208643313023,16.1248572834132,2260.8817514821,2.952756,0,0.36716208524,18400,2016-08-16 13:59:50,18,23.766,2261.2098354821,3.28084,0.3131716,0.48656825704,239.6,0,0,1024,1024,1024,1024,236.8,0,98,3.954,3.986,3.949,3.977,3.977,3.984,6,GPS_Atti,
49.6208645607206,16.1248576474676,2260.8817514821,2.952756,0,0.43661090636,18500,2016-08-16 13:59:50,18,23.766,2261.2098354821,3.28084,0.3131716,0.48656825704,239.6,0,0,1024,1024,1024,1024,236.9,0,98,3.954,3.986,3.949,3.977,3.977,3.984,6,GPS_Atti,
49.6208645336262,16.1248575911021,2260.8817514821,2.952756,0,0.42745080108,18600,2016-08-16 13:59:50,18,23.766,2261.2098354821,3.28084,0.3131716,0.48656825704,239.7,0,0,1024,1024,1024,1024,237,0,98,3.954,3.986,3.949,3.977,3.977,3.984,6,GPS_Atti,
49.6208647073573,16.1248576217619,2260.8817514821,2.952756,0,0.49031825716,18700,2016-08-16 13:59:50,18,23.766,2261.2098354821,3.28084,0.3131716,0.49031825716,239.7,0,0,1024,1024,1024,1024,237.1,0,98,3.954,3.986,3.949,3.977,3.977,3.984,6,GPS_Atti,
49.6208647591646,16.1248577494454,2260.8817514821,2.952756,0,0.50876642048,18800,2016-08-16 13:59:50,18,23.766,2261.2098354821,3.28084,0.3131716,0.50876642048,239.6,0,0,1024,1024,1024,1024,237.1,0,98,3.954,3.986,3.949,3.977,3.977,3.984,6,GPS_Atti,
49.6208649263057,16.1248577239649,2260.8817514821,2.952756,0,0.56969161928,19000,2016-08-16 13:59:50,18,23.766,2261.2098354821,3.28084,0.3131716,0.56969161928,239.5,0,0,1024,1024,1024,1024,237.2,0,98,3.954,3.986,3.949,3.977,3.977,3.984,6,GPS_Atti,
49.620865129381,16.124857890903,2260.8817514821,2.952756,0,0.64509844584,19100,2016-08-16 13:59:51,18,23.838,2261.2098354821,3.28084,0.3131716,0.64509844584,239.4,0,0,1024,1024,1024,1024,237.3,0,98,3.95,3.971,3.956,3.968,3.963,3.99,6,GPS_Atti,
49.6208650569552,16.1248578420368,2260.8817514821,2.952756,0,0.61807088592,19200,2016-08-16 13:59:51,18,23.838,2261.2098354821,3.28084,0.3131716,0.64509844584,239.3,0,0,1024,1024,1024,1024,237.4,0,98,3.95,3.971,3.956,3.968,3.963,3.99,6,GPS_Atti,
49.6208651083629,16.1248577774261,2260.8817514821,2.952756,0,0.63627626708,19300,2016-08-16 13:59:51,18,23.838,2261.2098354821,3.28084,0.3131716,0.64509844584,239.3,0,0,1024,1024,1024,1024,237.4,0,98,3.95,3.971,3.956,3.968,3.963,3.99,6,GPS_Atti,
49.6208651859503,16.1248578061376,2260.8817514821,2.952756,0.223694,0.66475723912,19400,2016-08-16 13:59:51,18,23.838,2261.2098354821,3.28084,0.3131716,0.66475723912,239.3,0,0,1024,1024,1024,1024,237.4,0,98,3.95,3.971,3.956,3.968,3.963,3.99,6,GPS_Atti,
49.6208652802747,16.1248576012505,2260.8817514821,2.952756,0.223694,0.69936682028,19500,2016-08-16 13:59:51,18,23.838,2261.2098354821,3.28084,0.3131716,0.69936682028,239.3,0,0,1024,1024,1024,1024,237.5,0,98,3.95,3.971,3.956,3.968,3.963,3.99,6,GPS_Atti,
49.6208654947445,16.1248572627597,2260.8817514821,2.952756,0.223694,0.784448844,19700,2016-08-16 13:59:51,18,23.838,2261.2098354821,3.28084,0.3131716,0.784448844,239.2,0,0,1024,1024,1024,1024,237.5,0,98,3.95,3.971,3.956,3.968,3.963,3.99,6,GPS_Atti,
49.6208654895328,16.1248571403422,2260.8817514821,2.952756,0.223694,0.78705383096,19800,2016-08-16 13:59:51,18,23.838,2261.2098354821,3.28084,0.3131716,0.78705383096,239.2,0,0,1024,1024,1092,1024,237.6,0,98,3.95,3.971,3.956,3.968,3.963,3.99,6,GPS_Atti,
49.620865565601,16.124856927802,2260.8817514821,2.952756,0,0.82429136496,19900,2016-08-16 13:59:51,18,23.838,2261.2098354821,3.28084,0.3131716,0.82429136496,239.3,0,0,1024,1024,1245,1024,237.6,0,98,3.95,3.971,3.956,3.968,3.963,3.99,6,GPS_Atti,
49.6208655429173,16.1248567989331,2260.8817514821,2.952756,0,0.82372377964,20000,2016-08-16 13:59:51,18,23.838,2261.2098354821,3.28084,0.3131716,0.82429136496,239.4,0,0,1024,1024,1346,1024,237.6,0,98,3.95,3.971,3.956,3.968,3.963,3.99,6,GPS_Atti,
49.6208655429173,16.1248567989331,2260.8817514821,2.952756,0,0.82372377964,20000,2016-08-16 13:59:52,18,23.838,2261.2098354821,3.28084,0.3131716,0.82429136496,239.4,0,0,1024,1024,1346,1024,237.7,0,98,3.95,3.971,3.956,3.968,3.963,3.99,6,GPS_Atti,
49.620865613762,16.1248568639672,2260.8817514821,2.952756,0,0.84488847848,20100,2016-08-16 13:59:52,18,23.766,2261.2098354821,3.28084,0.3131716,0.84488847848,239.4,0,0,1024,1024,1371,1024,237.7,0,98,3.94,3.979,3.936,3.961,3.968,3.97,6,GPS_Atti,
49.6208655641485,16.124856871897,2261.2098354821,3.28084,0,0.82686682436,20200,2016-08-16 13:59:52,18,23.766,2261.2098354821,3.28084,0.3131716,0.84488847848,239.5,0,0,1024,1024,1372,1024,237.7,0,98,3.94,3.979,3.936,3.961,3.968,3.97,6,GPS_Atti,
49.6208655068254,16.1248569350798,2261.8660034821,3.937008,0,0.80302167924,20400,2016-08-16 13:59:52,18,23.766,2261.8660034821,3.937008,0.3131716,0.84488847848,239.6,0,0,1024,1024,1371,1024,237.8,0,98,3.94,3.979,3.936,3.961,3.968,3.97,6,GPS_Atti,
49.6208654622752,16.1248569913206,2262.1940874821,4.265092,0,0.78419950016,20500,2016-08-16 13:59:52,18,23.766,2262.1940874821,4.265092,0.3131716,0.84488847848,239.5,0,0,1024,1024,1371,1024,237.8,0,98,3.94,3.979,3.936,3.961,3.968,3.97,6,GPS_Atti,
49.6208654343038,16.1248570334889,2262.8502554821,4.92126,0,0.77209976224,20600,2016-08-16 13:59:52,18,23.766,2262.8502554821,4.92126,0.3131716,0.84488847848,239.3,0,0,1024,1024,1382,1024,237.9,0,98,3.94,3.979,3.936,3.961,3.968,3.97,6,GPS_Atti,
49.6208655168087,16.1248572219456,2263.1783394821,5.249344,0,0.79378939548,20700,2016-08-16 13:59:52,18,23.766,2263.1783394821,5.249344,0.3131716,0.84488847848,239.2,0,0,1024,1024,1385,1024,237.9,0,98,3.94,3.979,3.936,3.961,3.968,3.97,6,GPS_Atti,
49.6208655549386,16.1248571615902,2263.8345074821,5.905512,0,0.80973755872,20800,2016-08-16 13:59:52,18,23.766,2263.8345074821,5.905512,0.3131716,0.84488847848,239.3,0,0,1024,1024,1379,1024,237.9,0,98,3.94,3.979,3.936,3.961,3.968,3.97,6,GPS_Atti,
49.6208657051842,16.1248573594551,2265.1468434821,7.217848,0,0.858021681,21000,2016-08-16 13:59:52,18,23.766,2265.1468434821,7.217848,0.3131716,0.858021681,239.5,0,0,1024,1024,1371,1024,237.9,0,98,3.94,3.979,3.936,3.961,3.968,3.97,6,GPS_Atti,
49.6208657448206,16.1248572140895,2265.8030114821,7.874016,0,0.87640750836,21100,2016-08-16 13:59:53,18,23.766,2265.8030114821,7.874016,0.3131716,0.87640750836,239.5,0,0,1024,1024,1371,1024,238,0,98,3.94,3.979,3.936,3.961,3.968,3.97,6,GPS_Atti,
49.6208657566341,16.1248570937135,2266.4591794821,8.530184,0,0.88496393908,21200,2016-08-16 13:59:53,18,23.766,2266.4591794821,8.530184,0.3131716,0.88496393908,239.5,0,0,1024,1024,1369,1024,238,0,98,3.94,3.979,3.936,3.961,3.968,3.97,6,GPS_Atti,
49.6208658841979,16.1248570031175,2267.1153474821,9.186352,0,0.9345144656,21300,2016-08-16 13:59:53,18,23.734,2267.1153474821,9.186352,0.3131716,0.9345144656,239.4,0,0,1024,1024,1371,1024,238,0,98,3.931,3.977,3.931,3.951,3.966,3.963,6,GPS_Atti,
49.6208658466825,16.1248569266354,2267.7715154821,9.84252,0,0.92453415032,21400,2016-08-16 13:59:53,18,23.734,2267.7715154821,9.84252,0.3131716,0.9345144656,239.4,0,0,1024,1024,1365,1024,238,0,98,3.931,3.977,3.931,3.951,3.966,3.963,6,GPS_Atti,
49.6208658466825,16.1248569266354,2267.7715154821,9.84252,0,0.92453415032,21400,2016-08-16 13:59:53,18,23.734,2267.7715154821,9.84252,0.3131716,0.9345144656,239.4,0,0,1024,1024,1365,1024,238.1,0,98,3.931,3.977,3.931,3.951,3.966,3.963,6,GPS_Atti,
49.6208657911561,16.1248565667458,2268.4276834821,10.498688,0,0.92600396664,21500,2016-08-16 13:59:53,18,23.734,2268.4276834821,10.498688,0.3131716,0.9345144656,239.3,0,0,1024,1024,1368,1024,238.1,0,98,3.931,3.977,3.931,3.951,3.966,3.963,6,GPS_Atti,
49.6208656399563,16.1248561350844,2269.4119354821,11.48294,0.223694,0.91034451732,21700,2016-08-16 13:59:53,18,23.734,2269.4119354821,11.48294,0.3131716,0.9345144656,239.2,0,0,1024,1024,1349,1024,238.1,0,98,3.931,3.977,3.931,3.951,3.966,3.963,6,GPS_Atti,
49.6208655608802,16.1248559798494,2270.0681034821,12.139108,0.223694,0.90024281096,21800,2016-08-16 13:59:53,18,23.734,2270.0681034821,12.139108,0.3131716,0.9345144656,239.2,0,0,1024,1024,1351,1024,238.1,0,98,3.931,3.977,3.931,3.951,3.966,3.963,6,GPS_Atti,
49.6208654565915,16.1248556401308,2270.7242714821,12.795276,0.223694,0.9073491104,21900,2016-08-16 13:59:53,18,23.734,2270.7242714821,12.795276,0.3131716,0.9345144656,239.4,0,0,1024,1024,1354,1024,238.2,0,98,3.931,3.977,3.931,3.951,3.966,3.963,6,GPS_Atti,
49.6208653632213,16.1248554759164,2271.3804394821,13.451444,0.223694,0.90113848028,22000,2016-08-16 13:59:53,18,23.734,2271.3804394821,13.451444,0.3131716,0.9345144656,239.5,0,0,1024,1024,1328,1024,238.2,0,98,3.931,3.977,3.931,3.951,3.966,3.963,6,GPS_Atti,
49.6208652833074,16.1248552856533,2272.0366074821,14.107612,0,0.9055610526,22100,2016-08-16 13:59:54,18,23.734,2272.0366074821,14.107612,0.3131716,0.9345144656,239.6,0,0,1024,1024,1385,1024,238.2,0,98,3.931,3.977,3.931,3.951,3.966,3.963,6,GPS_Atti,
49.6208652520517,16.1248550959401,2272.3646914821,14.435696,0,0.9261483236,22200,2016-08-16 13:59:54,18,23.734,2272.3646914821,14.435696,0.3131716,0.9345144656,239.6,0,0,1024,1024,1412,1024,238.2,0,98,3.931,3.977,3.931,3.951,3.966,3.963,6,GPS_Atti,
49.6208650955754,16.1248549088606,2273.6770274821,15.748032,0,0.91603677472,22400,2016-08-16 13:59:54,18,23.232,2273.6770274821,15.748032,0.3131716,0.9345144656,239.7,0,0,1024,1024,1368,1024,238.2,0,98,3.849,3.888,3.85,3.879,3.889,3.9,6,GPS_Atti,
49.6208651201308,16.1248549262556,2274.3331954821,16.4042,0,0.91928152548,22500,2016-08-16 13:59:54,18,23.232,2274.3331954821,16.4042,0.3131716,0.9345144656,239.7,0,0,1024,1024,1370,1024,238.3,0,98,3.849,3.888,3.85,3.879,3.889,3.9,6,GPS_Atti,
49.6208651287747,16.1248549404396,2274.9893634821,17.060368,0,0.91908467508,22600,2016-08-16 13:59:54,18,23.232,2274.9893634821,17.060368,0.3131716,0.9345144656,239.7,0,0,1024,1024,1403,1024,238.3,0,98,3.849,3.888,3.85,3.879,3.889,3.9,6,GPS_Atti,
49.6208652166085,16.1248549822243,2275.6455314821,17.716536,0,0.93494753648,22700,2016-08-16 13:59:54,18,23.232,2275.6455314821,17.716536,0.3131716,0.93494753648,239.7,0,0,1024,1024,1427,1024,238.3,0,98,3.849,3.888,3.85,3.879,3.889,3.9,6,GPS_Atti,
49.6208652280494,16.1248550482349,2276.3016994821,18.372704,0,0.92728677508,22800,2016-08-16 13:59:54,18,23.232,2276.3016994821,18.372704,0.3131716,0.93494753648,239.7,0,0,1024,1024,1430,1024,238.3,0,98,3.849,3.888,3.85,3.879,3.889,3.9,6,GPS_Atti,
49.6208652355929,16.1248548536925,2276.9578674821,19.028872,0,0.96110895464,22900,2016-08-16 13:59:54,18,23.232,2276.9578674821,19.028872,0.3131716,0.96110895464,239.7,0,0,1024,1024,1463,1024,238.3,0,98,3.849,3.888,3.85,3.879,3.889,3.9,6,GPS_Atti,
49.6208652340492,16.1248547845647,2278.5982874821,20.669292,0,0.97228349568,23100,2016-08-16 13:59:55,18,23.232,2278.5982874821,20.669292,0.3131716,0.97228349568,239.6,0,0,1024,1024,1463,1024,238.3,0,98,3.849,3.888,3.85,3.879,3.889,3.9,6,GPS_Atti,
49.6208652561655,16.1248547842217,2279.2544554821,21.32546,0,0.978018404,23200,2016-08-16 13:59:55,18,23.232,2279.2544554821,21.32546,0.3131716,0.978018404,239.6,0,0,1024,1024,1463,1024,238.3,0,98,3.849,3.888,3.85,3.879,3.889,3.9,6,GPS_Atti,
49.6208653271798,16.1248547056501,2280.2387074821,22.309712,0,1.00947509792,23300,2016-08-16 13:59:55,18,23.232,2280.2387074821,22.309712,0.3131716,1.00947509792,239.4,0,0,1024,1024,1463,1024,238.4,0,98,3.849,3.888,3.85,3.879,3.889,3.9,6,GPS_Atti,
49.6208653007898,16.1248547490655,2281.2229594821,23.293964,0,0.99541013684,23400,2016-08-16 13:59:55,18,23.232,2281.2229594821,23.293964,0.3131716,1.00947509792,239.3,0,0,1024,1024,1457,1024,238.4,0,98,3.849,3.888,3.85,3.879,3.889,3.9,6,GPS_Atti,
49.6208653566545,16.1248546455248,2281.8791274821,23.950132,0,1.02712273628,23500,2016-08-16 13:59:55,18,23.505,2281.8791274821,23.950132,0.3131716,1.02712273628,239.3,0,0,1024,1024,1461,1024,238.4,0,98,3.892,3.94,3.898,3.914,3.928,3.942,6,GPS_Atti,
49.620865332696,16.1248546965931,2282.8633794821,24.934384,0,1.01241144972,23600,2016-08-16 13:59:55,18,23.505,2282.8633794821,24.934384,0.3131716,1.02712273628,239.4,0,0,1024,1024,1454,1024,238.4,0,98,3.892,3.94,3.898,3.914,3.928,3.942,6,GPS_Atti,
49.6208653044447,16.1248545363658,2283.8476314821,25.918636,0,1.0323655186,23700,2016-08-16 13:59:55,18,23.505,2283.8476314821,25.918636,0.3131716,1.0323655186,239.4,0,0,1024,1024,1440,1024,238.4,0,98,3.892,3.94,3.898,3.914,3.928,3.942,6,GPS_Atti,
49.6208653604489,16.1248546371842,2284.8318834821,26.902888,0,1.0294947836,23800,2016-08-16 13:59:55,18,23.505,2284.8318834821,26.902888,0.3131716,1.0323655186,239.4,0,0,1024,1024,1440,1024,238.4,0,98,3.892,3.94,3.898,3.914,3.928,3.942,6,GPS_Atti,
49.6208653111038,16.1248545766579,2285.8161354821,27.88714,0,1.0271325788,23900,2016-08-16 13:59:55,18,23.505,2285.8161354821,27.88714,0.3131716,1.0323655186,239.4,0,0,1024,1024,1422,1024,238.4,0,98,3.892,3.94,3.898,3.914,3.928,3.942,6,GPS_Atti,
49.6208652532446,16.1248546105901,2286.4723034821,28.543308,0,1.00678808996,24000,2016-08-16 13:59:56,18,23.505,2286.4723034821,28.543308,0.3131716,1.0323655186,239.3,0,0,1024,1024,1371,1024,238.4,0,98,3.892,3.94,3.898,3.914,3.928,3.942,6,GPS_Atti,
49.6208652369407,16.1248545497119,2287.4565554821,29.52756,0,1.01331039988,24100,2016-08-16 13:59:56,18,23.505,2287.4565554821,29.52756,0.3131716,1.0323655186,239.3,0,0,1024,1024,1035,1024,238.4,0,98,3.892,3.94,3.898,3.914,3.928,3.942,6,GPS_Atti,
49.6208651739289,16.1248545584823,2288.1127234821,30.183728,0.223694,0.99640423136,24200,2016-08-16 13:59:56,18,23.505,2288.1127234821,30.183728,0.3131716,1.0323655186,239.2,0,0,1024,1024,1024,1024,238.4,0,98,3.892,3.94,3.898,3.914,3.928,3.942,6,GPS_Atti,
49.6208650200754,16.1248546633462,2288.7688914821,30.839896,0.223694,0.94100068628,24300,2016-08-16 13:59:56,18,23.505,2288.7688914821,30.839896,0.3131716,1.0323655186,239.3,0,0,1024,1024,1024,1024,238.4,0,98,3.892,3.94,3.898,3.914,3.928,3.942,6,GPS_Atti,
49.6208647140182,16.1248547062186,2289.7531434821,31.824148,0.223694,0.86519359724,24500,2016-08-16 13:59:56,18,23.505,2289.7531434821,31.824148,0.3131716,1.0323655186,239.6,0,0,1024,1024,1024,1024,238.4,0,98,3.892,3.94,3.898,3.914,3.928,3.942,6,GPS_Atti,
49.6208645787171,16.1248548062969,2290.0812274821,32.152232,0.223694,0.81810698156,24600,2016-08-16 13:59:56,18,23.386,2290.0812274821,32.152232,0.3131716,1.0323655186,239.8,0,0,1024,1024,1024,1024,238.4,0,98,3.871,3.892,3.892,3.904,3.892,3.919,6,GPS_Atti,
49.6208644050884,16.124854931807,2290.4093114821,32.480316,0.447388,0.75978020804,24700,2016-08-16 13:59:56,18,23.386,2290.4093114821,32.480316,0.447388,1.0323655186,239.8,0,0,1024,1054,1024,1024,238.4,0,98,3.871,3.892,3.892,3.904,3.892,3.919,6,GPS_Atti,
49.6208642118633,16.1248550411045,2290.4093114821,32.480316,0.447388,0.70383532436,24800,2016-08-16 13:59:56,18,23.386,2290.4093114821,32.480316,0.447388,1.0323655186,239.8,0,0,1024,1151,1024,1024,238.4,0,98,3.871,3.892,3.892,3.904,3.892,3.919,6,GPS_Atti,
49.620864114513,16.1248552724673,2290.7373954821,32.8084,0.447388,0.6391568446,24900,2016-08-16 13:59:56,18,23.386,2290.7373954821,32.8084,0.447388,1.0323655186,239.7,0,0,1024,1173,1024,1024,238.4,0,98,3.871,3.892,3.892,3.904,3.892,3.919,6,GPS_Atti,
49.6208637275644,16.1248551571747,2290.7373954821,32.8084,0.447388,0.61923886496,25000,2016-08-16 13:59:57,18,23.386,2290.7373954821,32.8084,0.447388,1.0323655186,239.7,0,0,1024,1156,1024,1024,238.4,0,98,3.871,3.892,3.892,3.904,3.892,3.919,6,GPS_Atti,
49.6208636414031,16.1248553935566,2290.7373954821,32.8084,0.447388,0.55825461104,25100,2016-08-16 13:59:57,18,23.386,2290.7373954821,32.8084,0.447388,1.0323655186,239.6,0,0,1024,1103,1024,1024,238.4,0,98,3.871,3.892,3.892,3.904,3.892,3.919,6,GPS_Atti,
49.6208636627767,16.1248552286722,2290.7373954821,32.8084,0.223694,0.59799542596,25300,2016-08-16 13:59:57,18,23.386,2290.7373954821,32.8084,0.447388,1.0323655186,239.2,0,0,1024,1024,1024,1024,238.4,0,98,3.871,3.892,3.892,3.904,3.892,3.919,6,GPS_Atti,
49.6208636137667,16.12485502013,2290.7373954821,32.8084,0.223694,0.64376314396,25400,2016-08-16 13:59:57,18,23.386,2290.7373954821,32.8084,0.447388,1.0323655186,239.1,0,0,1024,1024,1024,1024,238.4,0,98,3.871,3.892,3.892,3.904,3.892,3.919,6,GPS_Atti,
49.6208638570765,16.1248550016559,2291.0654794821,33.136484,0.223694,0.66634844652,25500,2016-08-16 13:59:57,18,23.386,2291.0654794821,33.136484,0.447388,1.0323655186,239.2,0,0,1024,1024,1024,1024,238.4,0,98,3.871,3.892,3.892,3.904,3.892,3.919,6,GPS_Atti,
49.6208639103858,16.1248548425811,2291.0654794821,33.136484,0.223694,0.70785107252,25600,2016-08-16 13:59:57,18,23.386,2291.0654794821,33.136484,0.447388,1.0323655186,239.2,0,0,1024,1024,1024,1024,238.4,0,98,3.871,3.892,3.892,3.904,3.892,3.919,6,GPS_Atti,
49.6208640829208,16.1248548517907,2291.0654794821,33.136484,0,0.72603020696,25700,2016-08-16 13:59:57,18,23.48,2291.0654794821,33.136484,0.447388,1.0323655186,239.2,0,0,1024,1024,1024,1024,238.4,0,98,3.891,3.947,3.889,3.906,3.913,3.979,6,GPS_Atti,
49.6208639969339,16.124854779441,2291.3935634821,33.464568,0.223694,0.73151577144,25800,2016-08-16 13:59:57,18,23.48,2291.3935634821,33.464568,0.447388,1.0323655186,239.2,0,0,1024,1024,1024,1024,238.4,0,98,3.891,3.947,3.889,3.906,3.913,3.979,6,GPS_Atti,
49.6208641712988,16.1248550293544,2291.3935634821,33.464568,0.223694,0.6999836182,26000,2016-08-16 13:59:57,18,23.48,2291.3935634821,33.464568,0.447388,1.0323655186,239.2,0,0,1024,1024,1024,1024,238.4,0,98,3.891,3.947,3.889,3.906,3.913,3.979,6,GPS_Atti,
49.620864127505,16.1248547818113,2291.3935634821,33.464568,0,0.74738191368,26100,2016-08-16 13:59:58,18,23.48,2291.3935634821,33.464568,0.447388,1.0323655186,239.3,0,0,1055,1018,1024,1024,238.4,0,98,3.891,3.947,3.889,3.906,3.913,3.979,6,GPS_Atti,
49.6208640985372,16.1248547924763,2291.0654794821,33.136484,0,0.74116144104,26200,2016-08-16 13:59:58,18,23.48,2291.3935634821,33.464568,0.447388,1.0323655186,239.5,0,0,1189,1004,1024,1024,238.4,0,98,3.891,3.947,3.889,3.906,3.913,3.979,6,GPS_Atti,
49.6208642144095,16.1248547582607,2291.0654794821,33.136484,0,0.76484254416,26300,2016-08-16 13:59:58,18,23.48,2291.3935634821,33.464568,0.447388,1.0323655186,239.6,0,0,1165,1024,1024,1024,238.4,0,98,3.891,3.947,3.889,3.906,3.913,3.979,6,GPS_Atti,
49.6208641583526,16.1248547058269,2291.0654794821,33.136484,0.3131716,0.76825133692,26400,2016-08-16 13:59:58,18,23.48,2291.3935634821,33.464568,0.447388,1.0323655186,239.6,0,0,1024,1024,1024,1024,238.5,0,98,3.891,3.947,3.889,3.906,3.913,3.979,6,GPS_Atti,
49.6208640542629,16.1248543525425,2291.0654794821,33.136484,0.6263432,0.83395343876,26500,2016-08-16 13:59:58,18,23.48,2291.3935634821,33.464568,0.6263432,1.0323655186,239.5,0,0,1024,1024,1024,1024,238.4,0,98,3.891,3.947,3.889,3.906,3.913,3.979,6,GPS_Atti,
49.6208635679512,16.12485331618,2291.0654794821,33.136484,0.9395148,1.0427165688,26700,2016-08-16 13:59:58,18,23.48,2291.3935634821,33.464568,0.9395148,1.0427165688,239.4,0,0,1024,1024,1024,1024,238.5,0,98,3.891,3.947,3.889,3.906,3.913,3.979,6,GPS_Atti,
49.620863273086,16.1248528445604,2291.0654794821,33.136484,0.9395148,1.15204071928,26800,2016-08-16 13:59:58,18,23.48,2291.3935634821,33.464568,0.9395148,1.15204071928,239.4,0,0,1024,1024,1024,1024,238.5,0,98,3.891,3.947,3.889,3.906,3.913,3.979,6,GPS_Atti,
49.6208631521541,16.124852250901,2291.0654794821,33.136484,0.8052984,1.29420279732,26900,2016-08-16 13:59:58,18,23.954,2291.3935634821,33.464568,0.9395148,1.29420279732,239.4,0,0,1024,1024,1024,1024,238.4,0,97,3.891,3.947,3.889,3.906,3.913,3.979,6,GPS_Atti,
49.6208629241381,16.1248518260265,2291.0654794821,33.136484,0.6263432,1.40155516296,27000,2016-08-16 13:59:58,18,23.954,2291.3935634821,33.464568,0.9395148,1.40155516296,239.4,0,0,1024,1024,1024,1024,238.5,0,97,3.891,3.947,3.889,3.906,3.913,3.979,6,GPS_Atti,
49.6208627769072,16.1248512301813,2291.0654794821,33.136484,0.4921268,1.54807091568,27100,2016-08-16 13:59:59,18,23.954,2291.3935634821,33.464568,0.9395148,1.54807091568,239.5,0,0,1024,1024,1024,1024,238.5,0,97,3.891,3.947,3.889,3.906,3.913,3.979,6,GPS_Atti,
